{"shops": [{"name": "ア・ニュ Shohei Shimono", "url": "https://tabelog.com/tokyo/A1307/A130703/13238000/", "address": "東京都渋谷区広尾5-19-4 SR広尾ビル 1F", "code": "hyakumeiten_creative_innovative_2025_restaurant_13238000", "lat": "35.648801", "lng": "139.720031", "geocode_source": "abr", "coordinate_level": "residential_block", "normalized_address": "東京都渋谷区広尾5丁目19-4 SR広尾ビル 1F", "id": "creative_innovative-0"}, {"name": "SECRETO", "url": "https://tabelog.com/tokyo/A1309/A130905/13213559/", "address": "東京都新宿区二十騎町2-23 ランピオンイゴー 1F 102", "code": "hyakumeiten_creative_innovative_2025_restaurant_13213559", "lat": "35.698509", "lng": "139.731185", "geocode_source": "geocoding_jp", "coordinate_level": "city", "normalized_address": "東京都新宿区二十騎町2-23 ランピオンイゴー 1F 102", "id": "creative_innovative-1"}, {"name": "RiVi", "url": "https://tabelog.com/osaka/A2701/A270102/27101945/", "address": "大阪府大阪市西区京町堀1-16-28 W京町堀ビル 1F", "code": "hyakumeiten_creative_innovative_2025_restaurant_27101945", "lat": "34.68714", "lng": "135.493905", "geocode_source": "geocoding_jp", "coordinate_level": "city", "normalized_address": "大阪府大阪市西区京町堀1丁目16-28 W京町堀ビル 1F", "id": "creative_innovative-2"}, {"name": "よし奈", "url": "https://tabelog.com/gifu/A2101/A210101/21019544/", "address": "岐阜県岐阜市領下4-28 サンシティー杉山5 1F", "code": "hyakumeiten_creative_innovative_2025_restaurant_21019544", "lat": "35.406734", "lng": "136.779935", "geocode_source": "geocoding_jp", "coordinate_level": "city", "normalized_address": "岐阜県岐阜市領下4丁目28 サンシティー杉山5 1F", "id": "creative_innovative-3"}, {"name": "トゥ・ラ・ジョア イズム", "url": "https://tabelog.com/aichi/A2301/A230105/23078483/", "address": "愛知県名古屋市中区正木1-14-2", "code": "hyakumeiten_creative_innovative_2025_restaurant_23078483", "lat": "35.15098", "lng": "136.896738", "geocode_source": "abr", "coordinate_level": "residential_block", "normalized_address": "愛知県名古屋市中区正木一丁目14-2", "id": "creative_innovative-4"}, {"name": "HELIOTROPE", "url": "https://tabelog.com/nagano/A2003/A200301/20025765/", "address": "長野県北佐久郡軽井沢町大字軽井沢467-30 1F", "code": "hyakumeiten_creative_innovative_2025_restaurant_20025765", "lat": "36.351848", "lng": "138.63445", "geocode_source": "geocoding_jp", "coordinate_level": "city", "normalized_address": "東京都北区佐久郡軽井沢町大字軽井沢467-30 1F", "id": "creative_innovative-5"}, {"name": "ラ・カーサ・ディ・テツオ オオタ", "url": "https://tabelog.com/nagano/A2003/A200301/20023219/", "address": "長野県北佐久郡軽井沢町大字発地342-100", "code": "hyakumeiten_creative_innovative_2025_restaurant_20023219", "lat": "36.297883", "lng": "138.6205", "geocode_source": "geocoding_jp", "coordinate_level": "city", "normalized_address": "東京都北区佐久郡軽井沢町大字発地342-100", "id": "creative_innovative-6"}, {"name": "JIMGU", "url": "https://tabelog.com/oita/A4402/A440201/44013469/", "address": "大分県由布市湯布院町川上丸尾544 ENOWA YUFUIN", "code": "hyakumeiten_creative_innovative_2025_restaurant_44013469", "lat": "33.2764", "lng": "131.365517", "geocode_source": "geocoding_jp", "coordinate_level": "city", "normalized_address": "大分県由布市湯布院町川上丸尾544 ENOWA YUFUIN", "id": "creative_innovative-7"}, {"name": "RESTAURANT SALT", "url": "https://tabelog.com/saitama/A1101/A110102/11049271/", "address": "埼玉県さいたま市浦和区高砂4-4-19 TACビル１F", "code": "hyakumeiten_creative_innovative_2025_restaurant_11049271", "lat": "35.858333", "lng": "139.646855", "geocode_source": "abr", "coordinate_level": "residential_block", "normalized_address": "埼玉県さいたま市浦和区高砂4丁目4-19 TACビル1F", "id": "creative_innovative-8"}, {"name": "yokoyama", "url": "https://tabelog.com/hyogo/A2801/A280102/28062434/", "address": "兵庫県神戸市中央区下山手通4-13-5 三木ビル 1F", "code": "hyakumeiten_creative_innovative_2025_restaurant_28062434", "lat": "34.692592", "lng": "135.185815", "geocode_source": "geocoding_jp", "coordinate_level": "prefecture", "normalized_address": "兵庫県神戸市中央区下山手通4-13-5 三木ビル 1F", "id": "creative_innovative-9"}, {"name": "リブロ ヴェルデ", "url": "https://tabelog.com/osaka/A2701/A270101/27119599/", "address": "大阪府大阪市北区曽根崎新地1-2-20 ノースタウンビル 1F", "code": "hyakumeiten_creative_innovative_2025_restaurant_27119599", "lat": "34.697465", "lng": "135.497482", "geocode_source": "geocoding_jp", "coordinate_level": "city", "normalized_address": "大阪府大阪市北区曽根崎新地1-2-20 ノースタウンビル 1F", "id": "creative_innovative-10"}, {"name": "ete", "url": "https://tabelog.com/tokyo/A1318/A131811/13249143/", "address": "東京都渋谷区西原3-23-1", "code": "hyakumeiten_creative_innovative_2025_restaurant_13249143", "lat": "35.670568", "lng": "139.683245", "geocode_source": "abr", "coordinate_level": "residential_block", "normalized_address": "東京都渋谷区西原3丁目23-1", "id": "creative_innovative-11"}, {"name": "Riverente", "url": "https://tabelog.com/aichi/A2301/A230102/23080469/", "address": "愛知県名古屋市西区那古野1-36-52 2F", "code": "hyakumeiten_creative_innovative_2025_restaurant_23080469", "lat": "35.174991", "lng": "136.892628", "geocode_source": "abr", "coordinate_level": "residential_block", "normalized_address": "愛知県名古屋市西区那古野一丁目36-52 2F", "id": "creative_innovative-12"}, {"name": "ラ カンロ", "url": "https://tabelog.com/osaka/A2701/A270103/27119203/", "address": "大阪府大阪市北区天神西町3-9 NUI南森町南側", "code": "hyakumeiten_creative_innovative_2025_restaurant_27119203", "lat": "34.694646", "lng": "135.509878", "geocode_source": "geocoding_jp", "coordinate_level": "city", "normalized_address": "大阪府大阪市北区天神西町3-9 NUI南森町南側", "id": "creative_innovative-13"}, {"name": "No Code", "url": "https://tabelog.com/tokyo/A1306/A130602/13274639/", "address": "東京都港区西麻布2-25-31 クオーレ西麻布 2F", "code": "hyakumeiten_creative_innovative_2025_restaurant_13274639", "lat": "35.659939", "lng": "139.721456", "geocode_source": "abr", "coordinate_level": "residential_block", "normalized_address": "東京都港区西麻布2丁目25-31 クオーレ西麻布 2F", "id": "creative_innovative-14"}, {"name": "霜止出苗", "url": "https://tabelog.com/hokkaido/A0101/A010104/1061277/", "address": "北海道札幌市中央区南9西4-5-12 カモカモビル1F", "code": "hyakumeiten_creative_innovative_2025_restaurant_1061277", "lat": "43.047628", "lng": "141.353001", "geocode_source": "geocoding_jp", "coordinate_level": "prefecture", "normalized_address": "北海道札幌市中央区南9番地西4-5-12 カモカモビル1F", "id": "creative_innovative-15"}, {"name": "ガストロノミヤ 古賀圭祐", "url": "https://tabelog.com/fukuoka/A4001/A400104/40054627/", "address": "福岡県福岡市中央区舞鶴1-2-10 2F", "code": "hyakumeiten_creative_innovative_2025_restaurant_40054627", "lat": "33.591063", "lng": "130.393075", "geocode_source": "geocoding_jp", "coordinate_level": "city", "normalized_address": "福岡県福岡市中央区舞鶴1丁目2-10 2F", "id": "creative_innovative-16"}, {"name": "SANADA", "url": "https://tabelog.com/osaka/A2701/A270101/27134528/", "address": "大阪府大阪市北区曽根崎新地1-7-9 エスパス北新地11 1F", "code": "hyakumeiten_creative_innovative_2025_restaurant_27134528", "lat": "34.697079", "lng": "135.499987", "geocode_source": "geocoding_jp", "coordinate_level": "city", "normalized_address": "大阪府大阪市北区曽根崎新地1-7-9 エスパス北新地11 1F", "id": "creative_innovative-17"}, {"name": "Metis 六本木", "url": "https://tabelog.com/tokyo/A1307/A130702/13280829/", "address": "東京都港区六本木5-18-22 FORCEビル 1F", "code": "hyakumeiten_creative_innovative_2025_restaurant_13280829", "lat": "35.660906", "lng": "139.737108", "geocode_source": "abr", "coordinate_level": "residential_block", "normalized_address": "東京都港区六本木5丁目18-22 FORCEビル 1F", "id": "creative_innovative-18"}, {"name": "Goh", "url": "https://tabelog.com/fukuoka/A4001/A400103/40062839/", "address": "福岡県福岡市博多区住吉1-4-17 BAR010 3F", "code": "hyakumeiten_creative_innovative_2025_restaurant_40062839", "lat": "33.58811", "lng": "130.410216", "geocode_source": "geocoding_jp", "coordinate_level": "city", "normalized_address": "福岡県福岡市博多区住吉1-4-17 BAR01 3F", "id": "creative_innovative-19"}, {"name": "真白", "url": "https://tabelog.com/kyoto/A2601/A260202/26039931/", "address": "京都府京都市中京区堂之前町234 OHG京都六角ビル 2F", "code": "hyakumeiten_creative_innovative_2025_restaurant_26039931", "lat": "35.007252", "lng": "135.760712", "geocode_source": "geocoding_jp", "coordinate_level": "prefecture", "normalized_address": "京都府京都市中京区堂之前町234 OHG京都六角ビル 2F", "id": "creative_innovative-20"}, {"name": "鷹ノ橋　清耽", "url": "https://tabelog.com/hiroshima/A3401/A340116/34004110/", "address": "広島県広島市中区大手町5-17-1", "code": "hyakumeiten_creative_innovative_2025_restaurant_34004110", "lat": "34.381465", "lng": "132.452752", "geocode_source": "geocoding_jp", "coordinate_level": "city", "normalized_address": "広島県広島市中区大手町五丁目17-1", "id": "creative_innovative-21"}, {"name": "TTOAHISU", "url": "https://tabelog.com/fukuoka/A4001/A400105/40042997/", "address": "福岡県福岡市中央区大手門3-12-12 BLDG64 1F", "code": "hyakumeiten_creative_innovative_2025_restaurant_40042997", "lat": "33.591572", "lng": "130.380585", "geocode_source": "geocoding_jp", "coordinate_level": "city", "normalized_address": "福岡県福岡市中央区大手門3丁目12-12 BLDG64 1F", "id": "creative_innovative-22"}, {"name": "新門前 米村", "url": "https://tabelog.com/kyoto/A2601/A260301/26032575/", "address": "京都府京都市東山区新門前通花見小路東入梅本町255", "code": "hyakumeiten_creative_innovative_2025_restaurant_26032575", "lat": "35.006227", "lng": "135.776648", "geocode_source": "geocoding_jp", "coordinate_level": "prefecture", "normalized_address": "京都府京都市東山区新門前通花見小路東入梅本町255", "id": "creative_innovative-23"}, {"name": "ア レストラン", "url": "https://tabelog.com/ishikawa/A1701/A170101/17012244/", "address": "石川県金沢市片町2-23-12 中央コアビル 2F", "code": "hyakumeiten_creative_innovative_2025_restaurant_17012244", "lat": "36.559401", "lng": "136.651262", "geocode_source": "geocoding_jp", "coordinate_level": "prefecture", "normalized_address": "石川県金沢市片町2-23-12 中央コアビル 2F", "id": "creative_innovative-24"}, {"name": "SMAAK", "url": "https://tabelog.com/kanagawa/A1401/A140104/14088267/", "address": "神奈川県横浜市中区北仲通5-57-2 横浜北仲ノット 46F", "code": "hyakumeiten_creative_innovative_2025_restaurant_14088267", "lat": "35.450213", "lng": "139.637622", "geocode_source": "geocoding_jp", "coordinate_level": "city", "normalized_address": "神奈川県横浜市中区北仲通5丁目57-2 横浜北仲ノット 46F", "id": "creative_innovative-25"}, {"name": "レストラン 5", "url": "https://tabelog.com/saga/A4101/A410101/41006723/", "address": "佐賀県佐賀市神野西4-21-5", "code": "hyakumeiten_creative_innovative_2025_restaurant_41006723", "lat": "33.265692", "lng": "130.286909", "geocode_source": "geocoding_jp", "coordinate_level": "city", "normalized_address": "佐賀県佐賀市神野西四丁目21-5", "id": "creative_innovative-26"}, {"name": "Fusible", "url": "https://tabelog.com/hyogo/A2801/A280102/28058576/", "address": "兵庫県神戸市中央区北長狭通5-1-13 ベルビ山手元町 1F", "code": "hyakumeiten_creative_innovative_2025_restaurant_28058576", "lat": "34.689428", "lng": "135.184819", "geocode_source": "geocoding_jp", "coordinate_level": "prefecture", "normalized_address": "兵庫県神戸市中央区北長狭通5-1-13 ベルビ山手元町 1F", "id": "creative_innovative-27"}, {"name": "デンクシフロリ", "url": "https://tabelog.com/tokyo/A1306/A130602/13251137/", "address": "東京都渋谷区神宮前5-46-7 GEMS青山CROSS B1F", "code": "hyakumeiten_creative_innovative_2025_restaurant_13251137", "lat": "35.664047", "lng": "139.708332", "geocode_source": "abr", "coordinate_level": "residential_block", "normalized_address": "東京都渋谷区神宮前5丁目46-7 GEMS青山CROSS B1F", "id": "creative_innovative-28"}, {"name": "十皿", "url": "https://tabelog.com/osaka/A2701/A270101/27106878/", "address": "大阪府大阪市北区西天満2-7-26 徳矢ビル 1F", "code": "hyakumeiten_creative_innovative_2025_restaurant_27106878", "lat": "34.695937", "lng": "135.502093", "geocode_source": "geocoding_jp", "coordinate_level": "city", "normalized_address": "大阪府大阪市北区西天満2丁目7-26 徳矢ビル 1F", "id": "creative_innovative-29"}, {"name": "潟潟ヤ", "url": "https://tabelog.com/kanagawa/A1405/A140505/14012400/", "address": "神奈川県川崎市高津区溝口4-8-23 シルクコーポ 1F", "code": "hyakumeiten_creative_innovative_2025_restaurant_14012400", "lat": "35.604217", "lng": "139.616108", "geocode_source": "geocoding_jp", "coordinate_level": "city", "normalized_address": "神奈川県川崎市高津区溝口4丁目8-23 シルクコーポ 1F", "id": "creative_innovative-30"}, {"name": "GohGan", "url": "https://tabelog.com/fukuoka/A4001/A400103/40062762/", "address": "福岡県福岡市博多区住吉1-4-17 010 BUILDING", "code": "hyakumeiten_creative_innovative_2025_restaurant_40062762", "lat": "33.588099", "lng": "130.41033", "geocode_source": "geocoding_jp", "coordinate_level": "city", "normalized_address": "福岡県福岡市博多区住吉1-4-17 01 BUILDING", "id": "creative_innovative-31"}, {"name": "こすだ", "url": "https://tabelog.com/osaka/A2701/A270103/27127044/", "address": "大阪府大阪市北区国分寺2-3-13 2F", "code": "hyakumeiten_creative_innovative_2025_restaurant_27127044", "lat": "34.711829", "lng": "135.512258", "geocode_source": "geocoding_jp", "coordinate_level": "city", "normalized_address": "大阪府大阪市北区国分寺2丁目3-13 2F", "id": "creative_innovative-32"}, {"name": "オルト", "url": "https://tabelog.com/kyoto/A2601/A260202/26006883/", "address": "京都府京都市中京区衣棚通三条下ル三条町337-2", "code": "hyakumeiten_creative_innovative_2025_restaurant_26006883", "lat": "35.008001", "lng": "135.757086", "geocode_source": "geocoding_jp", "coordinate_level": "prefecture", "normalized_address": "京都府京都市中京区衣棚通三条下ル三条町337-2", "id": "creative_innovative-33"}, {"name": "タカヤマ", "url": "https://tabelog.com/kyoto/A2601/A260201/26033554/", "address": "京都府京都市下京区河原町通四条下ル2稲荷町318-6 GOOD NATURE STATION 2F", "code": "hyakumeiten_creative_innovative_2025_restaurant_26033554", "lat": "35.002563", "lng": "135.769157", "geocode_source": "geocoding_jp", "coordinate_level": "prefecture", "normalized_address": "京都府京都市下京区河原町通四条下ル2稲荷町318-6 GOOD NATURE STATION 2F", "id": "creative_innovative-34"}, {"name": "ファン・ダルクオーレ", "url": "https://tabelog.com/gunma/A1001/A100102/10022160/", "address": "群馬県高崎市竜見町10-8", "code": "hyakumeiten_creative_innovative_2025_restaurant_10022160", "lat": "36.316491", "lng": "139.010068", "geocode_source": "geocoding_jp", "coordinate_level": "city", "normalized_address": "群馬県高崎市竜見町10-8", "id": "creative_innovative-35"}, {"name": "ORIGO", "url": "https://tabelog.com/ishikawa/A1701/A170101/17012364/", "address": "石川県金沢市笠市町10-1", "code": "hyakumeiten_creative_innovative_2025_restaurant_17012364", "lat": "36.578225", "lng": "136.655535", "geocode_source": "geocoding_jp", "coordinate_level": "prefecture", "normalized_address": "石川県金沢市笠市町10-1", "id": "creative_innovative-36"}, {"name": "レストラン スノゥ", "url": "https://tabelog.com/fukuoka/A4001/A400104/40054526/", "address": "福岡県福岡市中央区高砂1-16-17 エスペランサ天神南 1F", "code": "hyakumeiten_creative_innovative_2025_restaurant_40054526", "lat": "33.579195", "lng": "130.406801", "geocode_source": "geocoding_jp", "coordinate_level": "city", "normalized_address": "福岡県福岡市中央区高砂1丁目16-17 エスペランサ天神南 1F", "id": "creative_innovative-37"}, {"name": "シルー", "url": "https://tabelog.com/okinawa/A4703/A470303/47024416/", "address": "沖縄県国頭郡恩納村字名嘉真2198-1 ハレクラニ沖縄", "code": "hyakumeiten_creative_innovative_2025_restaurant_47024416", "lat": "26.526567", "lng": "127.922489", "geocode_source": "geocoding_jp", "coordinate_level": "prefecture", "normalized_address": "沖縄県国頭郡恩納村名嘉真2198-1 ハレクラニ沖縄", "id": "creative_innovative-38"}, {"name": "TexturA", "url": "https://tabelog.com/tokyo/A1301/A130102/13232958/", "address": "東京都千代田区有楽町1-7-1 有楽町電気ビル 1F", "code": "hyakumeiten_creative_innovative_2025_restaurant_13232958", "lat": "35.674357", "lng": "139.761437", "geocode_source": "abr", "coordinate_level": "residential_block", "normalized_address": "東京都千代田区有楽町一丁目7-1 有楽町電気ビル 1F", "id": "creative_innovative-39"}, {"name": "ラチェルバ", "url": "https://tabelog.com/osaka/A2701/A270101/27086479/", "address": "大阪府大阪市北区堂島浜1-2-1 新ダイビル 2F", "code": "hyakumeiten_creative_innovative_2025_restaurant_27086479", "lat": "34.695696", "lng": "135.499134", "geocode_source": "geocoding_jp", "coordinate_level": "city", "normalized_address": "大阪府大阪市北区堂島浜1丁目2-1 新ダイビル 2F", "id": "creative_innovative-40"}, {"name": "薪焼きび", "url": "https://tabelog.com/aichi/A2301/A230104/23081224/", "address": "愛知県名古屋市中区東桜2-22-18 日興ビルヂング B1F", "code": "hyakumeiten_creative_innovative_2025_restaurant_23081224", "lat": "35.169713", "lng": "136.916365", "geocode_source": "abr", "coordinate_level": "residential_block", "normalized_address": "愛知県名古屋市中区東桜二丁目22-18 日興ビルヂング B1F", "id": "creative_innovative-41"}, {"name": "Restaurant つじ川", "url": "https://tabelog.com/osaka/A2701/A270201/27078695/", "address": "大阪府大阪市中央区南船場3丁目2-28 タイヨービル", "code": "hyakumeiten_creative_innovative_2025_restaurant_27078695", "lat": "34.677409", "lng": "135.502874", "geocode_source": "geocoding_jp", "coordinate_level": "city", "normalized_address": "大阪府大阪市中央区南船場3丁目2-28 タイヨービル", "id": "creative_innovative-42"}, {"name": "小料理 Yarn", "url": "https://tabelog.com/kagawa/A3701/A370101/37011843/", "address": "香川県高松市片原町4-14 片原町テラス 1F", "code": "hyakumeiten_creative_innovative_2025_restaurant_37011843", "lat": "34.34548", "lng": "134.054833", "geocode_source": "geocoding_jp", "coordinate_level": "prefecture", "normalized_address": "香川県高松市片原町4-14 片原町テラス 1F", "id": "creative_innovative-43"}, {"name": "CAINOYA", "url": "https://tabelog.com/kyoto/A2601/A260402/26040164/", "address": "京都府京都市右京区花園土堂町17-3", "code": "hyakumeiten_creative_innovative_2025_restaurant_26040164", "lat": "35.025046", "lng": "135.716528", "geocode_source": "geocoding_jp", "coordinate_level": "prefecture", "normalized_address": "京都府京都市右京区花園土堂町17-3", "id": "creative_innovative-44"}, {"name": "長谷川 稔", "url": "https://tabelog.com/tokyo/A1307/A130703/13220575/", "address": "東京都港区南麻布4-5-66", "code": "hyakumeiten_creative_innovative_2025_restaurant_13220575", "lat": "35.650167", "lng": "139.724874", "geocode_source": "abr", "coordinate_level": "residential_block", "normalized_address": "東京都港区南麻布4丁目5-66", "id": "creative_innovative-45"}, {"name": "KINO_", "url": "https://tabelog.com/tokyo/A1304/A130403/13285210/", "address": "東京都渋谷区代々木1-37-4 長谷川ビル 1F", "code": "hyakumeiten_creative_innovative_2025_restaurant_13285210", "lat": "35.683533", "lng": "139.700727", "geocode_source": "abr", "coordinate_level": "residential_block", "normalized_address": "東京都渋谷区代々木1丁目37-4 長谷川ビル 1F", "id": "creative_innovative-46"}, {"name": "U.KAI", "url": "https://tabelog.com/osaka/A2701/A270101/27116521/", "address": "大阪府大阪市北区曽根崎新地1-1-40 ジロービル B1F", "code": "hyakumeiten_creative_innovative_2025_restaurant_27116521", "lat": "34.696708", "lng": "135.500391", "geocode_source": "geocoding_jp", "coordinate_level": "city", "normalized_address": "大阪府大阪市北区曽根崎新地1-1-40 ジロービル B1F", "id": "creative_innovative-47"}, {"name": "アコルドゥ", "url": "https://tabelog.com/nara/A2901/A290101/29010346/", "address": "奈良県奈良市水門町70-1-3-1", "code": "hyakumeiten_creative_innovative_2025_restaurant_29010346", "lat": "34.685891", "lng": "135.835445", "geocode_source": "geocoding_jp", "coordinate_level": "prefecture", "normalized_address": "奈良県奈良市水門町70-1-3-1", "id": "creative_innovative-48"}, {"name": "カハラ", "url": "https://tabelog.com/osaka/A2701/A270101/27000188/", "address": "大阪府大阪市北区曽根崎新地1-9-2 岸本ビル ２Ｆ", "code": "hyakumeiten_creative_innovative_2025_restaurant_27000188", "lat": "34.697517", "lng": "135.499691", "geocode_source": "geocoding_jp", "coordinate_level": "city", "normalized_address": "大阪府大阪市北区曽根崎新地1-9-2 岸本ビル 2F", "id": "creative_innovative-49"}, {"name": "ハジメ", "url": "https://tabelog.com/osaka/A2701/A270102/27015488/", "address": "大阪府大阪市西区江戸堀1-9-11 アイプラス江戸堀1F", "code": "hyakumeiten_creative_innovative_2025_restaurant_27015488", "lat": "34.688711", "lng": "135.496065", "geocode_source": "geocoding_jp", "coordinate_level": "city", "normalized_address": "大阪府大阪市西区江戸堀1丁目9-11 アイプラス江戸堀1F", "id": "creative_innovative-50"}, {"name": "Feu", "url": "https://tabelog.com/osaka/A2701/A270101/27130028/", "address": "大阪府大阪市北区曽根崎新地1-7-4 YAMANA K2ビル 2F", "code": "hyakumeiten_creative_innovative_2025_restaurant_27130028", "lat": "34.69719", "lng": "135.500261", "geocode_source": "geocoding_jp", "coordinate_level": "city", "normalized_address": "大阪府大阪市北区曽根崎新地1-7-4 YAMANA K2ビル 2F", "id": "creative_innovative-51"}, {"name": "タパス モラキュラーバー", "url": "https://tabelog.com/tokyo/A1302/A130202/13020501/", "address": "東京都中央区日本橋室町2-1-1 マンダリン オリエンタル 東京 38F", "code": "hyakumeiten_creative_innovative_2025_restaurant_13020501", "lat": "35.686694", "lng": "139.773021", "geocode_source": "abr", "coordinate_level": "residential_block", "normalized_address": "東京都中央区日本橋室町2丁目1-1 マンダリン オリエンタル 東京 38F", "id": "creative_innovative-52"}, {"name": "Terroir愛と胃袋", "url": "https://tabelog.com/yamanashi/A1902/A190201/19009934/", "address": "山梨県北杜市高根町長澤414", "code": "hyakumeiten_creative_innovative_2025_restaurant_19009934", "lat": "35.87146", "lng": "138.428948", "geocode_source": "geocoding_jp", "coordinate_level": "prefecture", "normalized_address": "山梨県北杜市高根町長澤414", "id": "creative_innovative-53"}, {"name": "LOOP TOKYO", "url": "https://tabelog.com/tokyo/A1311/A131102/13274915/", "address": "東京都台東区西浅草2-15-13 日光社ビル 1F", "code": "hyakumeiten_creative_innovative_2025_restaurant_13274915", "lat": "35.713135", "lng": "139.791156", "geocode_source": "abr", "coordinate_level": "residential_block", "normalized_address": "東京都台東区西浅草2丁目15-13 日光社ビル 1F", "id": "creative_innovative-54"}, {"name": "カセント", "url": "https://tabelog.com/hyogo/A2801/A280102/28009509/", "address": "兵庫県神戸市中央区中山手通4-16-14", "code": "hyakumeiten_creative_innovative_2025_restaurant_28009509", "lat": "34.694277", "lng": "135.184256", "geocode_source": "geocoding_jp", "coordinate_level": "prefecture", "normalized_address": "兵庫県神戸市中央区中山手通4-16-14", "id": "creative_innovative-55"}, {"name": "Auberge eaufeu", "url": "https://tabelog.com/ishikawa/A1702/A170202/17013500/", "address": "石川県小松市観音下町ロ48", "code": "hyakumeiten_creative_innovative_2025_restaurant_17013500", "lat": "36.333609", "lng": "136.526662", "geocode_source": "geocoding_jp", "coordinate_level": "prefecture", "normalized_address": "石川県小松市観音下町ロ48", "id": "creative_innovative-56"}, {"name": "erre", "url": "https://tabelog.com/hyogo/A2801/A280101/28050489/", "address": "兵庫県神戸市中央区中山手通1-22-13 ヒルサイドテラス2F", "code": "hyakumeiten_creative_innovative_2025_restaurant_28050489", "lat": "34.69805", "lng": "135.191642", "geocode_source": "geocoding_jp", "coordinate_level": "prefecture", "normalized_address": "兵庫県神戸市中央区中山手通1-22-13 ヒルサイドテラス2F", "id": "creative_innovative-57"}, {"name": "アグリスケープ", "url": "https://tabelog.com/hokkaido/A0101/A010105/1061234/", "address": "北海道札幌市西区小別沢177", "code": "hyakumeiten_creative_innovative_2025_restaurant_1061234", "lat": "43.043835", "lng": "141.276699", "geocode_source": "geocoding_jp", "coordinate_level": "prefecture", "normalized_address": "北海道札幌市西区小別沢177", "id": "creative_innovative-58"}, {"name": "ハクガ", "url": "https://tabelog.com/aichi/A2301/A230103/23057060/", "address": "愛知県名古屋市中区栄5-6-34 エムテックエニカビル 5F", "code": "hyakumeiten_creative_innovative_2025_restaurant_23057060", "lat": "35.165139", "lng": "136.913485", "geocode_source": "abr", "coordinate_level": "residential_block", "normalized_address": "愛知県名古屋市中区栄五丁目6-34 エムテックエニカビル 5F", "id": "creative_innovative-59"}, {"name": "Restaurant Koke", "url": "https://tabelog.com/kyoto/A2601/A260202/26035742/", "address": "京都府京都市中京区蛸薬師287 ido 1F", "code": "hyakumeiten_creative_innovative_2025_restaurant_26035742", "lat": "35.012561", "lng": "135.758185", "geocode_source": "geocoding_jp", "coordinate_level": "prefecture", "normalized_address": "京都府京都市中京区蛸薬師287 ido 1F", "id": "creative_innovative-60"}, {"name": "NARISAWA", "url": "https://tabelog.com/tokyo/A1306/A130603/13005423/", "address": "東京都港区南青山2-6-15", "code": "hyakumeiten_creative_innovative_2025_restaurant_13005423", "lat": "35.671633", "lng": "139.722224", "geocode_source": "abr", "coordinate_level": "residential_block", "normalized_address": "東京都港区南青山2丁目6-15", "id": "creative_innovative-61"}, {"name": "奈良屋町 青", "url": "https://tabelog.com/fukuoka/A4001/A400106/40051882/", "address": "福岡県福岡市博多区奈良屋町4-11-3", "code": "hyakumeiten_creative_innovative_2025_restaurant_40051882", "lat": "33.598215", "lng": "130.405206", "geocode_source": "geocoding_jp", "coordinate_level": "city", "normalized_address": "福岡県福岡市博多区奈良屋町4-11-3", "id": "creative_innovative-62"}, {"name": "美会", "url": "https://tabelog.com/tokyo/A1307/A130701/13270211/", "address": "東京都港区六本木7-3-21 来山ビル 2F", "code": "hyakumeiten_creative_innovative_2025_restaurant_13270211", "lat": "35.66599", "lng": "139.727926", "geocode_source": "abr", "coordinate_level": "residential_block", "normalized_address": "東京都港区六本木7丁目3-21 来山ビル 2F", "id": "creative_innovative-63"}, {"name": "SPICE LAB TOKYO", "url": "https://tabelog.com/tokyo/A1301/A130101/13240579/", "address": "東京都中央区銀座6-4-3 GICROS GINZA GEMS 10F", "code": "hyakumeiten_creative_innovative_2025_restaurant_13240579", "lat": "35.671288", "lng": "139.761562", "geocode_source": "abr", "coordinate_level": "residential_block", "normalized_address": "東京都中央区銀座6丁目4-3 GICROS GINZA GEMS 10F", "id": "creative_innovative-64"}, {"name": "薫 HIROO", "url": "https://tabelog.com/tokyo/A1307/A130703/13238442/", "address": "東京都港区南麻布4-5-66 2F", "code": "hyakumeiten_creative_innovative_2025_restaurant_13238442", "lat": "35.650167", "lng": "139.724874", "geocode_source": "abr", "coordinate_level": "residential_block", "normalized_address": "東京都港区南麻布4丁目5-66 2F", "id": "creative_innovative-65"}, {"name": "花小町", "url": "https://tabelog.com/kumamoto/A4301/A430104/43002160/", "address": "熊本県熊本市北区植木町岩野266-22", "code": "hyakumeiten_creative_innovative_2025_restaurant_43002160", "lat": "32.902432", "lng": "130.69358", "geocode_source": "geocoding_jp", "coordinate_level": "prefecture", "normalized_address": "熊本県熊本市北区植木町岩野266-22", "id": "creative_innovative-66"}, {"name": "くりゑンテ カワバタ", "url": "https://tabelog.com/ishikawa/A1701/A170101/17000809/", "address": "石川県金沢市観音町3-2-2", "code": "hyakumeiten_creative_innovative_2025_restaurant_17000809", "lat": "36.571531", "lng": "136.668214", "geocode_source": "geocoding_jp", "coordinate_level": "prefecture", "normalized_address": "石川県金沢市観音町3-2-2", "id": "creative_innovative-67"}, {"name": "es", "url": "https://tabelog.com/tokyo/A1307/A130701/13276814/", "address": "東京都港区西麻布2-15-3 especeビル", "code": "hyakumeiten_creative_innovative_2025_restaurant_13276814", "lat": "35.661322", "lng": "139.721634", "geocode_source": "abr", "coordinate_level": "residential_block", "normalized_address": "東京都港区西麻布2丁目15-3 especeビル", "id": "creative_innovative-68"}, {"name": "pesceco", "url": "https://tabelog.com/nagasaki/A4203/A420302/42008914/", "address": "長崎県島原市新馬場町223-1", "code": "hyakumeiten_creative_innovative_2025_restaurant_42008914", "lat": "32.798682", "lng": "130.368957", "geocode_source": "geocoding_jp", "coordinate_level": "city", "normalized_address": "長崎県島原市新馬場町223-1", "id": "creative_innovative-69"}, {"name": "季音", "url": "https://tabelog.com/kanagawa/A1404/A140402/14077070/", "address": "神奈川県鎌倉市御成町13-22", "code": "hyakumeiten_creative_innovative_2025_restaurant_14077070", "lat": "35.320751", "lng": "139.549613", "geocode_source": "geocoding_jp", "coordinate_level": "city", "normalized_address": "神奈川県鎌倉市御成町13-22", "id": "creative_innovative-70"}, {"name": "シャテーニュ", "url": "https://tabelog.com/tokyo/A1309/A130905/13234863/", "address": "東京都新宿区神楽坂6-22 奥神楽坂ビル B1F", "code": "hyakumeiten_creative_innovative_2025_restaurant_13234863", "lat": "35.703495", "lng": "139.737124", "geocode_source": "geocoding_jp", "coordinate_level": "city", "normalized_address": "東京都新宿区神楽坂6-22 奥神楽坂ビル B1F", "id": "creative_innovative-71"}, {"name": "薪炭まだら", "url": "https://tabelog.com/osaka/A2701/A270102/27133289/", "address": "大阪府大阪市北区西天満1-7-12", "code": "hyakumeiten_creative_innovative_2025_restaurant_27133289", "lat": "34.693905", "lng": "135.507628", "geocode_source": "geocoding_jp", "coordinate_level": "city", "normalized_address": "大阪府大阪市北区西天満1丁目7-12", "id": "creative_innovative-72"}, {"name": "傳", "url": "https://tabelog.com/tokyo/A1306/A130603/13046855/", "address": "東京都渋谷区神宮前2-3-18 建築家会館JIA館", "code": "hyakumeiten_creative_innovative_2025_restaurant_13046855", "lat": "35.673741", "lng": "139.713128", "geocode_source": "abr", "coordinate_level": "residential_block", "normalized_address": "東京都渋谷区神宮前2丁目3-18 建築家会館JIA館", "id": "creative_innovative-73"}, {"name": "ベンガルタイガー", "url": "https://tabelog.com/chiba/A1201/A120101/12043752/", "address": "千葉県千葉市中央区松波1-14-11", "code": "hyakumeiten_creative_innovative_2025_restaurant_12043752", "lat": "35.617980256", "lng": "140.110412625", "geocode_source": "abr", "coordinate_level": "residential_detail", "normalized_address": "千葉県千葉市中央区松波1丁目14-11", "id": "creative_innovative-74"}, {"name": "レヴォ", "url": "https://tabelog.com/toyama/A1605/A160502/16009727/", "address": "富山県南砺市利賀村大勘場田島100", "code": "hyakumeiten_creative_innovative_2025_restaurant_16009727", "lat": "36.40141", "lng": "136.994381", "geocode_source": "geocoding_jp", "coordinate_level": "prefecture", "normalized_address": "富山県南砺市利賀村大勘場田島100", "id": "creative_innovative-75"}, {"name": "カモシヤ クスモト", "url": "https://tabelog.com/osaka/A2701/A270108/27010572/", "address": "大阪府大阪市福島区福島5-17-14", "code": "hyakumeiten_creative_innovative_2025_restaurant_27010572", "lat": "34.695112", "lng": "135.484493", "geocode_source": "geocoding_jp", "coordinate_level": "city", "normalized_address": "大阪府大阪市福島区福島5丁目17-14", "id": "creative_innovative-76"}, {"name": "セララバアド", "url": "https://tabelog.com/tokyo/A1318/A131811/13176914/", "address": "東京都渋谷区上原2-8-11 TWIZA上原 1F", "code": "hyakumeiten_creative_innovative_2025_restaurant_13176914", "lat": "35.666406", "lng": "139.684314", "geocode_source": "abr", "coordinate_level": "residential_block", "normalized_address": "東京都渋谷区上原2丁目8-11 TWIZA上原 1F", "id": "creative_innovative-77"}, {"name": "蒼", "url": "https://tabelog.com/tokyo/A1307/A130701/13243463/", "address": "東京都港区西麻布3-21-3 オリンピアード麻布霞坂 2F", "code": "hyakumeiten_creative_innovative_2025_restaurant_13243463", "lat": "35.65962", "lng": "139.725068", "geocode_source": "abr", "coordinate_level": "residential_block", "normalized_address": "東京都港区西麻布3丁目21-3 オリンピアード麻布霞坂 2F", "id": "creative_innovative-78"}, {"name": "LURRA°", "url": "https://tabelog.com/kyoto/A2601/A260301/26032601/", "address": "京都府京都市東山区石泉院町396", "code": "hyakumeiten_creative_innovative_2025_restaurant_26032601", "lat": "35.010082", "lng": "135.780637", "geocode_source": "geocoding_jp", "coordinate_level": "prefecture", "normalized_address": "京都府京都市東山区石泉院町396", "id": "creative_innovative-79"}, {"name": "クイント", "url": "https://tabelog.com/tokyo/A1317/A131701/13285235/", "address": "東京都目黒区東山1-31-6", "code": "hyakumeiten_creative_innovative_2025_restaurant_13285235", "lat": "35.644813", "lng": "139.68979", "geocode_source": "abr", "coordinate_level": "residential_block", "normalized_address": "東京都目黒区東山1丁目31-6", "id": "creative_innovative-80"}, {"name": ".know", "url": "https://tabelog.com/kumamoto/A4301/A430101/43015731/", "address": "熊本県熊本市中央区西阿弥陀寺町6 商工クラブ 1F", "code": "hyakumeiten_creative_innovative_2025_restaurant_43015731", "lat": "32.793948", "lng": "130.695158", "geocode_source": "geocoding_jp", "coordinate_level": "prefecture", "normalized_address": "熊本県熊本市中央区西阿弥陀寺町6 商工クラブ 1F", "id": "creative_innovative-81"}, {"name": "ノノカ レストラン", "url": "https://tabelog.com/fukuoka/A4008/A400804/40051634/", "address": "福岡県八女市納楚597-1 2F", "code": "hyakumeiten_creative_innovative_2025_restaurant_40051634", "lat": "33.218137", "lng": "130.5678", "geocode_source": "geocoding_jp", "coordinate_level": "city", "normalized_address": "福岡県八女市納楚597-1 2F", "id": "creative_innovative-82"}, {"name": "capi", "url": "https://tabelog.com/osaka/A2701/A270101/27121230/", "address": "大阪府大阪市北区曽根崎新地1-10-2 北新地PLACEビル 6F", "code": "hyakumeiten_creative_innovative_2025_restaurant_27121230", "lat": "34.697425", "lng": "135.49821", "geocode_source": "geocoding_jp", "coordinate_level": "city", "normalized_address": "大阪府大阪市北区曽根崎新地1-10-2 北新地PLACEビル 6F", "id": "creative_innovative-83"}, {"name": "AKAI", "url": "https://tabelog.com/hiroshima/A3402/A340205/34025803/", "address": "広島県廿日市市宮島口4-3-41", "code": "hyakumeiten_creative_innovative_2025_restaurant_34025803", "lat": "34.316545", "lng": "132.305866", "geocode_source": "geocoding_jp", "coordinate_level": "city", "normalized_address": "広島県廿日市市宮島口四丁目3-41", "id": "creative_innovative-84"}, {"name": "SUGALABO", "url": "https://tabelog.com/tokyo/A1307/A130704/13182678/", "address": "東京都港区麻布台1-11-10 日総ビル1F", "code": "hyakumeiten_creative_innovative_2025_restaurant_13182678", "lat": "35.660549", "lng": "139.743419", "geocode_source": "abr", "coordinate_level": "residential_block", "normalized_address": "東京都港区麻布台1丁目11-10 日総ビル1F", "id": "creative_innovative-85"}, {"name": "STUN.S", "url": "https://tabelog.com/osaka/A2701/A270107/27132251/", "address": "大阪府大阪市都島区東野田町3-7-17 2F", "code": "hyakumeiten_creative_innovative_2025_restaurant_27132251", "lat": "34.698407", "lng": "135.535517", "geocode_source": "geocoding_jp", "coordinate_level": "city", "normalized_address": "大阪府大阪市都島区東野田町3-7-17 2F", "id": "creative_innovative-86"}, {"name": "かわ村", "url": "https://tabelog.com/aichi/A2301/A230107/23002877/", "address": "愛知県名古屋市千種区猫洞通4-34 ベルグレイＫＩ 1F", "code": "hyakumeiten_creative_innovative_2025_restaurant_23002877", "lat": "35.16688", "lng": "136.968143", "geocode_source": "geocoding_jp", "coordinate_level": "city", "normalized_address": "愛知県名古屋市千種区猫洞通四丁目34 ベルグレイKI 1F", "id": "creative_innovative-87"}, {"name": "SHOKUDO YArn", "url": "https://tabelog.com/ishikawa/A1702/A170202/17009741/", "address": "石川県小松市吉竹町1-37-1", "code": "hyakumeiten_creative_innovative_2025_restaurant_17009741", "lat": "36.393727", "lng": "136.479732", "geocode_source": "geocoding_jp", "coordinate_level": "prefecture", "normalized_address": "石川県小松市吉竹町1-37-1", "id": "creative_innovative-88"}, {"name": "Simples", "url": "https://tabelog.com/shizuoka/A2201/A220101/22041057/", "address": "静岡県静岡市駿河区丸子3262-1", "code": "hyakumeiten_creative_innovative_2025_restaurant_22041057", "lat": "34.954976", "lng": "138.332305", "geocode_source": "geocoding_jp", "coordinate_level": "city", "normalized_address": "静岡県静岡市駿河区丸子3262-1", "id": "creative_innovative-89"}, {"name": "Yoichi LOOP", "url": "https://tabelog.com/hokkaido/A0106/A010602/1065828/", "address": "北海道余市郡余市町黒川町4-123", "code": "hyakumeiten_creative_innovative_2025_restaurant_1065828", "lat": "43.187246", "lng": "140.793649", "geocode_source": "geocoding_jp", "coordinate_level": "prefecture", "normalized_address": "北海道余市郡余市町黒川町4-123", "id": "creative_innovative-90"}, {"name": "6", "url": "https://tabelog.com/okinawa/A4702/A470202/47022252/", "address": "沖縄県国頭郡今帰仁村古宇利499-1", "code": "hyakumeiten_creative_innovative_2025_restaurant_47022252", "lat": "26.699357", "lng": "128.021187", "geocode_source": "geocoding_jp", "coordinate_level": "prefecture", "normalized_address": "沖縄県国頭郡今帰仁村古宇利499-1", "id": "creative_innovative-91"}, {"name": "アカリ", "url": "https://tabelog.com/hyogo/A2801/A280102/28033551/", "address": "兵庫県神戸市中央区北長狭通5-7-19", "code": "hyakumeiten_creative_innovative_2025_restaurant_28033551", "lat": "34.688814", "lng": "135.183631", "geocode_source": "geocoding_jp", "coordinate_level": "prefecture", "normalized_address": "兵庫県神戸市中央区北長狭通5-7-19", "id": "creative_innovative-92"}, {"name": "sio", "url": "https://tabelog.com/tokyo/A1318/A131811/13150395/", "address": "東京都渋谷区上原1-35-3", "code": "hyakumeiten_creative_innovative_2025_restaurant_13150395", "lat": "35.669773", "lng": "139.681793", "geocode_source": "abr", "coordinate_level": "residential_block", "normalized_address": "東京都渋谷区上原1丁目35-3", "id": "creative_innovative-93"}, {"name": "CHIUnE", "url": "https://tabelog.com/tokyo/A1308/A130801/13295095/", "address": "東京都千代田区紀尾井町1-3 東京ガーデンテラス紀尾井町 達磨テラス 3F", "code": "hyakumeiten_creative_innovative_2025_restaurant_13295095", "lat": "35.679921", "lng": "139.737183", "geocode_source": "abr", "coordinate_level": "residential_block", "normalized_address": "東京都千代田区紀尾井町1-3 東京ガーデンテラス紀尾井町 達磨テラス 3F", "id": "creative_innovative-94"}, {"name": "MAZ", "url": "https://tabelog.com/tokyo/A1308/A130803/13270953/", "address": "東京都千代田区紀尾井町1-3 東京ガーデンテラス紀尾井町 3F", "code": "hyakumeiten_creative_innovative_2025_restaurant_13270953", "lat": "35.679921", "lng": "139.737183", "geocode_source": "abr", "coordinate_level": "residential_block", "normalized_address": "東京都千代田区紀尾井町1-3 東京ガーデンテラス紀尾井町 3F", "id": "creative_innovative-95"}, {"name": "山猫軒", "url": "https://tabelog.com/aichi/A2301/A230102/23001482/", "address": "愛知県名古屋市中区丸の内1-5-17 渋谷ビル 2Ｆ", "code": "hyakumeiten_creative_innovative_2025_restaurant_23001482", "lat": "35.176451", "lng": "136.894587", "geocode_source": "abr", "coordinate_level": "residential_block", "normalized_address": "愛知県名古屋市中区丸の内一丁目5-17 渋谷ビル 2F", "id": "creative_innovative-96"}, {"name": "マルゴット エ バッチャーレ", "url": "https://tabelog.com/tokyo/A1307/A130703/13172139/", "address": "東京都港区西麻布4-2-6 菱和パレス 1F", "code": "hyakumeiten_creative_innovative_2025_restaurant_13172139", "lat": "35.658358", "lng": "139.723615", "geocode_source": "abr", "coordinate_level": "residential_block", "normalized_address": "東京都港区西麻布4丁目2-6 菱和パレス 1F", "id": "creative_innovative-97"}, {"name": "伊ざき", "url": "https://tabelog.com/tokyo/A1316/A131602/13295225/", "address": "東京都港区白金台4-7-4 白金台STビル 2F", "code": "hyakumeiten_creative_innovative_2025_restaurant_13295225", "lat": "35.638064", "lng": "139.725883", "geocode_source": "abr", "coordinate_level": "residential_block", "normalized_address": "東京都港区白金台4丁目7-4 白金台STビル 2F", "id": "creative_innovative-98"}]}