{
  "shops": [
    {
      "name": "カレーの店 マボロシ",
      "url": "https://tabelog.com/kanagawa/A1407/A140701/14040492/",
      "address": "神奈川県相模原市中央区中央3-7-1",
      "code": "hyakumeiten_curry_east_2026_restaurant_14040492",
      "lat": "35.571532",
      "lng": "139.371211",
      "geocode_source": "geocoding_jp",
      "coordinate_level": "city",
      "normalized_address": "神奈川県相模原市中央区中央3丁目7-1",
      "id": "curry-0"
    },
    {
      "name": "スパイスカレー モクロミ",
      "url": "https://tabelog.com/saitama/A1102/A110203/11045458/",
      "address": "埼玉県越谷市千間台西5-2-30 2F",
      "code": "hyakumeiten_curry_east_2026_restaurant_11045458",
      "lat": "35.932503",
      "lng": "139.766246",
      "geocode_source": "geocoding_jp",
      "coordinate_level": "city",
      "normalized_address": "埼玉県越谷市千間台西5丁目2-30 2F",
      "id": "curry-1"
    },
    {
      "name": "一文字カリー店",
      "url": "https://tabelog.com/hokkaido/A0101/A010301/1024063/",
      "address": "北海道札幌市白石区本通17丁目南2-4 ストーンビル本通17 1F",
      "code": "hyakumeiten_curry_east_2026_restaurant_1024063",
      "lat": "43.035287",
      "lng": "141.432774",
      "geocode_source": "geocoding_jp",
      "coordinate_level": "prefecture",
      "normalized_address": "北海道札幌市白石区本通17南2-4 ストーンビル本通17 1F",
      "id": "curry-2"
    },
    {
      "name": "negombo33",
      "url": "https://tabelog.com/saitama/A1106/A110601/11015014/",
      "address": "埼玉県所沢市星の宮1-9-1",
      "code": "hyakumeiten_curry_east_2026_restaurant_11015014",
      "lat": "35.787521",
      "lng": "139.461391",
      "geocode_source": "geocoding_jp",
      "coordinate_level": "city",
      "normalized_address": "埼玉県所沢市星の宮1-9-1",
      "id": "curry-3"
    },
    {
      "name": "カリーヤ！コング",
      "url": "https://tabelog.com/hokkaido/A0101/A010104/1029696/",
      "address": "北海道札幌市中央区南16条西6丁目2-10 IR山鼻 1F",
      "code": "hyakumeiten_curry_east_2026_restaurant_1029696",
      "lat": "43.038227",
      "lng": "141.352442",
      "geocode_source": "geocoding_jp",
      "coordinate_level": "prefecture",
      "normalized_address": "北海道札幌市中央区南16条西6丁目2-10 IR山鼻 1F",
      "id": "curry-4"
    },
    {
      "name": "スパイス・ツリー",
      "url": "https://tabelog.com/kanagawa/A1406/A140602/14053565/",
      "address": "神奈川県逗子市逗子7-6-25",
      "code": "hyakumeiten_curry_east_2026_restaurant_14053565",
      "lat": "35.296827",
      "lng": "139.575166",
      "geocode_source": "geocoding_jp",
      "coordinate_level": "city",
      "normalized_address": "神奈川県逗子市逗子7丁目6-25",
      "id": "curry-5"
    },
    {
      "name": "丸祇羅",
      "url": "https://tabelog.com/kanagawa/A1401/A140104/14079157/",
      "address": "神奈川県横浜市中区福富町仲通4-2 一和ビル 3F",
      "code": "hyakumeiten_curry_east_2026_restaurant_14079157",
      "lat": "35.445176",
      "lng": "139.631727",
      "geocode_source": "geocoding_jp",
      "coordinate_level": "city",
      "normalized_address": "神奈川県横浜市中区福富町仲通4-2 一和ビル 3F",
      "id": "curry-6"
    },
    {
      "name": "アルペンジロー 本店",
      "url": "https://tabelog.com/kanagawa/A1401/A140306/14000553/",
      "address": "神奈川県横浜市中区弥生町3-26",
      "code": "hyakumeiten_curry_east_2026_restaurant_14000553",
      "lat": "35.439611",
      "lng": "139.628619",
      "geocode_source": "geocoding_jp",
      "coordinate_level": "city",
      "normalized_address": "神奈川県横浜市中区弥生町3丁目26",
      "id": "curry-7"
    },
    {
      "name": "らっきょ＆Star",
      "url": "https://tabelog.com/kanagawa/A1401/A140204/14009431/",
      "address": "神奈川県横浜市港北区綱島西1-2-9 ゴールデンパーク 1F",
      "code": "hyakumeiten_curry_east_2026_restaurant_14009431",
      "lat": "35.537942",
      "lng": "139.635347",
      "geocode_source": "geocoding_jp",
      "coordinate_level": "city",
      "normalized_address": "神奈川県横浜市港北区綱島西1-2-9 ゴールデンパーク 1F",
      "id": "curry-8"
    },
    {
      "name": "カレーの店 ボンベイ 本店",
      "url": "https://tabelog.com/chiba/A1203/A120301/12026182/",
      "address": "千葉県柏市柏3-6-16 磯野ビル 1F",
      "code": "hyakumeiten_curry_east_2026_restaurant_12026182",
      "lat": "35.859998081",
      "lng": "139.974346472",
      "geocode_source": "abr",
      "coordinate_level": "residential_detail",
      "normalized_address": "千葉県柏市柏3丁目6-16 磯野ビル 1F",
      "id": "curry-9"
    },
    {
      "name": "コスギカレー",
      "url": "https://tabelog.com/kanagawa/A1405/A140504/14042207/",
      "address": "神奈川県川崎市中原区新丸子東2-897-11 ラポール新丸子102",
      "code": "hyakumeiten_curry_east_2026_restaurant_14042207",
      "lat": "35.57836",
      "lng": "139.662621",
      "geocode_source": "geocoding_jp",
      "coordinate_level": "city",
      "normalized_address": "神奈川県川崎市中原区新丸子東2丁目897-11 ラポール新丸子102",
      "id": "curry-10"
    },
    {
      "name": "メディスンマン",
      "url": "https://tabelog.com/hokkaido/A0101/A010104/1003072/",
      "address": "北海道札幌市中央区南十二条西10-1-18 グッドビル １Ｆ",
      "code": "hyakumeiten_curry_east_2026_restaurant_1003072",
      "lat": "43.044378",
      "lng": "141.343577",
      "geocode_source": "geocoding_jp",
      "coordinate_level": "prefecture",
      "normalized_address": "北海道札幌市中央区南十二条西10-1-18 グッドビル 1F",
      "id": "curry-11"
    },
    {
      "name": "スープカリー スアゲ プラス",
      "url": "https://tabelog.com/hokkaido/A0101/A010103/1006004/",
      "address": "北海道札幌市中央区南4条西5 都志松ビル 2F",
      "code": "hyakumeiten_curry_east_2026_restaurant_1006004",
      "lat": "43.055333",
      "lng": "141.351125",
      "geocode_source": "geocoding_jp",
      "coordinate_level": "prefecture",
      "normalized_address": "北海道札幌市中央区南4条西5 都志松ビル 2F",
      "id": "curry-12"
    },
    {
      "name": "Kikuya Curry",
      "url": "https://tabelog.com/kanagawa/A1401/A140102/14004143/",
      "address": "神奈川県横浜市中区野毛町4-173 天悦ビル １０１",
      "code": "hyakumeiten_curry_east_2026_restaurant_14004143",
      "lat": "35.448467",
      "lng": "139.627019",
      "geocode_source": "geocoding_jp",
      "coordinate_level": "city",
      "normalized_address": "神奈川県横浜市中区野毛町4丁目173 天悦ビル 101",
      "id": "curry-13"
    },
    {
      "name": "ハイ，ハウ アー ユー",
      "url": "https://tabelog.com/kanagawa/A1401/A140204/14040637/",
      "address": "神奈川県横浜市港北区日吉本町1-21-5 西之蔵ビル ３Ｆ",
      "code": "hyakumeiten_curry_east_2026_restaurant_14040637",
      "lat": "35.553218",
      "lng": "139.646038",
      "geocode_source": "geocoding_jp",
      "coordinate_level": "city",
      "normalized_address": "神奈川県横浜市港北区日吉本町1-21-5 西之蔵ビル 3F",
      "id": "curry-14"
    },
    {
      "name": "Bay&Leaf 横浜",
      "url": "https://tabelog.com/kanagawa/A1401/A140305/14000620/",
      "address": "神奈川県横浜市戸塚区戸塚町120 斉藤ビル 2F",
      "code": "hyakumeiten_curry_east_2026_restaurant_14000620",
      "lat": "35.397844",
      "lng": "139.53162",
      "geocode_source": "geocoding_jp",
      "coordinate_level": "city",
      "normalized_address": "神奈川県横浜市戸塚区戸塚町120 斉藤ビル 2F",
      "id": "curry-15"
    },
    {
      "name": "カリーハウス コロンボ",
      "url": "https://tabelog.com/hokkaido/A0101/A010101/1004447/",
      "address": "北海道札幌市中央区北四条西4-1 札幌国際ビル B1F",
      "code": "hyakumeiten_curry_east_2026_restaurant_1004447",
      "lat": "43.053738",
      "lng": "141.337073",
      "geocode_source": "geocoding_jp",
      "coordinate_level": "prefecture",
      "normalized_address": "北海道札幌市中央区北四条西4-1 札幌国際ビル B1F",
      "id": "curry-16"
    },
    {
      "name": "ひげ男爵",
      "url": "https://tabelog.com/hokkaido/A0101/A010102/1005374/",
      "address": "北海道札幌市中央区北一条東2-5-12 ビーンズコート 1Ｆ",
      "code": "hyakumeiten_curry_east_2026_restaurant_1005374",
      "lat": "43.063495",
      "lng": "141.3586",
      "geocode_source": "geocoding_jp",
      "coordinate_level": "prefecture",
      "normalized_address": "北海道札幌市中央区北一条東2-5-12 ビーンズコート 1F",
      "id": "curry-17"
    },
    {
      "name": "SOUP CURRY KING セントラル",
      "url": "https://tabelog.com/hokkaido/A0101/A010102/1055662/",
      "address": "北海道札幌市中央区南2条西3丁目13-4 カタオカビル B1",
      "code": "hyakumeiten_curry_east_2026_restaurant_1055662",
      "lat": "43.058114",
      "lng": "141.353545",
      "geocode_source": "geocoding_jp",
      "coordinate_level": "prefecture",
      "normalized_address": "北海道札幌市中央区南2条西3丁目13-4 カタオカビル B1",
      "id": "curry-18"
    },
    {
      "name": "ベンベラ・ネットワークカンパニー",
      "url": "https://tabelog.com/hokkaido/A0101/A010102/1000587/",
      "address": "北海道札幌市中央区南二条西7丁目 エムズスペース 1F",
      "code": "hyakumeiten_curry_east_2026_restaurant_1000587",
      "lat": "43.056804",
      "lng": "141.348014",
      "geocode_source": "geocoding_jp",
      "coordinate_level": "prefecture",
      "normalized_address": "北海道札幌市中央区南二条西7 エムズスペース 1F",
      "id": "curry-19"
    },
    {
      "name": "オクシモロン コマチ",
      "url": "https://tabelog.com/kanagawa/A1404/A140402/14014612/",
      "address": "神奈川県鎌倉市雪ノ下1-5-38 2Ｆ",
      "code": "hyakumeiten_curry_east_2026_restaurant_14014612",
      "lat": "35.32274",
      "lng": "139.552568",
      "geocode_source": "geocoding_jp",
      "coordinate_level": "city",
      "normalized_address": "神奈川県鎌倉市雪ノ下一丁目5-38 2F",
      "id": "curry-20"
    },
    {
      "name": "カレー専門店 KEN",
      "url": "https://tabelog.com/kanagawa/A1401/A140202/14010409/",
      "address": "神奈川県横浜市青葉区つつじが丘10-18",
      "code": "hyakumeiten_curry_east_2026_restaurant_14010409",
      "lat": "35.540824749",
      "lng": "139.519175787",
      "geocode_source": "abr",
      "coordinate_level": "parcel",
      "normalized_address": "神奈川県横浜市青葉区つつじが丘10-18",
      "id": "curry-21"
    },
    {
      "name": "カリーサボイ",
      "url": "https://tabelog.com/hokkaido/A0101/A010101/1060249/",
      "address": "北海道札幌市北区北8条西4 ブランシャールBLD B1F",
      "code": "hyakumeiten_curry_east_2026_restaurant_1060249",
      "lat": "43.081767",
      "lng": "141.347541",
      "geocode_source": "geocoding_jp",
      "coordinate_level": "prefecture",
      "normalized_address": "北海道札幌市北区北8条西4 ブランシャールBLD B1F",
      "id": "curry-22"
    },
    {
      "name": "Curry House MUMBAI 松戸店",
      "url": "https://tabelog.com/chiba/A1203/A120302/12034462/",
      "address": "千葉県松戸市松戸1150 ニューハイム松戸ビル 2F",
      "code": "hyakumeiten_curry_east_2026_restaurant_12034462",
      "lat": "35.786286",
      "lng": "139.91465",
      "geocode_source": "geocoding_jp",
      "coordinate_level": "city",
      "normalized_address": "千葉県松戸市松戸1150 ニューハイム松戸ビル 2F",
      "id": "curry-23"
    },
    {
      "name": "タンドゥール",
      "url": "https://tabelog.com/aichi/A2301/A230101/23000920/",
      "address": "愛知県名古屋市中村区名駅4-9-10 ミヤコ地下街",
      "code": "hyakumeiten_curry_east_2026_restaurant_23000920",
      "lat": "35.168609",
      "lng": "136.8867",
      "geocode_source": "abr",
      "coordinate_level": "residential_block",
      "normalized_address": "愛知県名古屋市中村区名駅四丁目9-10 ミヤコ地下街",
      "id": "curry-24"
    },
    {
      "name": "ピカンティ",
      "url": "https://tabelog.com/hokkaido/A0101/A010201/1000060/",
      "address": "北海道札幌市北区北十三条西3 アクロビュ－北大前 １Ｆ",
      "code": "hyakumeiten_curry_east_2026_restaurant_1000060",
      "lat": "43.075646",
      "lng": "141.349587",
      "geocode_source": "geocoding_jp",
      "coordinate_level": "prefecture",
      "normalized_address": "北海道札幌市北区北十三条西3 アクロビュ－北大前 1F",
      "id": "curry-25"
    },
    {
      "name": "CURRY CLUB キュイエール",
      "url": "https://tabelog.com/kanagawa/A1404/A140401/14054482/",
      "address": "神奈川県鎌倉市大船1-13-11 岡本ビル 1F",
      "code": "hyakumeiten_curry_east_2026_restaurant_14054482",
      "lat": "35.350501",
      "lng": "139.531821",
      "geocode_source": "geocoding_jp",
      "coordinate_level": "city",
      "normalized_address": "神奈川県鎌倉市大船一丁目13-11 岡本ビル 1F",
      "id": "curry-26"
    },
    {
      "name": "カレーレストラン シバ",
      "url": "https://tabelog.com/chiba/A1201/A120104/12000017/",
      "address": "千葉県千葉市稲毛区稲毛東3-19-15 ｍｆビル １Ｆ",
      "code": "hyakumeiten_curry_east_2026_restaurant_12000017",
      "lat": "35.636232089",
      "lng": "140.092867681",
      "geocode_source": "abr",
      "coordinate_level": "residential_detail",
      "normalized_address": "千葉県千葉市稲毛区稲毛東3丁目19-15 mfビル 1F",
      "id": "curry-27"
    },
    {
      "name": "ソウルストア",
      "url": "https://tabelog.com/hokkaido/A0101/A010103/1058838/",
      "address": "北海道札幌市中央区南3条西7-3-2 F-DRESS 7 BLD 2F",
      "code": "hyakumeiten_curry_east_2026_restaurant_1058838",
      "lat": "43.056486",
      "lng": "141.347864",
      "geocode_source": "geocoding_jp",
      "coordinate_level": "prefecture",
      "normalized_address": "北海道札幌市中央区南3条西7-3-2 F-DRESS 7 BLD 2F",
      "id": "curry-28"
    },
    {
      "name": "村上カレー店・プルプル",
      "url": "https://tabelog.com/hokkaido/A0101/A010102/1000476/",
      "address": "北海道札幌市中央区南二条西9 ケンタクビル２９ Ｂ1Ｆ",
      "code": "hyakumeiten_curry_east_2026_restaurant_1000476",
      "lat": "43.058715",
      "lng": "141.345147",
      "geocode_source": "geocoding_jp",
      "coordinate_level": "prefecture",
      "normalized_address": "北海道札幌市中央区南二条西9 ケンタクビル29 B1F",
      "id": "curry-29"
    },
    {
      "name": "中華 大島",
      "url": "https://tabelog.com/chiba/A1203/A120301/12009777/",
      "address": "千葉県柏市中央1-6-4",
      "code": "hyakumeiten_curry_east_2026_restaurant_12009777",
      "lat": "35.857772165",
      "lng": "139.970976433",
      "geocode_source": "abr",
      "coordinate_level": "residential_detail",
      "normalized_address": "千葉県柏市中央1丁目6-4",
      "id": "curry-30"
    },
    {
      "name": "カレーハウス チリチリ",
      "url": "https://tabelog.com/saitama/A1102/A110202/11052130/",
      "address": "埼玉県戸田市本町4-11-19",
      "code": "hyakumeiten_curry_east_2026_restaurant_11052130",
      "lat": "35.807316",
      "lng": "139.678352",
      "geocode_source": "abr",
      "coordinate_level": "residential_block",
      "normalized_address": "埼玉県戸田市本町4丁目11-19",
      "id": "curry-31"
    },
    {
      "name": "欧風カレーKEN",
      "url": "https://tabelog.com/hokkaido/A0101/A010202/1041827/",
      "address": "北海道札幌市東区北十五条東1-2-17 イースタンビル 1F",
      "code": "hyakumeiten_curry_east_2026_restaurant_1041827",
      "lat": "43.07927383",
      "lng": "141.3541361",
      "geocode_source": "yahoo",
      "coordinate_level": "",
      "normalized_address": "",
      "id": "curry-32"
    },
    {
      "name": "こうひいはうす",
      "url": "https://tabelog.com/hokkaido/A0101/A010104/1002169/",
      "address": "北海道札幌市中央区南二十条西15-3 伏見コーポ １Ｆ",
      "code": "hyakumeiten_curry_east_2026_restaurant_1002169",
      "lat": "43.043302",
      "lng": "141.349795",
      "geocode_source": "geocoding_jp",
      "coordinate_level": "prefecture",
      "normalized_address": "北海道札幌市中央区南二十条西15-3 伏見コーポ 1F",
      "id": "curry-33"
    },
    {
      "name": "木多郎 澄川本店",
      "url": "https://tabelog.com/hokkaido/A0101/A010305/1000174/",
      "address": "北海道札幌市南区澄川六条4-2-1 澄川ビル 1F",
      "code": "hyakumeiten_curry_east_2026_restaurant_1000174",
      "lat": "43.012569",
      "lng": "141.374985",
      "geocode_source": "gsi",
      "coordinate_level": "prefecture",
      "normalized_address": "北海道札幌市南区澄川六条四丁目2番1号",
      "id": "curry-34"
    },
    {
      "name": "スープカリー ヒリヒリ2号",
      "url": "https://tabelog.com/hokkaido/A0101/A010101/1004285/",
      "address": "北海道札幌市北区北六条西6-1-1 WEST6",
      "code": "hyakumeiten_curry_east_2026_restaurant_1004285",
      "lat": "43.067462",
      "lng": "141.345997",
      "geocode_source": "geocoding_jp",
      "coordinate_level": "prefecture",
      "normalized_address": "北海道札幌市北区北六条西6-1-1 WEST6",
      "id": "curry-35"
    },
    {
      "name": "カレーハウスデリー",
      "url": "https://tabelog.com/kanagawa/A1405/A140505/14009483/",
      "address": "神奈川県川崎市高津区溝口2丁目7-3",
      "code": "hyakumeiten_curry_east_2026_restaurant_14009483",
      "lat": "35.600229",
      "lng": "139.610524",
      "geocode_source": "geocoding_jp",
      "coordinate_level": "city",
      "normalized_address": "神奈川県川崎市高津区溝口2丁目7-3",
      "id": "curry-36"
    },
    {
      "name": "黒岩咖哩飯店",
      "url": "https://tabelog.com/hokkaido/A0101/A010102/1049128/",
      "address": "北海道札幌市中央区大通西8-2-39 北大通ビル B1F",
      "code": "hyakumeiten_curry_east_2026_restaurant_1049128",
      "lat": "43.060375",
      "lng": "141.34432",
      "geocode_source": "geocoding_jp",
      "coordinate_level": "prefecture",
      "normalized_address": "北海道札幌市中央区大通西8-2-39 北大通ビル B1F",
      "id": "curry-37"
    },
    {
      "name": "アジアンスープカリー べす",
      "url": "https://tabelog.com/hokkaido/A0101/A010301/1049808/",
      "address": "北海道札幌市白石区北郷4条6-5-15",
      "code": "hyakumeiten_curry_east_2026_restaurant_1049808",
      "lat": "43.057562",
      "lng": "141.424342",
      "geocode_source": "geocoding_jp",
      "coordinate_level": "prefecture",
      "normalized_address": "北海道札幌市白石区北郷4条6-5-15",
      "id": "curry-38"
    },
    {
      "name": "gopのアナグラ",
      "url": "https://tabelog.com/hokkaido/A0101/A010204/1000635/",
      "address": "北海道札幌市西区山の手三条6-1-17",
      "code": "hyakumeiten_curry_east_2026_restaurant_1000635",
      "lat": "43.068457",
      "lng": "141.295307",
      "geocode_source": "geocoding_jp",
      "coordinate_level": "prefecture",
      "normalized_address": "北海道札幌市西区山の手三条6-1-17",
      "id": "curry-39"
    },
    {
      "name": "ZORA",
      "url": "https://tabelog.com/hokkaido/A0101/A010102/1024540/",
      "address": "北海道札幌市中央区南1条西7丁目12-5 大通パークサイドビル 1F",
      "code": "hyakumeiten_curry_east_2026_restaurant_1024540",
      "lat": "43.058809",
      "lng": "141.347431",
      "geocode_source": "geocoding_jp",
      "coordinate_level": "prefecture",
      "normalized_address": "北海道札幌市中央区南1条西7丁目12-5 大通パークサイドビル 1F",
      "id": "curry-40"
    },
    {
      "name": "キャラウェイ",
      "url": "https://tabelog.com/kanagawa/A1404/A140402/14000589/",
      "address": "神奈川県鎌倉市小町2-12-20",
      "code": "hyakumeiten_curry_east_2026_restaurant_14000589",
      "lat": "35.321898",
      "lng": "139.55328",
      "geocode_source": "geocoding_jp",
      "coordinate_level": "city",
      "normalized_address": "神奈川県鎌倉市小町二丁目12-20",
      "id": "curry-41"
    },
    {
      "name": "gii",
      "url": "https://tabelog.com/saitama/A1101/A110103/11003352/",
      "address": "埼玉県さいたま市見沼区大和田町1-1527-1",
      "code": "hyakumeiten_curry_east_2026_restaurant_11003352",
      "lat": "35.926121",
      "lng": "139.653681",
      "geocode_source": "geocoding_jp",
      "coordinate_level": "city",
      "normalized_address": "埼玉県さいたま市見沼区大和田町1丁目1527-1",
      "id": "curry-42"
    },
    {
      "name": "札幌スープカリー アナンダ",
      "url": "https://tabelog.com/kanagawa/A1401/A140102/14010851/",
      "address": "神奈川県横浜市西区平沼1-38-2 咲久良ビル M2F",
      "code": "hyakumeiten_curry_east_2026_restaurant_14010851",
      "lat": "35.461337",
      "lng": "139.620736",
      "geocode_source": "geocoding_jp",
      "coordinate_level": "city",
      "normalized_address": "神奈川県横浜市西区平沼一丁目38-2 咲久良ビル M2F",
      "id": "curry-43"
    },
    {
      "name": "らっきょ",
      "url": "https://tabelog.com/hokkaido/A0101/A010204/1000164/",
      "address": "北海道札幌市西区琴似1条1-7-7 カピテーヌ琴似 １Ｆ",
      "code": "hyakumeiten_curry_east_2026_restaurant_1000164",
      "lat": "43.077839",
      "lng": "141.305187",
      "geocode_source": "geocoding_jp",
      "coordinate_level": "prefecture",
      "normalized_address": "北海道札幌市西区琴似1条1-7-7 カピテーヌ琴似 1F",
      "id": "curry-44"
    },
    {
      "name": "Spice&mill",
      "url": "https://tabelog.com/hokkaido/A0101/A010301/1050715/",
      "address": "北海道札幌市白石区本通11丁目北2番1号",
      "code": "hyakumeiten_curry_east_2026_restaurant_1050715",
      "lat": "43.042501",
      "lng": "141.423403",
      "geocode_source": "geocoding_jp",
      "coordinate_level": "prefecture",
      "normalized_address": "北海道札幌市白石区本通11北2-1",
      "id": "curry-45"
    },
    {
      "name": "スパイス ポット 菊水本店",
      "url": "https://tabelog.com/hokkaido/A0101/A010301/1025000/",
      "address": "北海道札幌市白石区菊水6条1丁目6-11",
      "code": "hyakumeiten_curry_east_2026_restaurant_1025000",
      "lat": "43.061823",
      "lng": "141.376252",
      "geocode_source": "geocoding_jp",
      "coordinate_level": "prefecture",
      "normalized_address": "北海道札幌市白石区菊水6条1丁目6-11",
      "id": "curry-46"
    },
    {
      "name": "五○堂",
      "url": "https://tabelog.com/hokkaido/A0101/A010104/1029487/",
      "address": "北海道札幌市中央区南8条西10丁目1277-37 カネトモビル2-１階",
      "code": "hyakumeiten_curry_east_2026_restaurant_1029487",
      "lat": "43.048926",
      "lng": "141.343889",
      "geocode_source": "geocoding_jp",
      "coordinate_level": "prefecture",
      "normalized_address": "北海道札幌市中央区南8条西10丁目1277-37 カネトモビル2-1階",
      "id": "curry-47"
    },
    {
      "name": "デリー 札幌店",
      "url": "https://tabelog.com/hokkaido/A0101/A010103/1006116/",
      "address": "北海道札幌市中央区南三条西1 狸小路１丁目南側",
      "code": "hyakumeiten_curry_east_2026_restaurant_1006116",
      "lat": "43.057274",
      "lng": "141.35733",
      "geocode_source": "gsi",
      "coordinate_level": "prefecture",
      "normalized_address": "北海道札幌市中央区南三条西一丁目",
      "id": "curry-48"
    },
    {
      "name": "スープカレー トムトムキキル",
      "url": "https://tabelog.com/hokkaido/A0101/A010304/1037079/",
      "address": "北海道札幌市清田区清田三条2-14-15",
      "code": "hyakumeiten_curry_east_2026_restaurant_1037079",
      "lat": "42.998744",
      "lng": "141.431473",
      "geocode_source": "geocoding_jp",
      "coordinate_level": "prefecture",
      "normalized_address": "北海道札幌市清田区清田三条2-14-15",
      "id": "curry-49"
    },
    {
      "name": "カレー リーブス",
      "url": "https://tabelog.com/hokkaido/A0101/A010303/1000687/",
      "address": "北海道札幌市豊平区西岡四条7丁目7-10",
      "code": "hyakumeiten_curry_east_2026_restaurant_1000687",
      "lat": "43.010113",
      "lng": "141.387455",
      "geocode_source": "geocoding_jp",
      "coordinate_level": "prefecture",
      "normalized_address": "北海道札幌市豊平区西岡四条7丁目7-10",
      "id": "curry-50"
    },
    {
      "name": "Hot Spice Shop Hood Dog",
      "url": "https://tabelog.com/hokkaido/A0101/A010103/1063675/",
      "address": "北海道札幌市中央区南5条東2",
      "code": "hyakumeiten_curry_east_2026_restaurant_1063675",
      "lat": "43.055871",
      "lng": "141.360233",
      "geocode_source": "geocoding_jp",
      "coordinate_level": "prefecture",
      "normalized_address": "北海道札幌市中央区南5条東2",
      "id": "curry-51"
    },
    {
      "name": "唯我独尊",
      "url": "https://tabelog.com/hokkaido/A0104/A010403/1000063/",
      "address": "北海道富良野市日の出町11-8",
      "code": "hyakumeiten_curry_east_2026_restaurant_1000063",
      "lat": "43.34498",
      "lng": "142.389429",
      "geocode_source": "geocoding_jp",
      "coordinate_level": "prefecture",
      "normalized_address": "北海道富良野市日の出町11-8",
      "id": "curry-52"
    },
    {
      "name": "キャラウェイ",
      "url": "https://tabelog.com/kanagawa/A1404/A140407/14004751/",
      "address": "神奈川県平塚市錦町1-16",
      "code": "hyakumeiten_curry_east_2026_restaurant_14004751",
      "lat": "35.327696",
      "lng": "139.345329",
      "geocode_source": "geocoding_jp",
      "coordinate_level": "city",
      "normalized_address": "神奈川県平塚市錦町1-16",
      "id": "curry-53"
    },
    {
      "name": "Curry&herb Cherry blossom",
      "url": "https://tabelog.com/kanagawa/A1405/A140508/14000777/",
      "address": "神奈川県川崎市麻生区上麻生1-20-1 新百合ヶ丘駅構内南口",
      "code": "hyakumeiten_curry_east_2026_restaurant_14000777",
      "lat": "35.603556",
      "lng": "139.507787",
      "geocode_source": "geocoding_jp",
      "coordinate_level": "city",
      "normalized_address": "神奈川県川崎市麻生区上麻生1丁目20-1 新百合ヶ丘駅構内南口",
      "id": "curry-54"
    },
    {
      "name": "スープカレー店 34",
      "url": "https://tabelog.com/hokkaido/A0101/A010303/1056693/",
      "address": "北海道札幌市豊平区平岸2条3-2-20",
      "code": "hyakumeiten_curry_east_2026_restaurant_1056693",
      "lat": "43.040195",
      "lng": "141.369828",
      "geocode_source": "geocoding_jp",
      "coordinate_level": "prefecture",
      "normalized_address": "北海道札幌市豊平区平岸2条3-2-20",
      "id": "curry-55"
    },
    {
      "name": "曉",
      "url": "https://tabelog.com/hokkaido/A0101/A010102/1050112/",
      "address": "北海道札幌市中央区南1条西12丁目322-24 2F",
      "code": "hyakumeiten_curry_east_2026_restaurant_1050112",
      "lat": "43.056987",
      "lng": "141.339619",
      "geocode_source": "geocoding_jp",
      "coordinate_level": "prefecture",
      "normalized_address": "北海道札幌市中央区南1条西12丁目322-24 2F",
      "id": "curry-56"
    },
    {
      "name": "スープカリー 奥芝商店  駅前創成寺",
      "url": "https://tabelog.com/hokkaido/A0101/A010101/1041930/",
      "address": "北海道札幌市中央区北4条西1丁目 ホクレンビル B1F パールタウン飲食店街",
      "code": "hyakumeiten_curry_east_2026_restaurant_1041930",
      "lat": "43.066786",
      "lng": "141.354339",
      "geocode_source": "geocoding_jp",
      "coordinate_level": "prefecture",
      "normalized_address": "北海道札幌市中央区北4条西1 ホクレンビル B1F パールタウン飲食店街",
      "id": "curry-57"
    },
    {
      "name": "クロック",
      "url": "https://tabelog.com/hokkaido/A0101/A010105/1000162/",
      "address": "北海道札幌市中央区円山西町9-2-25 旭山プラザ １Ｆ",
      "code": "hyakumeiten_curry_east_2026_restaurant_1000162",
      "lat": "43.043681",
      "lng": "141.308574",
      "geocode_source": "geocoding_jp",
      "coordinate_level": "prefecture",
      "normalized_address": "北海道札幌市中央区円山西町9-2-25 旭山プラザ 1F",
      "id": "curry-58"
    },
    {
      "name": "元祖インドカレー 小いけ",
      "url": "https://tabelog.com/hokkaido/A0105/A010501/1008130/",
      "address": "北海道函館市宝来町22-4",
      "code": "hyakumeiten_curry_east_2026_restaurant_1008130",
      "lat": "41.762068",
      "lng": "140.719763",
      "geocode_source": "geocoding_jp",
      "coordinate_level": "prefecture",
      "normalized_address": "北海道函館市宝来町22-4",
      "id": "curry-59"
    },
    {
      "name": "アジョワン",
      "url": "https://tabelog.com/kanagawa/A1401/A140203/14000168/",
      "address": "神奈川県横浜市都筑区中川中央1-28-21",
      "code": "hyakumeiten_curry_east_2026_restaurant_14000168",
      "lat": "35.554559",
      "lng": "139.580129",
      "geocode_source": "geocoding_jp",
      "coordinate_level": "city",
      "normalized_address": "神奈川県横浜市都筑区中川中央一丁目28-21",
      "id": "curry-60"
    },
    {
      "name": "欧風カリー ドモン",
      "url": "https://tabelog.com/hokkaido/A0101/A010303/1060608/",
      "address": "北海道札幌市豊平区平岸3条3-1-28",
      "code": "hyakumeiten_curry_east_2026_restaurant_1060608",
      "lat": "43.039778",
      "lng": "141.370167",
      "geocode_source": "geocoding_jp",
      "coordinate_level": "prefecture",
      "normalized_address": "北海道札幌市豊平区平岸3条3-1-28",
      "id": "curry-61"
    },
    {
      "name": "ターラ",
      "url": "https://tabelog.com/hokkaido/A0101/A010102/1001916/",
      "address": "北海道札幌市中央区南一条西4 日本旅行ビル Ｂ１Ｆ",
      "code": "hyakumeiten_curry_east_2026_restaurant_1001916",
      "lat": "43.059096",
      "lng": "141.351504",
      "geocode_source": "geocoding_jp",
      "coordinate_level": "prefecture",
      "normalized_address": "北海道札幌市中央区南一条西4 日本旅行ビル B1F",
      "id": "curry-62"
    },
    {
      "name": "松本メーヤウ 信大前店",
      "url": "https://tabelog.com/nagano/A2002/A200201/20000053/",
      "address": "長野県松本市桐2-1-25",
      "code": "hyakumeiten_curry_east_2026_restaurant_20000053",
      "lat": "36.251972",
      "lng": "137.976368",
      "geocode_source": "geocoding_jp",
      "coordinate_level": "prefecture",
      "normalized_address": "長野県松本市桐2-1-25",
      "id": "curry-63"
    },
    {
      "name": "ポレポレ",
      "url": "https://tabelog.com/hokkaido/A0101/A010301/1002197/",
      "address": "北海道札幌市白石区栄通17丁目1-26",
      "code": "hyakumeiten_curry_east_2026_restaurant_1002197",
      "lat": "43.028876",
      "lng": "141.427001",
      "geocode_source": "geocoding_jp",
      "coordinate_level": "prefecture",
      "normalized_address": "北海道札幌市白石区栄通17丁目1-26",
      "id": "curry-64"
    },
    {
      "name": "モアナマカイ珊瑚礁",
      "url": "https://tabelog.com/kanagawa/A1404/A140402/14000586/",
      "address": "神奈川県鎌倉市七里ガ浜1-3-22",
      "code": "hyakumeiten_curry_east_2026_restaurant_14000586",
      "lat": "35.305709",
      "lng": "139.508968",
      "geocode_source": "geocoding_jp",
      "coordinate_level": "city",
      "normalized_address": "神奈川県鎌倉市七里ガ浜一丁目3-22",
      "id": "curry-65"
    },
    {
      "name": "マジックスパイス 札幌本店",
      "url": "https://tabelog.com/hokkaido/A0101/A010301/1000163/",
      "address": "北海道札幌市白石区本郷通8丁目南6-2",
      "code": "hyakumeiten_curry_east_2026_restaurant_1000163",
      "lat": "43.041016",
      "lng": "141.413576",
      "geocode_source": "geocoding_jp",
      "coordinate_level": "prefecture",
      "normalized_address": "北海道札幌市白石区本郷通8南6-2",
      "id": "curry-66"
    },
    {
      "name": "【カレー専門店】円山教授。",
      "url": "https://tabelog.com/hokkaido/A0101/A010105/1054392/",
      "address": "北海道札幌市中央区南4条西21-1-27 第5籐栄ビル",
      "code": "hyakumeiten_curry_east_2026_restaurant_1054392",
      "lat": "43.048615",
      "lng": "141.329528",
      "geocode_source": "geocoding_jp",
      "coordinate_level": "prefecture",
      "normalized_address": "北海道札幌市中央区南4条西21-1-27 第5籐栄ビル",
      "id": "curry-67"
    },
    {
      "name": "ピカンティ 札幌駅前店",
      "url": "https://tabelog.com/hokkaido/A0101/A010101/1025001/",
      "address": "北海道札幌市中央区北2条西1-8-4 青山ビル 1F",
      "code": "hyakumeiten_curry_east_2026_restaurant_1025001",
      "lat": "43.064007",
      "lng": "141.35472",
      "geocode_source": "geocoding_jp",
      "coordinate_level": "prefecture",
      "normalized_address": "北海道札幌市中央区北2条西1-8-4 青山ビル 1F",
      "id": "curry-68"
    },
    {
      "name": "タイガーカレー",
      "url": "https://tabelog.com/hokkaido/A0101/A010201/1003065/",
      "address": "北海道札幌市北区北二十三条西4-2-3 プラザハイツ２４ １Ｆ",
      "code": "hyakumeiten_curry_east_2026_restaurant_1003065",
      "lat": "43.083782",
      "lng": "141.34505",
      "geocode_source": "geocoding_jp",
      "coordinate_level": "prefecture",
      "normalized_address": "北海道札幌市北区北二十条西4-2-3 プラザハイツ24 1F",
      "id": "curry-69"
    },
    {
      "name": "カラバトカリー",
      "url": "https://tabelog.com/hokkaido/A0101/A010305/1002186/",
      "address": "北海道札幌市南区藤野二条12-6-1",
      "code": "hyakumeiten_curry_east_2026_restaurant_1002186",
      "lat": "42.961422",
      "lng": "141.276087",
      "geocode_source": "geocoding_jp",
      "coordinate_level": "prefecture",
      "normalized_address": "北海道札幌市南区藤野二条12-6-1",
      "id": "curry-70"
    },
    {
      "name": "レッドチリ",
      "url": "https://tabelog.com/hokkaido/A0101/A010105/1003320/",
      "address": "北海道札幌市中央区北3条西26丁目2-15 第23松井ビル Gクレフ3261F",
      "code": "hyakumeiten_curry_east_2026_restaurant_1003320",
      "lat": "43.060604",
      "lng": "141.317501",
      "geocode_source": "geocoding_jp",
      "coordinate_level": "prefecture",
      "normalized_address": "北海道札幌市中央区北3条西26丁目2-15 第23松井ビル Gクレフ3261F",
      "id": "curry-71"
    },
    {
      "name": "SAKURA BROWN",
      "url": "https://tabelog.com/hokkaido/A0101/A010204/1044404/",
      "address": "北海道札幌市西区琴似1条5-4-10 シティラディファンス 2F",
      "code": "hyakumeiten_curry_east_2026_restaurant_1044404",
      "lat": "43.076039",
      "lng": "141.303766",
      "geocode_source": "geocoding_jp",
      "coordinate_level": "prefecture",
      "normalized_address": "北海道札幌市西区琴似1条5-4-10 シティラディファンス 2F",
      "id": "curry-72"
    },
    {
      "name": "ルッカパイパイ",
      "url": "https://tabelog.com/hokkaido/A0101/A010303/1000683/",
      "address": "北海道札幌市豊平区平岸三条6-6-20",
      "code": "hyakumeiten_curry_east_2026_restaurant_1000683",
      "lat": "43.035851",
      "lng": "141.370377",
      "geocode_source": "gsi",
      "coordinate_level": "prefecture",
      "normalized_address": "北海道札幌市豊平区平岸三条六丁目6番20号",
      "id": "curry-73"
    },
    {
      "name": "か～るま～る",
      "url": "https://tabelog.com/hokkaido/A0101/A010301/1066208/",
      "address": "北海道札幌市白石区北郷3条4-11-1 田畑ビル 1F",
      "code": "hyakumeiten_curry_east_2026_restaurant_1066208",
      "lat": "43.05703",
      "lng": "141.423163",
      "geocode_source": "geocoding_jp",
      "coordinate_level": "prefecture",
      "normalized_address": "北海道札幌市白石区北郷3条4-11-1 田畑ビル 1F",
      "id": "curry-74"
    },
    {
      "name": "カレー魂 デストロイヤー",
      "url": "https://tabelog.com/hokkaido/A0101/A010201/1061471/",
      "address": "北海道札幌市北区北14条西3-1-31 総業第5ハイム 1F",
      "code": "hyakumeiten_curry_east_2026_restaurant_1061471",
      "lat": "43.077683",
      "lng": "141.349133",
      "geocode_source": "geocoding_jp",
      "coordinate_level": "prefecture",
      "normalized_address": "北海道札幌市北区北14条西3-1-31 総業第5ハイム 1F",
      "id": "curry-75"
    },
    {
      "name": "イン カリー",
      "url": "https://tabelog.com/hokkaido/A0101/A010204/1065304/",
      "address": "北海道札幌市西区二十四軒3条5-9-33",
      "code": "hyakumeiten_curry_east_2026_restaurant_1065304",
      "lat": "43.072286",
      "lng": "141.309111",
      "geocode_source": "geocoding_jp",
      "coordinate_level": "prefecture",
      "normalized_address": "北海道札幌市西区二十軒3条5-9-33",
      "id": "curry-76"
    },
    {
      "name": "アジャンタインドカリ店",
      "url": "https://tabelog.com/hokkaido/A0101/A010104/1055967/",
      "address": "北海道札幌市中央区南29条西10丁目6-5",
      "code": "hyakumeiten_curry_east_2026_restaurant_1055967",
      "lat": "43.021186",
      "lng": "141.34651",
      "geocode_source": "geocoding_jp",
      "coordinate_level": "prefecture",
      "normalized_address": "北海道札幌市中央区南29条西10丁目6-5",
      "id": "curry-77"
    },
    {
      "name": "珊瑚礁 本店",
      "url": "https://tabelog.com/kanagawa/A1404/A140402/14000276/",
      "address": "神奈川県鎌倉市七里ガ浜東3-1-2",
      "code": "hyakumeiten_curry_east_2026_restaurant_14000276",
      "lat": "35.309101",
      "lng": "139.516627",
      "geocode_source": "geocoding_jp",
      "coordinate_level": "city",
      "normalized_address": "神奈川県鎌倉市七里ガ浜東三丁目1-2",
      "id": "curry-78"
    },
    {
      "name": "ヴィラ・アフガン",
      "url": "https://tabelog.com/yamanashi/A1902/A190201/19000083/",
      "address": "山梨県北杜市大泉町西井出8240-3510",
      "code": "hyakumeiten_curry_east_2026_restaurant_19000083",
      "lat": "35.912199",
      "lng": "138.408304",
      "geocode_source": "geocoding_jp",
      "coordinate_level": "prefecture",
      "normalized_address": "山梨県北杜市大泉町西井出8240-3510",
      "id": "curry-79"
    },
    {
      "name": "スープ・カレー・イシバ",
      "url": "https://tabelog.com/aichi/A2301/A230105/23082023/",
      "address": "愛知県名古屋市中区金山2-4-23 GMサカイ 1F",
      "code": "hyakumeiten_curry_east_2026_restaurant_23082023",
      "lat": "35.14608379",
      "lng": "136.9049185",
      "geocode_source": "yahoo",
      "coordinate_level": "",
      "normalized_address": "",
      "id": "curry-80"
    },
    {
      "name": "E-itou Curry 平岸本店",
      "url": "https://tabelog.com/hokkaido/A0101/A010303/1052435/",
      "address": "北海道札幌市豊平区平岸1条2-7-33",
      "code": "hyakumeiten_curry_east_2026_restaurant_1052435",
      "lat": "43.041153",
      "lng": "141.36383",
      "geocode_source": "geocoding_jp",
      "coordinate_level": "prefecture",
      "normalized_address": "北海道札幌市豊平区平岸1条2-7-33",
      "id": "curry-81"
    },
    {
      "name": "ラマイ 横浜伊勢佐木モール店",
      "url": "https://tabelog.com/kanagawa/A1401/A140104/14045095/",
      "address": "神奈川県横浜市中区伊勢佐木町1-6-5 亀楽ビル 7F",
      "code": "hyakumeiten_curry_east_2026_restaurant_14045095",
      "lat": "35.443943",
      "lng": "139.632506",
      "geocode_source": "geocoding_jp",
      "coordinate_level": "city",
      "normalized_address": "神奈川県横浜市中区伊勢佐木町1丁目6-5 亀楽ビル 7F",
      "id": "curry-82"
    },
    {
      "name": "SOUP CURRY KING 本店",
      "url": "https://tabelog.com/hokkaido/A0101/A010303/1006357/",
      "address": "北海道札幌市豊平区平岸三条16-1-1",
      "code": "hyakumeiten_curry_east_2026_restaurant_1006357",
      "lat": "43.024494",
      "lng": "141.367844",
      "geocode_source": "gsi",
      "coordinate_level": "prefecture",
      "normalized_address": "北海道札幌市豊平区平岸三条十六丁目1番1号",
      "id": "curry-83"
    },
    {
      "name": "カレーのふらのや",
      "url": "https://tabelog.com/hokkaido/A0101/A010302/1031618/",
      "address": "北海道札幌市厚別区厚別西3条6丁目700-86",
      "code": "hyakumeiten_curry_east_2026_restaurant_1031618",
      "lat": "43.053031",
      "lng": "141.471404",
      "geocode_source": "geocoding_jp",
      "coordinate_level": "prefecture",
      "normalized_address": "北海道札幌市厚別区厚別西3条6丁目700-86",
      "id": "curry-84"
    },
    {
      "name": "さっぽろルーカレーNAGAMIYA",
      "url": "https://tabelog.com/hokkaido/A0101/A010102/1048553/",
      "address": "北海道札幌市中央区南1条西13丁目4-62 ペストール南大通1階",
      "code": "hyakumeiten_curry_east_2026_restaurant_1048553",
      "lat": "43.057323",
      "lng": "141.336966",
      "geocode_source": "geocoding_jp",
      "coordinate_level": "prefecture",
      "normalized_address": "北海道札幌市中央区南1条西13丁目4-62 ペストール南大通1階",
      "id": "curry-85"
    },
    {
      "name": "西屯田通りスープカレー本舗",
      "url": "https://tabelog.com/hokkaido/A0101/A010104/1007981/",
      "address": "北海道札幌市中央区南八条西13-4-5",
      "code": "hyakumeiten_curry_east_2026_restaurant_1007981",
      "lat": "43.048658",
      "lng": "141.337221",
      "geocode_source": "geocoding_jp",
      "coordinate_level": "prefecture",
      "normalized_address": "北海道札幌市中央区南八条西13-4-5",
      "id": "curry-86"
    },
    {
      "name": "スパイスカレー あかつ亭",
      "url": "https://tabelog.com/aichi/A2301/A230105/23083133/",
      "address": "愛知県名古屋市中区門前町1-15 ムツガビル1F",
      "code": "hyakumeiten_curry_east_2026_restaurant_23083133",
      "lat": "35.15756816",
      "lng": "136.90019626",
      "geocode_source": "yahoo",
      "coordinate_level": "",
      "normalized_address": "",
      "id": "curry-87"
    },
    {
      "name": "カレーとハンバーグの店 バーグ 戸部店",
      "url": "https://tabelog.com/kanagawa/A1401/A140102/14000379/",
      "address": "神奈川県横浜市西区戸部町7-231-1 Ｌストーク １Ｆ",
      "code": "hyakumeiten_curry_east_2026_restaurant_14000379",
      "lat": "35.45780294",
      "lng": "139.62293472",
      "geocode_source": "yahoo",
      "coordinate_level": "",
      "normalized_address": "",
      "id": "curry-88"
    },
    {
      "name": "スープカレー しゃば蔵",
      "url": "https://tabelog.com/hokkaido/A0101/A010102/1062715/",
      "address": "北海道札幌市中央区北1条西4-2-2 札幌ノースプラザビル B1",
      "code": "hyakumeiten_curry_east_2026_restaurant_1062715",
      "lat": "43.06245619",
      "lng": "141.35106519",
      "geocode_source": "yahoo",
      "coordinate_level": "",
      "normalized_address": "",
      "id": "curry-89"
    },
    {
      "name": "スープカレー GARAKU 千歳店",
      "url": "https://tabelog.com/hokkaido/A0107/A010701/1069655/",
      "address": "北海道千歳市栄町7-1237-21",
      "code": "hyakumeiten_curry_east_2026_restaurant_1069655",
      "lat": "42.82983",
      "lng": "141.649323",
      "geocode_source": "gsi",
      "coordinate_level": "",
      "normalized_address": "北海道千歳市栄町七丁目１２３７番地",
      "id": "curry-90"
    },
    {
      "name": "スープカレー スアゲ4",
      "url": "https://tabelog.com/hokkaido/A0101/A010101/1064968/",
      "address": "北海道札幌市中央区北3条西3-1-1 大同生命ビル miredo 2F",
      "code": "hyakumeiten_curry_east_2026_restaurant_1064968",
      "lat": "43.05225133",
      "lng": "141.33853076",
      "geocode_source": "yahoo",
      "coordinate_level": "",
      "normalized_address": "",
      "id": "curry-91"
    },
    {
      "name": "ふらのや",
      "url": "https://tabelog.com/hokkaido/A0104/A010403/1016743/",
      "address": "北海道富良野市弥生町1-46",
      "code": "hyakumeiten_curry_east_2026_restaurant_1016743",
      "lat": "43.34298886",
      "lng": "142.38259707",
      "geocode_source": "yahoo",
      "coordinate_level": "",
      "normalized_address": "",
      "id": "curry-92"
    },
    {
      "name": "しまや",
      "url": "https://tabelog.com/kanagawa/A1405/A140501/14094795/",
      "address": "神奈川県川崎市川崎区小川町10-19 リバー佐藤 1F",
      "code": "hyakumeiten_curry_east_2026_restaurant_14094795",
      "lat": "35.526379",
      "lng": "139.696396",
      "geocode_source": "gsi",
      "coordinate_level": "",
      "normalized_address": "神奈川県川崎市川崎区小川町１０番",
      "id": "curry-93"
    },
    {
      "name": "マタレー 円山店",
      "url": "https://tabelog.com/hokkaido/A0101/A010105/1025101/",
      "address": "北海道札幌市中央区南1条西23丁目1-8",
      "code": "hyakumeiten_curry_east_2026_restaurant_1025101",
      "lat": "43.055466",
      "lng": "141.323045",
      "geocode_source": "geocoding_jp",
      "coordinate_level": "prefecture",
      "normalized_address": "北海道札幌市中央区南1条西23丁目1-8",
      "id": "curry-94"
    },
    {
      "name": "ムムムカリー",
      "url": "https://tabelog.com/kanagawa/A1401/A140102/14092601/",
      "address": "神奈川県横浜市中区日ノ出町1-66-5 メゾンド・オリーブ 2F",
      "code": "hyakumeiten_curry_east_2026_restaurant_14092601",
      "lat": "35.44414645",
      "lng": "139.62633465",
      "geocode_source": "yahoo",
      "coordinate_level": "",
      "normalized_address": "",
      "id": "curry-95"
    },
    {
      "name": "札幌スープカレー専門店エスパーイトウ 八軒総本店",
      "url": "https://tabelog.com/hokkaido/A0101/A010204/1009667/",
      "address": "北海道札幌市西区八軒5条西1-2-32 パレスチャギヒラ 1F",
      "code": "hyakumeiten_curry_east_2026_restaurant_1009667",
      "lat": "43.087342",
      "lng": "141.314224",
      "geocode_source": "geocoding_jp",
      "coordinate_level": "prefecture",
      "normalized_address": "北海道札幌市西区八軒5条西1-2-32 パレスチャギヒラ 1F",
      "id": "curry-96"
    },
    {
      "name": "スープカリー ヒリヒリオオドオリ",
      "url": "https://tabelog.com/hokkaido/A0101/A010102/1007888/",
      "address": "北海道札幌市中央区南1条西2 Kビル B1F",
      "code": "hyakumeiten_curry_east_2026_restaurant_1007888",
      "lat": "43.05933446",
      "lng": "141.35495395",
      "geocode_source": "yahoo",
      "coordinate_level": "",
      "normalized_address": "",
      "id": "curry-97"
    },
    {
      "name": "スープカレー トレジャー",
      "url": "https://tabelog.com/hokkaido/A0101/A010102/1064448/",
      "address": "北海道札幌市中央区南二条西1-8-2 アスカビル 1F",
      "code": "hyakumeiten_curry_east_2026_restaurant_1064448",
      "lat": "43.0582402",
      "lng": "141.35687329",
      "geocode_source": "yahoo",
      "coordinate_level": "",
      "normalized_address": "",
      "id": "curry-98"
    },
    {
      "name": "カレー オハナ",
      "url": "https://tabelog.com/hokkaido/A0101/A010202/1003356/",
      "address": "北海道札幌市東区北三十二条東12-1-13",
      "code": "hyakumeiten_curry_east_2026_restaurant_1003356",
      "lat": "43.10180444",
      "lng": "141.36382794",
      "geocode_source": "yahoo",
      "coordinate_level": "",
      "normalized_address": "",
      "id": "curry-99"
    },
    {
      "name": "トマト",
      "url": "https://tabelog.com/tokyo/A1319/A131906/13001113/",
      "address": "東京都杉並区荻窪5-20-7 吉田ビル 1F",
      "code": "hyakumeiten_curry_tokyo_2026_restaurant_13001113",
      "lat": "35.702363",
      "lng": "139.620227",
      "geocode_source": "abr",
      "coordinate_level": "residential_block",
      "normalized_address": "東京都杉並区荻窪5丁目20-7 吉田ビル 1F",
      "id": "curry-100"
    },
    {
      "name": "SPICY CURRY 魯珈",
      "url": "https://tabelog.com/tokyo/A1304/A130404/13286023/",
      "address": "東京都新宿区百人町1-24-8 新宿タウンプラザビル BF-J",
      "code": "hyakumeiten_curry_tokyo_2026_restaurant_13286023",
      "lat": "35.698691",
      "lng": "139.697725",
      "geocode_source": "geocoding_jp",
      "coordinate_level": "city",
      "normalized_address": "東京都新宿区百人町1-24-8 新宿タウンプラザビル BF-J",
      "id": "curry-101"
    },
    {
      "name": "Kalpasi",
      "url": "https://tabelog.com/tokyo/A1318/A131813/13202529/",
      "address": "東京都世田谷区経堂4-3-10 1F",
      "code": "hyakumeiten_curry_tokyo_2026_restaurant_13202529",
      "lat": "35.64684059",
      "lng": "139.6285738",
      "geocode_source": "yahoo",
      "coordinate_level": "",
      "normalized_address": "",
      "id": "curry-102"
    },
    {
      "name": "月と亀",
      "url": "https://tabelog.com/tokyo/A1312/A131201/13262828/",
      "address": "東京都江東区新大橋3-7-3",
      "code": "hyakumeiten_curry_tokyo_2026_restaurant_13262828",
      "lat": "35.687654",
      "lng": "139.795708",
      "geocode_source": "geocoding_jp",
      "coordinate_level": "city",
      "normalized_address": "東京都江東区新大橋3-7-3",
      "id": "curry-103"
    },
    {
      "name": "BLOCK HOUSE 水曜カレー",
      "url": "https://tabelog.com/tokyo/A1306/A130601/13183182/",
      "address": "東京都渋谷区神宮前6-12-9 BLOCK HOUSE 3F",
      "code": "hyakumeiten_curry_tokyo_2026_restaurant_13183182",
      "lat": "35.666521",
      "lng": "139.704465",
      "geocode_source": "abr",
      "coordinate_level": "residential_block",
      "normalized_address": "東京都渋谷区神宮前6丁目12-9 BLOCK HOUSE 3F",
      "id": "curry-104"
    },
    {
      "name": "タケウチ 神保町本店",
      "url": "https://tabelog.com/tokyo/A1310/A131003/13160882/",
      "address": "東京都千代田区神田神保町1-20-3 1F",
      "code": "hyakumeiten_curry_tokyo_2026_restaurant_13160882",
      "lat": "35.696784",
      "lng": "139.759523",
      "geocode_source": "geocoding_jp",
      "coordinate_level": "city",
      "normalized_address": "東京都千代田区神田神保町一丁目20-3 1F",
      "id": "curry-105"
    },
    {
      "name": "Spice Bar モンカリー",
      "url": "https://tabelog.com/tokyo/A1304/A130404/13277319/",
      "address": "東京都新宿区北新宿1-3-15 野原ビル 1F",
      "code": "hyakumeiten_curry_tokyo_2026_restaurant_13277319",
      "lat": "35.69837811",
      "lng": "139.69596895",
      "geocode_source": "yahoo",
      "coordinate_level": "",
      "normalized_address": "",
      "id": "curry-106"
    },
    {
      "name": "Curry Spice Gelateria KALPASI",
      "url": "https://tabelog.com/tokyo/A1318/A131802/13247887/",
      "address": "東京都世田谷区北沢2-12-2 サウスウェーブ下北沢 1F",
      "code": "hyakumeiten_curry_tokyo_2026_restaurant_13247887",
      "lat": "35.66087",
      "lng": "139.668157",
      "geocode_source": "abr",
      "coordinate_level": "residential_block",
      "normalized_address": "東京都世田谷区北沢2丁目12-2 サウスウェーブ下北沢 1F",
      "id": "curry-107"
    },
    {
      "name": "ホンカトリー",
      "url": "https://tabelog.com/tokyo/A1310/A131002/13210157/",
      "address": "東京都文京区湯島2-7-9",
      "code": "hyakumeiten_curry_tokyo_2026_restaurant_13210157",
      "lat": "35.703931",
      "lng": "139.765722",
      "geocode_source": "abr",
      "coordinate_level": "residential_block",
      "normalized_address": "東京都文京区湯島2丁目7-9",
      "id": "curry-108"
    },
    {
      "name": "酒とスパイス マツコ",
      "url": "https://tabelog.com/tokyo/A1302/A130202/13249791/",
      "address": "東京都中央区日本橋2-2-15 HASHI",
      "code": "hyakumeiten_curry_tokyo_2026_restaurant_13249791",
      "lat": "35.6818319",
      "lng": "139.77242979",
      "geocode_source": "yahoo",
      "coordinate_level": "",
      "normalized_address": "",
      "id": "curry-109"
    },
    {
      "name": "カレーライス専門店 ブラザー",
      "url": "https://tabelog.com/tokyo/A1305/A130503/13212319/",
      "address": "東京都新宿区高田馬場2-19-7 タックイレブン1Ｆ",
      "code": "hyakumeiten_curry_tokyo_2026_restaurant_13212319",
      "lat": "35.713911",
      "lng": "139.70447",
      "geocode_source": "geocoding_jp",
      "coordinate_level": "city",
      "normalized_address": "東京都新宿区高田馬場2-19-7 タックイレブン1F",
      "id": "curry-110"
    },
    {
      "name": "本石亭",
      "url": "https://tabelog.com/tokyo/A1302/A130202/13046781/",
      "address": "東京都中央区日本橋本石町4-4-16",
      "code": "hyakumeiten_curry_tokyo_2026_restaurant_13046781",
      "lat": "35.688618",
      "lng": "139.771231",
      "geocode_source": "abr",
      "coordinate_level": "residential_block",
      "normalized_address": "東京都中央区日本橋本石町4丁目4-16",
      "id": "curry-111"
    },
    {
      "name": "旧ヤム邸  シモキタ荘",
      "url": "https://tabelog.com/tokyo/A1318/A131802/13211142/",
      "address": "東京都世田谷区代沢5-29-9 ナイスビル 1F",
      "code": "hyakumeiten_curry_tokyo_2026_restaurant_13211142",
      "lat": "35.657935",
      "lng": "139.667327",
      "geocode_source": "abr",
      "coordinate_level": "residential_block",
      "normalized_address": "東京都世田谷区代沢5丁目29-9 ナイスビル 1F",
      "id": "curry-112"
    },
    {
      "name": "キッチン アンド カリー",
      "url": "https://tabelog.com/tokyo/A1318/A131803/13224066/",
      "address": "東京都世田谷区羽根木1-21-24 亀甲新い52",
      "code": "hyakumeiten_curry_tokyo_2026_restaurant_13224066",
      "lat": "35.66393",
      "lng": "139.658234",
      "geocode_source": "abr",
      "coordinate_level": "residential_block",
      "normalized_address": "東京都世田谷区羽根木1丁目21-24 亀甲新い52",
      "id": "curry-113"
    },
    {
      "name": "創作カレー MANOS",
      "url": "https://tabelog.com/tokyo/A1317/A131706/13237789/",
      "address": "東京都世田谷区太子堂3-18-2 三茶ビル 1F",
      "code": "hyakumeiten_curry_tokyo_2026_restaurant_13237789",
      "lat": "35.64831647",
      "lng": "139.66865374",
      "geocode_source": "yahoo",
      "coordinate_level": "",
      "normalized_address": "",
      "id": "curry-114"
    },
    {
      "name": "デリー 上野店",
      "url": "https://tabelog.com/tokyo/A1311/A131101/13003605/",
      "address": "東京都文京区湯島3-42-2",
      "code": "hyakumeiten_curry_tokyo_2026_restaurant_13003605",
      "lat": "35.708252",
      "lng": "139.771404",
      "geocode_source": "abr",
      "coordinate_level": "residential_block",
      "normalized_address": "東京都文京区湯島3丁目42-2",
      "id": "curry-115"
    },
    {
      "name": "トプカ 神田本店",
      "url": "https://tabelog.com/tokyo/A1310/A131002/13000377/",
      "address": "東京都千代田区神田須田町1-11 竹内ビル 1F",
      "code": "hyakumeiten_curry_tokyo_2026_restaurant_13000377",
      "lat": "35.696297",
      "lng": "139.769172",
      "geocode_source": "geocoding_jp",
      "coordinate_level": "city",
      "normalized_address": "東京都千代田区神田須田町一丁目11 竹内ビル 1F",
      "id": "curry-116"
    },
    {
      "name": "フィッシュ 新宿店",
      "url": "https://tabelog.com/tokyo/A1304/A130401/13222551/",
      "address": "東京都新宿区西新宿7-5-6 新宿ダイカンプラザ756 2F",
      "code": "hyakumeiten_curry_tokyo_2026_restaurant_13222551",
      "lat": "35.696528",
      "lng": "139.698269",
      "geocode_source": "geocoding_jp",
      "coordinate_level": "city",
      "normalized_address": "東京都新宿区西新宿7-5-6 新宿ダイカンプラザ756 2F",
      "id": "curry-117"
    },
    {
      "name": "ヨゴロウ",
      "url": "https://tabelog.com/tokyo/A1306/A130601/13076645/",
      "address": "東京都渋谷区神宮前2-20-10 小松ビル 1F",
      "code": "hyakumeiten_curry_tokyo_2026_restaurant_13076645",
      "lat": "35.674256",
      "lng": "139.711067",
      "geocode_source": "abr",
      "coordinate_level": "residential_block",
      "normalized_address": "東京都渋谷区神宮前2丁目20-10 小松ビル 1F",
      "id": "curry-118"
    },
    {
      "name": "スパイシーカリーハウス半月",
      "url": "https://tabelog.com/tokyo/A1304/A130401/13211678/",
      "address": "東京都新宿区西新宿7-6-9 コンフォート・セゾン 1F",
      "code": "hyakumeiten_curry_tokyo_2026_restaurant_13211678",
      "lat": "35.697833",
      "lng": "139.697923",
      "geocode_source": "geocoding_jp",
      "coordinate_level": "city",
      "normalized_address": "東京都新宿区西新宿7-6-9 コンフォート・セゾン 1F",
      "id": "curry-119"
    },
    {
      "name": "ジンコック",
      "url": "https://tabelog.com/tokyo/A1310/A131002/13102075/",
      "address": "東京都千代田区神田須田町1-2-3 山勝ビル 1F",
      "code": "hyakumeiten_curry_tokyo_2026_restaurant_13102075",
      "lat": "35.695154",
      "lng": "139.76803",
      "geocode_source": "geocoding_jp",
      "coordinate_level": "city",
      "normalized_address": "東京都千代田区神田須田町一丁目2-3 山勝ビル 1F",
      "id": "curry-120"
    },
    {
      "name": "ロダン",
      "url": "https://tabelog.com/tokyo/A1302/A130203/13048485/",
      "address": "東京都中央区八丁堀3-8-4",
      "code": "hyakumeiten_curry_tokyo_2026_restaurant_13048485",
      "lat": "35.675675",
      "lng": "139.774723",
      "geocode_source": "abr",
      "coordinate_level": "residential_block",
      "normalized_address": "東京都中央区八丁堀3丁目8-4",
      "id": "curry-121"
    },
    {
      "name": "スープカレー屋 鴻 神田駿河台店",
      "url": "https://tabelog.com/tokyo/A1310/A131003/13040204/",
      "address": "東京都千代田区神田小川町3-10-18",
      "code": "hyakumeiten_curry_tokyo_2026_restaurant_13040204",
      "lat": "35.696326",
      "lng": "139.761413",
      "geocode_source": "geocoding_jp",
      "coordinate_level": "city",
      "normalized_address": "東京都千代田区神田小川町三丁目10-18",
      "id": "curry-122"
    },
    {
      "name": "ホールスパイスカレー青藍",
      "url": "https://tabelog.com/tokyo/A1319/A131904/13215450/",
      "address": "東京都杉並区高円寺北2-41-15",
      "code": "hyakumeiten_curry_tokyo_2026_restaurant_13215450",
      "lat": "35.709018",
      "lng": "139.650593",
      "geocode_source": "abr",
      "coordinate_level": "residential_block",
      "normalized_address": "東京都杉並区高円寺北2丁目41-15",
      "id": "curry-123"
    },
    {
      "name": "チャントーヤ ココナッツカリー",
      "url": "https://tabelog.com/tokyo/A1310/A131002/13131134/",
      "address": "東京都千代田区神田小川町3-28-7 昇龍館ビル 1F",
      "code": "hyakumeiten_curry_tokyo_2026_restaurant_13131134",
      "lat": "35.696211",
      "lng": "139.763015",
      "geocode_source": "geocoding_jp",
      "coordinate_level": "city",
      "normalized_address": "東京都千代田区神田小川町三丁目28-7 昇龍館ビル 1F",
      "id": "curry-124"
    },
    {
      "name": "パンチマハル",
      "url": "https://tabelog.com/tokyo/A1310/A131003/13026681/",
      "address": "東京都千代田区神田神保町1-64-2 野間ビル",
      "code": "hyakumeiten_curry_tokyo_2026_restaurant_13026681",
      "lat": "35.698776",
      "lng": "139.75827",
      "geocode_source": "geocoding_jp",
      "coordinate_level": "city",
      "normalized_address": "東京都千代田区神田神保町一丁目64-2 野間ビル",
      "id": "curry-125"
    },
    {
      "name": "スパイスパレット",
      "url": "https://tabelog.com/tokyo/A1311/A131101/13240357/",
      "address": "東京都台東区台東1-9-4 松浦ビル 2F",
      "code": "hyakumeiten_curry_tokyo_2026_restaurant_13240357",
      "lat": "35.700893",
      "lng": "139.776035",
      "geocode_source": "abr",
      "coordinate_level": "residential_block",
      "normalized_address": "東京都台東区台東1丁目9-4 松浦ビル 2F",
      "id": "curry-126"
    },
    {
      "name": "カリーライス専門店エチオピア 本店",
      "url": "https://tabelog.com/tokyo/A1310/A131003/13000638/",
      "address": "東京都千代田区神田小川町3-10-6",
      "code": "hyakumeiten_curry_tokyo_2026_restaurant_13000638",
      "lat": "35.696383",
      "lng": "139.761367",
      "geocode_source": "geocoding_jp",
      "coordinate_level": "city",
      "normalized_address": "東京都千代田区神田小川町三丁目10-6",
      "id": "curry-127"
    },
    {
      "name": "ガヴィアル",
      "url": "https://tabelog.com/tokyo/A1310/A131003/13000358/",
      "address": "東京都千代田区神田神保町1-9 稲垣ビル 2Ｆ",
      "code": "hyakumeiten_curry_tokyo_2026_restaurant_13000358",
      "lat": "35.695741",
      "lng": "139.75844",
      "geocode_source": "geocoding_jp",
      "coordinate_level": "city",
      "normalized_address": "東京都千代田区神田神保町一丁目9 稲垣ビル 2F",
      "id": "curry-128"
    },
    {
      "name": "ムルギー",
      "url": "https://tabelog.com/tokyo/A1303/A130301/13001732/",
      "address": "東京都渋谷区道玄坂2-19-2",
      "code": "hyakumeiten_curry_tokyo_2026_restaurant_13001732",
      "lat": "35.659195",
      "lng": "139.696272",
      "geocode_source": "abr",
      "coordinate_level": "residential_block",
      "normalized_address": "東京都渋谷区道玄坂2丁目19-2",
      "id": "curry-129"
    },
    {
      "name": "３丁目のカレー屋さん",
      "url": "https://tabelog.com/tokyo/A1302/A130202/13025962/",
      "address": "東京都中央区京橋3-9-9 ウィンド京橋ビル B1F",
      "code": "hyakumeiten_curry_tokyo_2026_restaurant_13025962",
      "lat": "35.674888",
      "lng": "139.771094",
      "geocode_source": "abr",
      "coordinate_level": "residential_block",
      "normalized_address": "東京都中央区京橋3丁目9-9 ウィンド京橋ビル B1F",
      "id": "curry-130"
    },
    {
      "name": "カレーノトリコ",
      "url": "https://tabelog.com/tokyo/A1310/A131002/13224725/",
      "address": "東京都千代田区神田鍛冶町3-5 一八ビル 1F",
      "code": "hyakumeiten_curry_tokyo_2026_restaurant_13224725",
      "lat": "35.693965",
      "lng": "139.769878",
      "geocode_source": "geocoding_jp",
      "coordinate_level": "city",
      "normalized_address": "東京都千代田区神田鍛冶町三丁目5 一八ビル 1F",
      "id": "curry-131"
    },
    {
      "name": "ザ・カリ",
      "url": "https://tabelog.com/tokyo/A1301/A130103/13007129/",
      "address": "東京都港区新橋5-31-7 中村ビル １Ｆ",
      "code": "hyakumeiten_curry_tokyo_2026_restaurant_13007129",
      "lat": "35.662463",
      "lng": "139.755136",
      "geocode_source": "abr",
      "coordinate_level": "residential_block",
      "normalized_address": "東京都港区新橋5丁目31-7 中村ビル 1F",
      "id": "curry-132"
    },
    {
      "name": "カリー＆ワイン ビストロべっぴん舎 お茶の水店",
      "url": "https://tabelog.com/tokyo/A1310/A131002/13198751/",
      "address": "東京都千代田区神田小川町3-10-1 駿台ビル 2F",
      "code": "hyakumeiten_curry_tokyo_2026_restaurant_13198751",
      "lat": "35.695912",
      "lng": "139.761244",
      "geocode_source": "geocoding_jp",
      "coordinate_level": "city",
      "normalized_address": "東京都千代田区神田小川町三丁目10-1 駿台ビル 2F",
      "id": "curry-133"
    },
    {
      "name": "ヘンドリクス カリー バー",
      "url": "https://tabelog.com/tokyo/A1309/A130901/13007422/",
      "address": "東京都渋谷区神宮前2-13-2 ユハラアネックスビル １Ｆ",
      "code": "hyakumeiten_curry_tokyo_2026_restaurant_13007422",
      "lat": "35.674753",
      "lng": "139.712204",
      "geocode_source": "abr",
      "coordinate_level": "residential_block",
      "normalized_address": "東京都渋谷区神宮前2丁目13-2 ユハラアネックスビル 1F",
      "id": "curry-134"
    },
    {
      "name": "ホットスプーン 五反田店",
      "url": "https://tabelog.com/tokyo/A1316/A131603/13024328/",
      "address": "東京都品川区東五反田1-14-8 KCビル 1F",
      "code": "hyakumeiten_curry_tokyo_2026_restaurant_13024328",
      "lat": "35.625985",
      "lng": "139.725079",
      "geocode_source": "abr",
      "coordinate_level": "residential_block",
      "normalized_address": "東京都品川区東五反田1丁目14-8 KCビル 1F",
      "id": "curry-135"
    },
    {
      "name": "レインボウスパイス",
      "url": "https://tabelog.com/tokyo/A1329/A132901/13147181/",
      "address": "東京都立川市柴崎町3-3-4 英ビル 1F",
      "code": "hyakumeiten_curry_tokyo_2026_restaurant_13147181",
      "lat": "35.696884",
      "lng": "139.414044",
      "geocode_source": "abr",
      "coordinate_level": "residential_block",
      "normalized_address": "東京都立川市柴崎町3丁目3-4 英ビル 1F",
      "id": "curry-136"
    },
    {
      "name": "カリガリ 秋葉原",
      "url": "https://tabelog.com/tokyo/A1311/A131101/13178599/",
      "address": "東京都千代田区外神田3-6-9 沖村ビル 1F",
      "code": "hyakumeiten_curry_tokyo_2026_restaurant_13178599",
      "lat": "35.70221",
      "lng": "139.769936",
      "geocode_source": "abr",
      "coordinate_level": "residential_block",
      "normalized_address": "東京都千代田区外神田三丁目6-9 沖村ビル 1F",
      "id": "curry-137"
    },
    {
      "name": "カレーショップ初恋",
      "url": "https://tabelog.com/tokyo/A1303/A130301/13240190/",
      "address": "東京都渋谷区道玄坂1-17-11 ミナミビル B1F",
      "code": "hyakumeiten_curry_tokyo_2026_restaurant_13240190",
      "lat": "35.657016",
      "lng": "139.697027",
      "geocode_source": "abr",
      "coordinate_level": "residential_block",
      "normalized_address": "東京都渋谷区道玄坂1丁目17-11 ミナミビル B1F",
      "id": "curry-138"
    },
    {
      "name": "CURRY SHOP くじら 高円寺",
      "url": "https://tabelog.com/tokyo/A1319/A131904/13149528/",
      "address": "東京都杉並区高円寺北3-22-8 大一市場 1Ｆ",
      "code": "hyakumeiten_curry_tokyo_2026_restaurant_13149528",
      "lat": "35.706069",
      "lng": "139.649302",
      "geocode_source": "abr",
      "coordinate_level": "residential_block",
      "normalized_address": "東京都杉並区高円寺北3丁目22-8 大一市場 1F",
      "id": "curry-139"
    },
    {
      "name": "ポークビンダルー食べる副大統領",
      "url": "https://tabelog.com/tokyo/A1303/A130301/13235448/",
      "address": "東京都渋谷区宇田川町41-26 パピエビル 2F",
      "code": "hyakumeiten_curry_tokyo_2026_restaurant_13235448",
      "lat": "35.662754",
      "lng": "139.696051",
      "geocode_source": "abr",
      "coordinate_level": "residential_block",
      "normalized_address": "東京都渋谷区宇田川町41-26 パピエビル 2F",
      "id": "curry-140"
    },
    {
      "name": "マリーアイランガニー",
      "url": "https://tabelog.com/tokyo/A1303/A130301/13166471/",
      "address": "東京都渋谷区宇田川町34-6 M&Iビル 5F",
      "code": "hyakumeiten_curry_tokyo_2026_restaurant_13166471",
      "lat": "35.661231",
      "lng": "139.696616",
      "geocode_source": "abr",
      "coordinate_level": "residential_block",
      "normalized_address": "東京都渋谷区宇田川町34-6 M&Iビル 5F",
      "id": "curry-141"
    },
    {
      "name": "negombo33 高円寺",
      "url": "https://tabelog.com/tokyo/A1319/A131904/13228221/",
      "address": "東京都杉並区高円寺南4-44-3 マーキュリービル 1F",
      "code": "hyakumeiten_curry_tokyo_2026_restaurant_13228221",
      "lat": "35.704801",
      "lng": "139.65121",
      "geocode_source": "abr",
      "coordinate_level": "residential_block",
      "normalized_address": "東京都杉並区高円寺南4丁目44-3 マーキュリービル 1F",
      "id": "curry-142"
    },
    {
      "name": "ヒナタ屋",
      "url": "https://tabelog.com/tokyo/A1310/A131002/13057210/",
      "address": "東京都千代田区神田小川町3-10 振天堂ビル4Ｆ",
      "code": "hyakumeiten_curry_tokyo_2026_restaurant_13057210",
      "lat": "35.696458",
      "lng": "139.761446",
      "geocode_source": "geocoding_jp",
      "coordinate_level": "city",
      "normalized_address": "東京都千代田区神田小川町三丁目10 振天堂ビル4F",
      "id": "curry-143"
    },
    {
      "name": "スパイシーカリーハウス 銀座半月",
      "url": "https://tabelog.com/tokyo/A1301/A130101/13246897/",
      "address": "東京都中央区銀座6-4-15 銀座数寄屋橋ビル 1F",
      "code": "hyakumeiten_curry_tokyo_2026_restaurant_13246897",
      "lat": "35.671288",
      "lng": "139.761562",
      "geocode_source": "abr",
      "coordinate_level": "residential_block",
      "normalized_address": "東京都中央区銀座6丁目4-15 銀座数寄屋橋ビル 1F",
      "id": "curry-144"
    },
    {
      "name": "まめ蔵",
      "url": "https://tabelog.com/tokyo/A1320/A132001/13005789/",
      "address": "東京都武蔵野市吉祥寺本町2-18-15",
      "code": "hyakumeiten_curry_tokyo_2026_restaurant_13005789",
      "lat": "35.704679",
      "lng": "139.575822",
      "geocode_source": "abr",
      "coordinate_level": "residential_block",
      "normalized_address": "東京都武蔵野市吉祥寺本町2丁目18-15",
      "id": "curry-145"
    },
    {
      "name": "フレンチカレー スプーン",
      "url": "https://tabelog.com/tokyo/A1319/A131907/13093699/",
      "address": "東京都杉並区松庵3-38-19 リヴェール西荻 1F",
      "code": "hyakumeiten_curry_tokyo_2026_restaurant_13093699",
      "lat": "35.702783",
      "lng": "139.599522",
      "geocode_source": "abr",
      "coordinate_level": "residential_block",
      "normalized_address": "東京都杉並区松庵3丁目38-19 リヴェール西荻 1F",
      "id": "curry-146"
    },
    {
      "name": "ジャパニーズ スパイス カリー ワッカ",
      "url": "https://tabelog.com/tokyo/A1302/A130203/13254664/",
      "address": "東京都中央区八丁堀2-19-7 庄司ビル 1F",
      "code": "hyakumeiten_curry_tokyo_2026_restaurant_13254664",
      "lat": "35.675906",
      "lng": "139.7762",
      "geocode_source": "abr",
      "coordinate_level": "residential_block",
      "normalized_address": "東京都中央区八丁堀2丁目19-7 庄司ビル 1F",
      "id": "curry-147"
    },
    {
      "name": "エピタフカレー",
      "url": "https://tabelog.com/tokyo/A1304/A130401/13246903/",
      "address": "東京都新宿区新宿3-7-5 第2シグマビル B1F",
      "code": "hyakumeiten_curry_tokyo_2026_restaurant_13246903",
      "lat": "35.69106",
      "lng": "139.706025",
      "geocode_source": "geocoding_jp",
      "coordinate_level": "city",
      "normalized_address": "東京都新宿区新宿3-7-5 第2シグマビル B1F",
      "id": "curry-148"
    },
    {
      "name": "東京ボンベイ 恵比寿本店",
      "url": "https://tabelog.com/tokyo/A1303/A130302/13221284/",
      "address": "東京都渋谷区恵比寿南1-23-1 ABC亜米利加橋ビル 1F",
      "code": "hyakumeiten_curry_tokyo_2026_restaurant_13221284",
      "lat": "35.643155",
      "lng": "139.711735",
      "geocode_source": "abr",
      "coordinate_level": "residential_block",
      "normalized_address": "東京都渋谷区恵比寿南1丁目23-1 ABC亜米利加橋ビル 1F",
      "id": "curry-149"
    },
    {
      "name": "&スリランカTOKYO",
      "url": "https://tabelog.com/tokyo/A1310/A131003/13276047/",
      "address": "東京都千代田区神田神保町1-54-4 JHVビル 1F",
      "code": "hyakumeiten_curry_tokyo_2026_restaurant_13276047",
      "lat": "35.698218",
      "lng": "139.757289",
      "geocode_source": "geocoding_jp",
      "coordinate_level": "city",
      "normalized_address": "東京都千代田区神田神保町一丁目54-4 JHVビル 1F",
      "id": "curry-150"
    },
    {
      "name": "カリーアップ",
      "url": "https://tabelog.com/tokyo/A1306/A130601/13103835/",
      "address": "東京都渋谷区神宮前2-35-9 原宿リビン 105",
      "code": "hyakumeiten_curry_tokyo_2026_restaurant_13103835",
      "lat": "35.674676",
      "lng": "139.707783",
      "geocode_source": "abr",
      "coordinate_level": "residential_block",
      "normalized_address": "東京都渋谷区神宮前2丁目35-9 原宿リビン 105",
      "id": "curry-151"
    },
    {
      "name": "牛すじカレー 小さなカレー家",
      "url": "https://tabelog.com/tokyo/A1304/A130404/13048031/",
      "address": "東京都新宿区百人町1-24-10",
      "code": "hyakumeiten_curry_tokyo_2026_restaurant_13048031",
      "lat": "35.699083",
      "lng": "139.69775",
      "geocode_source": "geocoding_jp",
      "coordinate_level": "city",
      "normalized_address": "東京都新宿区百人町1-24-10",
      "id": "curry-152"
    },
    {
      "name": "葡萄舎",
      "url": "https://tabelog.com/tokyo/A1310/A131002/13036906/",
      "address": "東京都千代田区鍛冶町1-3-10 MJ神田ビル 5F",
      "code": "hyakumeiten_curry_tokyo_2026_restaurant_13036906",
      "lat": "35.690113",
      "lng": "139.770731",
      "geocode_source": "abr",
      "coordinate_level": "residential_block",
      "normalized_address": "東京都千代田区鍛冶町一丁目3-10 MJ神田ビル 5F",
      "id": "curry-153"
    },
    {
      "name": "とんかつ檍のカレー屋 いっぺこっぺ 蒲田本店",
      "url": "https://tabelog.com/tokyo/A1315/A131503/13178494/",
      "address": "東京都大田区蒲田5-43-7",
      "code": "hyakumeiten_curry_tokyo_2026_restaurant_13178494",
      "lat": "35.56056",
      "lng": "139.717127",
      "geocode_source": "abr",
      "coordinate_level": "residential_block",
      "normalized_address": "東京都大田区蒲田五丁目43-7",
      "id": "curry-154"
    },
    {
      "name": "プティフ・ア・ラ・カンパーニュ",
      "url": "https://tabelog.com/tokyo/A1308/A130803/13000254/",
      "address": "東京都千代田区一番町8-13 日興ロイヤルパレス一番町 １Ｆ",
      "code": "hyakumeiten_curry_tokyo_2026_restaurant_13000254",
      "lat": "35.687071",
      "lng": "139.740632",
      "geocode_source": "geocoding_jp",
      "coordinate_level": "city",
      "normalized_address": "東京都千代田区一番町8-13 日興ロイヤルパレス 一 1F",
      "id": "curry-155"
    },
    {
      "name": "インド風カリーライス すぱいす",
      "url": "https://tabelog.com/tokyo/A1319/A131906/13004379/",
      "address": "東京都杉並区荻窪5-16-20",
      "code": "hyakumeiten_curry_tokyo_2026_restaurant_13004379",
      "lat": "35.703903",
      "lng": "139.617857",
      "geocode_source": "abr",
      "coordinate_level": "residential_block",
      "normalized_address": "東京都杉並区荻窪5丁目16-20",
      "id": "curry-156"
    },
    {
      "name": "かえる食堂",
      "url": "https://tabelog.com/tokyo/A1322/A132202/13030312/",
      "address": "東京都豊島区池袋3-6-1 第2京花荘 1F",
      "code": "hyakumeiten_curry_tokyo_2026_restaurant_13030312",
      "lat": "35.733916",
      "lng": "139.702842",
      "geocode_source": "abr",
      "coordinate_level": "residential_block",
      "normalized_address": "東京都豊島区池袋3丁目6-1 第2京花荘 1F",
      "id": "curry-157"
    },
    {
      "name": "ブラウニー",
      "url": "https://tabelog.com/tokyo/A1311/A131101/13006343/",
      "address": "東京都千代田区外神田3-7-9 サンビュー外神田 １Ｆ",
      "code": "hyakumeiten_curry_tokyo_2026_restaurant_13006343",
      "lat": "35.702751",
      "lng": "139.770449",
      "geocode_source": "abr",
      "coordinate_level": "residential_block",
      "normalized_address": "東京都千代田区外神田三丁目7-9 サンビュー外神田 1F",
      "id": "curry-158"
    },
    {
      "name": "エチオピアカリーキッチン 高田馬場店",
      "url": "https://tabelog.com/tokyo/A1305/A130503/13006165/",
      "address": "東京都新宿区西早稲田3-28-1 ミスミビル １Ｆ",
      "code": "hyakumeiten_curry_tokyo_2026_restaurant_13006165",
      "lat": "35.711548",
      "lng": "139.710391",
      "geocode_source": "geocoding_jp",
      "coordinate_level": "city",
      "normalized_address": "東京都新宿区西早稲田3-28-1 ミスミビル 1F",
      "id": "curry-159"
    },
    {
      "name": "カレーの店 ガン爺",
      "url": "https://tabelog.com/tokyo/A1308/A130802/13226045/",
      "address": "東京都港区西新橋2-13-1 2F",
      "code": "hyakumeiten_curry_tokyo_2026_restaurant_13226045",
      "lat": "35.667144",
      "lng": "139.751698",
      "geocode_source": "abr",
      "coordinate_level": "residential_block",
      "normalized_address": "東京都港区西新橋2丁目13-1 2F",
      "id": "curry-160"
    },
    {
      "name": "スープカレー カムイ",
      "url": "https://tabelog.com/tokyo/A1310/A131002/13121713/",
      "address": "東京都千代田区神田須田町2-3-24 KT須田ビル 1F",
      "code": "hyakumeiten_curry_tokyo_2026_restaurant_13121713",
      "lat": "35.695912",
      "lng": "139.771686",
      "geocode_source": "geocoding_jp",
      "coordinate_level": "city",
      "normalized_address": "東京都千代田区神田須田町二丁目3-24 KT須田ビル 1F",
      "id": "curry-161"
    },
    {
      "name": "ジャパニーズスパイスカレー カリッシュ",
      "url": "https://tabelog.com/tokyo/A1302/A130203/13020472/",
      "address": "東京都中央区新川1-9-9",
      "code": "hyakumeiten_curry_tokyo_2026_restaurant_13020472",
      "lat": "35.677379",
      "lng": "139.782673",
      "geocode_source": "abr",
      "coordinate_level": "residential_block",
      "normalized_address": "東京都中央区新川1丁目9-9",
      "id": "curry-162"
    },
    {
      "name": "きんもち",
      "url": "https://tabelog.com/tokyo/A1318/A131807/13009223/",
      "address": "東京都新宿区西新宿3-9-1 西新宿ティーオービル 1F",
      "code": "hyakumeiten_curry_tokyo_2026_restaurant_13009223",
      "lat": "35.6851",
      "lng": "139.68977",
      "geocode_source": "geocoding_jp",
      "coordinate_level": "city",
      "normalized_address": "東京都新宿区西新宿3-9-1 西新宿ティーオービル 1F",
      "id": "curry-163"
    },
    {
      "name": "けらら",
      "url": "https://tabelog.com/tokyo/A1304/A130402/13006680/",
      "address": "東京都新宿区富久町16-14 シティフラット富久町 １０２",
      "code": "hyakumeiten_curry_tokyo_2026_restaurant_13006680",
      "lat": "35.691684",
      "lng": "139.712625",
      "geocode_source": "geocoding_jp",
      "coordinate_level": "city",
      "normalized_address": "東京都新宿区富久町16-14 シティフラット富久町 102",
      "id": "curry-164"
    },
    {
      "name": "カレーショップ フェンネル",
      "url": "https://tabelog.com/tokyo/A1319/A131907/13273254/",
      "address": "東京都杉並区松庵3-37-22 西荻マノン 2F",
      "code": "hyakumeiten_curry_tokyo_2026_restaurant_13273254",
      "lat": "35.702084",
      "lng": "139.598777",
      "geocode_source": "abr",
      "coordinate_level": "residential_block",
      "normalized_address": "東京都杉並区松庵3丁目37-22 西荻マノン 2F",
      "id": "curry-165"
    },
    {
      "name": "カリカル 新橋本店",
      "url": "https://tabelog.com/tokyo/A1301/A130103/13013413/",
      "address": "東京都港区新橋2-20-15 新橋駅前ビル1号館 B1F",
      "code": "hyakumeiten_curry_tokyo_2026_restaurant_13013413",
      "lat": "35.666274",
      "lng": "139.759574",
      "geocode_source": "abr",
      "coordinate_level": "residential_block",
      "normalized_address": "東京都港区新橋2丁目20-15 新橋駅前ビル1号館 B1F",
      "id": "curry-166"
    },
    {
      "name": "ライスカレー まんてん",
      "url": "https://tabelog.com/tokyo/A1310/A131003/13000603/",
      "address": "東京都千代田区神田神保町1-54",
      "code": "hyakumeiten_curry_tokyo_2026_restaurant_13000603",
      "lat": "35.698269",
      "lng": "139.757463",
      "geocode_source": "geocoding_jp",
      "coordinate_level": "city",
      "normalized_address": "東京都千代田区神田神保町一丁目54",
      "id": "curry-167"
    },
    {
      "name": "みのりんご",
      "url": "https://tabelog.com/tokyo/A1306/A130601/13108716/",
      "address": "東京都渋谷区神宮前1-22-7 ウエストビル 1F",
      "code": "hyakumeiten_curry_tokyo_2026_restaurant_13108716",
      "lat": "35.672659",
      "lng": "139.703736",
      "geocode_source": "abr",
      "coordinate_level": "residential_block",
      "normalized_address": "東京都渋谷区神宮前1丁目22-7 ウエストビル 1F",
      "id": "curry-168"
    },
    {
      "name": "吉田カレー",
      "url": "https://tabelog.com/tokyo/A1319/A131906/13132405/",
      "address": "東京都杉並区天沼3-8-2 2Ｆ",
      "code": "hyakumeiten_curry_tokyo_2026_restaurant_13132405",
      "lat": "35.706622",
      "lng": "139.61829",
      "geocode_source": "abr",
      "coordinate_level": "residential_block",
      "normalized_address": "東京都杉並区天沼3丁目8-2 2F",
      "id": "curry-169"
    },
    {
      "name": "カレーの店 プーさん",
      "url": "https://tabelog.com/tokyo/A1325/A132501/13005962/",
      "address": "東京都小金井市前原町3-40-27",
      "code": "hyakumeiten_curry_tokyo_2026_restaurant_13005962",
      "lat": "35.697375",
      "lng": "139.505688",
      "geocode_source": "abr",
      "coordinate_level": "residential_block",
      "normalized_address": "東京都小金井市前原町3丁目40-27",
      "id": "curry-170"
    },
    {
      "name": "カレー食堂 リトルスパイス",
      "url": "https://tabelog.com/tokyo/A1320/A132001/13009943/",
      "address": "東京都武蔵野市吉祥寺本町2-14-1 山田ビル ２Ｆ",
      "code": "hyakumeiten_curry_tokyo_2026_restaurant_13009943",
      "lat": "35.706695",
      "lng": "139.577919",
      "geocode_source": "abr",
      "coordinate_level": "residential_block",
      "normalized_address": "東京都武蔵野市吉祥寺本町2丁目14-1 山田ビル 2F",
      "id": "curry-171"
    },
    {
      "name": "Cuit Bonne",
      "url": "https://tabelog.com/tokyo/A1302/A130203/13003029/",
      "address": "東京都中央区日本橋茅場町1-4-6 木村実業第２ビル B1F",
      "code": "hyakumeiten_curry_tokyo_2026_restaurant_13003029",
      "lat": "35.680452",
      "lng": "139.779974",
      "geocode_source": "abr",
      "coordinate_level": "residential_block",
      "normalized_address": "東京都中央区日本橋茅場町1丁目4-6 木村実業第2ビル B1F",
      "id": "curry-172"
    },
    {
      "name": "カレー屋ばんび",
      "url": "https://tabelog.com/tokyo/A1310/A131003/13245356/",
      "address": "東京都千代田区神田小川町3-10-17 木邑ビル 1F",
      "code": "hyakumeiten_curry_tokyo_2026_restaurant_13245356",
      "lat": "35.696374",
      "lng": "139.761259",
      "geocode_source": "geocoding_jp",
      "coordinate_level": "city",
      "normalized_address": "東京都千代田区神田小川町三丁目10-17 木邑ビル 1F",
      "id": "curry-173"
    },
    {
      "name": "ラッフルズ カリー",
      "url": "https://tabelog.com/tokyo/A1311/A131101/13033116/",
      "address": "東京都台東区台東4-29-10 第二さたけビル 1F",
      "code": "hyakumeiten_curry_tokyo_2026_restaurant_13033116",
      "lat": "35.707186",
      "lng": "139.77865",
      "geocode_source": "abr",
      "coordinate_level": "residential_block",
      "normalized_address": "東京都台東区台東4丁目29-10 第二さたけビル 1F",
      "id": "curry-174"
    },
    {
      "name": "ハブモアカレー",
      "url": "https://tabelog.com/tokyo/A1303/A130301/13254583/",
      "address": "東京都渋谷区猿楽町2-13 F93 Daikanyama 1F",
      "code": "hyakumeiten_curry_tokyo_2026_restaurant_13254583",
      "lat": "35.653221",
      "lng": "139.704776",
      "geocode_source": "abr",
      "coordinate_level": "residential_block",
      "normalized_address": "東京都渋谷区猿楽町2-13 F93 Daikanyama 1F",
      "id": "curry-175"
    },
    {
      "name": "ガンジー",
      "url": "https://tabelog.com/tokyo/A1304/A130401/13000880/",
      "address": "東京都新宿区新宿3-17-21 新三ビル 2F",
      "code": "hyakumeiten_curry_tokyo_2026_restaurant_13000880",
      "lat": "35.691908",
      "lng": "139.703518",
      "geocode_source": "geocoding_jp",
      "coordinate_level": "city",
      "normalized_address": "東京都新宿区新宿3-17-21 新三ビル 2F",
      "id": "curry-176"
    },
    {
      "name": "スマトラカレー 共栄堂",
      "url": "https://tabelog.com/tokyo/A1310/A131003/13000596/",
      "address": "東京都千代田区神田神保町1-6 神保町サンビルディング Ｂ１",
      "code": "hyakumeiten_curry_tokyo_2026_restaurant_13000596",
      "lat": "35.696202",
      "lng": "139.759358",
      "geocode_source": "geocoding_jp",
      "coordinate_level": "city",
      "normalized_address": "東京都千代田区神田神保町一丁目6 神保町サンビルディング B1",
      "id": "curry-177"
    },
    {
      "name": "札幌ドミニカ 銀座店",
      "url": "https://tabelog.com/tokyo/A1302/A130202/13025381/",
      "address": "東京都中央区京橋3-4-1 ＴＭ銀座ビル ２Ｆ",
      "code": "hyakumeiten_curry_tokyo_2026_restaurant_13025381",
      "lat": "35.675443",
      "lng": "139.768093",
      "geocode_source": "abr",
      "coordinate_level": "residential_block",
      "normalized_address": "東京都中央区京橋3丁目4-1 TM銀座ビル 2F",
      "id": "curry-178"
    },
    {
      "name": "ストーン",
      "url": "https://tabelog.com/tokyo/A1311/A131103/13031461/",
      "address": "東京都台東区浅草橋1-10-12",
      "code": "hyakumeiten_curry_tokyo_2026_restaurant_13031461",
      "lat": "35.697107",
      "lng": "139.785063",
      "geocode_source": "abr",
      "coordinate_level": "residential_block",
      "normalized_address": "東京都台東区浅草橋1丁目10-12",
      "id": "curry-179"
    },
    {
      "name": "イエローカンパニー 恵比寿本店",
      "url": "https://tabelog.com/tokyo/A1303/A130302/13014312/",
      "address": "東京都渋谷区東3-14-19 オークヒルズ １Ｆ",
      "code": "hyakumeiten_curry_tokyo_2026_restaurant_13014312",
      "lat": "35.651121",
      "lng": "139.709733",
      "geocode_source": "abr",
      "coordinate_level": "residential_block",
      "normalized_address": "東京都渋谷区東3丁目14-19 オークヒルズ 1F",
      "id": "curry-180"
    },
    {
      "name": "かれーの店 うどん",
      "url": "https://tabelog.com/tokyo/A1316/A131603/13004531/",
      "address": "東京都品川区西五反田2-31-5",
      "code": "hyakumeiten_curry_tokyo_2026_restaurant_13004531",
      "lat": "35.62494",
      "lng": "139.719483",
      "geocode_source": "abr",
      "coordinate_level": "residential_block",
      "normalized_address": "東京都品川区西五反田2丁目31-5",
      "id": "curry-181"
    },
    {
      "name": "般゜若 PANNYA CAFE CURRY",
      "url": "https://tabelog.com/tokyo/A1318/A131802/13215255/",
      "address": "東京都世田谷区北沢2-33-6 スズキビル1Ｆ",
      "code": "hyakumeiten_curry_tokyo_2026_restaurant_13215255",
      "lat": "35.663",
      "lng": "139.669279",
      "geocode_source": "abr",
      "coordinate_level": "residential_block",
      "normalized_address": "東京都世田谷区北沢2丁目33-6 スズキビル1F",
      "id": "curry-182"
    },
    {
      "name": "アッチャカーナ",
      "url": "https://tabelog.com/tokyo/A1317/A131708/13003136/",
      "address": "東京都世田谷区玉川3-17-1 玉川タカシマヤ 1F",
      "code": "hyakumeiten_curry_tokyo_2026_restaurant_13003136",
      "lat": "35.614184",
      "lng": "139.626789",
      "geocode_source": "abr",
      "coordinate_level": "residential_block",
      "normalized_address": "東京都世田谷区玉川3丁目17-1 玉川タカシマヤ 1F",
      "id": "curry-183"
    },
    {
      "name": "ガネー舎",
      "url": "https://tabelog.com/tokyo/A1301/A130103/13001507/",
      "address": "東京都港区新橋5-12-2 鴻盟社ビル Ｂ１Ｆ",
      "code": "hyakumeiten_curry_tokyo_2026_restaurant_13001507",
      "lat": "35.66302",
      "lng": "139.756632",
      "geocode_source": "abr",
      "coordinate_level": "residential_block",
      "normalized_address": "東京都港区新橋5丁目12-2 鴻盟社ビル B1F",
      "id": "curry-184"
    },
    {
      "name": "エチオピアカリーキッチン 御茶ノ水ソラシティ店",
      "url": "https://tabelog.com/tokyo/A1310/A131002/13154753/",
      "address": "東京都千代田区神田駿河台4-6 御茶ノ水ソラシティ B1F",
      "code": "hyakumeiten_curry_tokyo_2026_restaurant_13154753",
      "lat": "35.698723",
      "lng": "139.766534",
      "geocode_source": "geocoding_jp",
      "coordinate_level": "city",
      "normalized_address": "東京都千代田区神田駿河台四丁目6 御茶ノ水ソラシティ B1F",
      "id": "curry-185"
    },
    {
      "name": "チキュウ マサラ",
      "url": "https://tabelog.com/tokyo/A1304/A130401/13248884/",
      "address": "東京都新宿区新宿3-11-12 永谷テイクエイト 2F",
      "code": "hyakumeiten_curry_tokyo_2026_restaurant_13248884",
      "lat": "35.69169304",
      "lng": "139.70666827",
      "geocode_source": "yahoo",
      "coordinate_level": "",
      "normalized_address": "",
      "id": "curry-186"
    },
    {
      "name": "欧風カレー ソレイユ",
      "url": "https://tabelog.com/tokyo/A1309/A130904/13164006/",
      "address": "東京都千代田区二番町11-20 グンショウ二番町ビル 1F",
      "code": "hyakumeiten_curry_tokyo_2026_restaurant_13164006",
      "lat": "35.686065",
      "lng": "139.738693",
      "geocode_source": "geocoding_jp",
      "coordinate_level": "city",
      "normalized_address": "東京都千代田区二番町11-20 グンショウ 二番町ビル 1F",
      "id": "curry-187"
    },
    {
      "name": "プネウマカレー",
      "url": "https://tabelog.com/tokyo/A1305/A130503/13210644/",
      "address": "東京都新宿区高田馬場1-17-10 ふじ荘 1F",
      "code": "hyakumeiten_curry_tokyo_2026_restaurant_13210644",
      "lat": "35.711683",
      "lng": "139.706828",
      "geocode_source": "geocoding_jp",
      "coordinate_level": "city",
      "normalized_address": "東京都新宿区高田馬場1-17-10 ふじ荘 1F",
      "id": "curry-188"
    },
    {
      "name": "東京ドミニカ",
      "url": "https://tabelog.com/tokyo/A1304/A130401/13124113/",
      "address": "東京都新宿区新宿3-31-1 第２大伸ビルB1F",
      "code": "hyakumeiten_curry_tokyo_2026_restaurant_13124113",
      "lat": "35.690521",
      "lng": "139.70437",
      "geocode_source": "geocoding_jp",
      "coordinate_level": "city",
      "normalized_address": "東京都新宿区新宿3-31-1 第2大伸ビルB1F",
      "id": "curry-189"
    },
    {
      "name": "火星カレー",
      "url": "https://tabelog.com/tokyo/A1305/A130501/13170490/",
      "address": "東京都豊島区西池袋3-27-3 S&Kビル B1F",
      "code": "hyakumeiten_curry_tokyo_2026_restaurant_13170490",
      "lat": "35.730743",
      "lng": "139.707408",
      "geocode_source": "abr",
      "coordinate_level": "residential_block",
      "normalized_address": "東京都豊島区西池袋3丁目27-3 S&Kビル B1F",
      "id": "curry-190"
    },
    {
      "name": "シターラ 青山店",
      "url": "https://tabelog.com/tokyo/A1306/A130602/13009705/",
      "address": "東京都港区南青山5-7-17 小原流会館 B1F",
      "code": "hyakumeiten_curry_tokyo_2026_restaurant_13009705",
      "lat": "35.66228259",
      "lng": "139.71279668",
      "geocode_source": "yahoo",
      "coordinate_level": "",
      "normalized_address": "",
      "id": "curry-191"
    },
    {
      "name": "東京らっきょブラザーズ",
      "url": "https://tabelog.com/tokyo/A1305/A130504/13040401/",
      "address": "東京都新宿区馬場下町61-9 山口ビル １Ｆ",
      "code": "hyakumeiten_curry_tokyo_2026_restaurant_13040401",
      "lat": "35.706227",
      "lng": "139.720302",
      "geocode_source": "geocoding_jp",
      "coordinate_level": "city",
      "normalized_address": "東京都新宿区馬場下町61-9 山口ビル 1F",
      "id": "curry-192"
    },
    {
      "name": "タイカリーピキヌー",
      "url": "https://tabelog.com/tokyo/A1317/A131707/13001446/",
      "address": "東京都世田谷区駒沢1-4-10 サエキビル １Ｆ",
      "code": "hyakumeiten_curry_tokyo_2026_restaurant_13001446",
      "lat": "35.632512",
      "lng": "139.661001",
      "geocode_source": "abr",
      "coordinate_level": "residential_block",
      "normalized_address": "東京都世田谷区駒沢1丁目4-10 サエキビル 1F",
      "id": "curry-193"
    },
    {
      "name": "東新宿 サンラサー",
      "url": "https://tabelog.com/tokyo/A1304/A130401/13215551/",
      "address": "東京都新宿区新宿6-27-17 カノープス新宿 3Ｆ",
      "code": "hyakumeiten_curry_tokyo_2026_restaurant_13215551",
      "lat": "35.695056",
      "lng": "139.707486",
      "geocode_source": "geocoding_jp",
      "coordinate_level": "city",
      "normalized_address": "東京都新宿区新宿6-27-17 カノープス新宿 3F",
      "id": "curry-194"
    },
    {
      "name": "BLAKES for JOURNEY",
      "url": "https://tabelog.com/tokyo/A1306/A130601/13195491/",
      "address": "東京都渋谷区神宮前2-20-13 神宮前TNビル 2F",
      "code": "hyakumeiten_curry_tokyo_2026_restaurant_13195491",
      "lat": "35.67449511",
      "lng": "139.71129353",
      "geocode_source": "yahoo",
      "coordinate_level": "",
      "normalized_address": "",
      "id": "curry-195"
    },
    {
      "name": "FISH 丸の内店",
      "url": "https://tabelog.com/tokyo/A1302/A130201/13248971/",
      "address": "東京都千代田区丸の内1-6-4 丸の内オアゾ B1F",
      "code": "hyakumeiten_curry_tokyo_2026_restaurant_13248971",
      "lat": "35.683708",
      "lng": "139.766266",
      "geocode_source": "gsi",
      "coordinate_level": "",
      "normalized_address": "東京都千代田区丸の内一丁目６番",
      "id": "curry-196"
    },
    {
      "name": "SPICECURRY KERAKU",
      "url": "https://tabelog.com/tokyo/A1316/A131601/13247708/",
      "address": "東京都品川区上大崎3-3-1 坂上ビル B1F",
      "code": "hyakumeiten_curry_tokyo_2026_restaurant_13247708",
      "lat": "35.63379701",
      "lng": "139.71776114",
      "geocode_source": "yahoo",
      "coordinate_level": "",
      "normalized_address": "",
      "id": "curry-197"
    },
    {
      "name": "SPICE CURRY アルクロード 飯田橋店",
      "url": "https://tabelog.com/tokyo/A1309/A130905/13264466/",
      "address": "東京都千代田区飯田橋4-8-11 上等カレー飯田橋店 2F",
      "code": "hyakumeiten_curry_tokyo_2026_restaurant_13264466",
      "lat": "35.70155127",
      "lng": "139.7458644",
      "geocode_source": "yahoo",
      "coordinate_level": "",
      "normalized_address": "",
      "id": "curry-198"
    },
    {
      "name": "ホットスプーン 西新宿店",
      "url": "https://tabelog.com/tokyo/A1304/A130401/13198942/",
      "address": "東京都新宿区西新宿1-12-7 阿部ビル 2F",
      "code": "hyakumeiten_curry_tokyo_2026_restaurant_13198942",
      "lat": "35.68952639",
      "lng": "139.69713865",
      "geocode_source": "yahoo",
      "coordinate_level": "",
      "normalized_address": "",
      "id": "curry-199"
    },
    {
      "name": "橋本屋",
      "url": "https://tabelog.com/osaka/A2701/A270201/27107555/",
      "address": "大阪府大阪市中央区南船場2-2-21",
      "code": "hyakumeiten_curry_west_2026_restaurant_27107555",
      "lat": "34.67734759",
      "lng": "135.50547643",
      "geocode_source": "yahoo",
      "coordinate_level": "",
      "normalized_address": "",
      "id": "curry-200"
    },
    {
      "name": "Ghar",
      "url": "https://tabelog.com/osaka/A2701/A270102/27066220/",
      "address": "大阪府大阪市西区京町堀1-9-10-103",
      "code": "hyakumeiten_curry_west_2026_restaurant_27066220",
      "lat": "34.6873",
      "lng": "135.495491",
      "geocode_source": "geocoding_jp",
      "coordinate_level": "city",
      "normalized_address": "大阪府大阪市西区京町堀1丁目9-10-103",
      "id": "curry-201"
    },
    {
      "name": "ボタニカリー",
      "url": "https://tabelog.com/osaka/A2701/A270102/27073555/",
      "address": "大阪府大阪市中央区瓦町4-5-3 日宝西本町ビル 1F",
      "code": "hyakumeiten_curry_west_2026_restaurant_27073555",
      "lat": "34.686392",
      "lng": "135.498894",
      "geocode_source": "geocoding_jp",
      "coordinate_level": "city",
      "normalized_address": "大阪府大阪市中央区瓦町4丁目5-3 日宝西本町ビル 1F",
      "id": "curry-202"
    },
    {
      "name": "GARAM",
      "url": "https://tabelog.com/fukuoka/A4001/A400103/40032412/",
      "address": "福岡県福岡市中央区高砂1-7-4",
      "code": "hyakumeiten_curry_west_2026_restaurant_40032412",
      "lat": "33.580972",
      "lng": "130.406733",
      "geocode_source": "geocoding_jp",
      "coordinate_level": "city",
      "normalized_address": "福岡県福岡市中央区高砂1丁目7-4",
      "id": "curry-203"
    },
    {
      "name": "森林食堂",
      "url": "https://tabelog.com/kyoto/A2601/A260203/26020410/",
      "address": "京都府京都市中京区西ノ京内畑町24-4",
      "code": "hyakumeiten_curry_west_2026_restaurant_26020410",
      "lat": "35.014616",
      "lng": "135.739198",
      "geocode_source": "geocoding_jp",
      "coordinate_level": "prefecture",
      "normalized_address": "京都府京都市中京区西ノ京内畑町24-4",
      "id": "curry-204"
    },
    {
      "name": "Mカッセ",
      "url": "https://tabelog.com/osaka/A2701/A270404/27120447/",
      "address": "大阪府大阪市住吉区東粉浜3-22-9 西尾第一ビル1F",
      "code": "hyakumeiten_curry_west_2026_restaurant_27120447",
      "lat": "34.61791",
      "lng": "135.49196",
      "geocode_source": "geocoding_jp",
      "coordinate_level": "city",
      "normalized_address": "大阪府大阪市住吉区東粉浜3-22-9 西尾第一ビル1F",
      "id": "curry-205"
    },
    {
      "name": "BOTANI：CURRY 梅田店",
      "url": "https://tabelog.com/osaka/A2701/A270101/27125687/",
      "address": "大阪府大阪市北区梅田1-13-13 阪神百貨店梅田本店 9F",
      "code": "hyakumeiten_curry_west_2026_restaurant_27125687",
      "lat": "34.701126",
      "lng": "135.497877",
      "geocode_source": "geocoding_jp",
      "coordinate_level": "city",
      "normalized_address": "大阪府大阪市北区梅田1丁目13-13 阪神百貨店梅田本店 9F",
      "id": "curry-206"
    },
    {
      "name": "旧ヤム鐵道",
      "url": "https://tabelog.com/osaka/A2701/A270101/27084538/",
      "address": "大阪府大阪市北区梅田3-1-3 ルクアイーレ B2Fバルチカ",
      "code": "hyakumeiten_curry_west_2026_restaurant_27084538",
      "lat": "34.702602",
      "lng": "135.494836",
      "geocode_source": "geocoding_jp",
      "coordinate_level": "city",
      "normalized_address": "大阪府大阪市北区梅田3丁目1-3 ルクアイーレ B2Fバルチカ",
      "id": "curry-207"
    },
    {
      "name": "SAVOY",
      "url": "https://tabelog.com/hyogo/A2801/A280101/28000095/",
      "address": "兵庫県神戸市中央区三宮町1-9-1 三宮センタープラザ東館 B1F",
      "code": "hyakumeiten_curry_west_2026_restaurant_28000095",
      "lat": "34.691779",
      "lng": "135.192945",
      "geocode_source": "geocoding_jp",
      "coordinate_level": "prefecture",
      "normalized_address": "兵庫県神戸市中央区三宮町1-9-1 三宮センタープラザ東館 B1F",
      "id": "curry-208"
    },
    {
      "name": "渡邊カリー 梅田本店",
      "url": "https://tabelog.com/osaka/A2701/A270101/27091294/",
      "address": "大阪府大阪市北区曽根崎新地2-2-5 第3シンコウビル 3F",
      "code": "hyakumeiten_curry_west_2026_restaurant_27091294",
      "lat": "34.697983",
      "lng": "135.494826",
      "geocode_source": "geocoding_jp",
      "coordinate_level": "city",
      "normalized_address": "大阪府大阪市北区曽根崎新地2-2-5 第3シンコウビル 3F",
      "id": "curry-209"
    },
    {
      "name": "カンテグランデカレー サン広場店",
      "url": "https://tabelog.com/osaka/A2701/A270101/27091267/",
      "address": "大阪府大阪市北区角田町8-47 阪急サン広場 B1F",
      "code": "hyakumeiten_curry_west_2026_restaurant_27091267",
      "lat": "34.703873",
      "lng": "135.49864",
      "geocode_source": "geocoding_jp",
      "coordinate_level": "city",
      "normalized_address": "大阪府大阪市北区角田町8-47 阪急サン広場 B1F",
      "id": "curry-210"
    },
    {
      "name": "虹の仏",
      "url": "https://tabelog.com/osaka/A2701/A270203/27066977/",
      "address": "大阪府大阪市天王寺区四天王寺1-12-23",
      "code": "hyakumeiten_curry_west_2026_restaurant_27066977",
      "lat": "34.656242",
      "lng": "135.514083",
      "geocode_source": "geocoding_jp",
      "coordinate_level": "city",
      "normalized_address": "大阪府大阪市天王寺区四天王寺1丁目12-23",
      "id": "curry-211"
    },
    {
      "name": "カシミール",
      "url": "https://tabelog.com/osaka/A2701/A270102/27003694/",
      "address": "大阪府大阪市中央区東高麗橋6-2",
      "code": "hyakumeiten_curry_west_2026_restaurant_27003694",
      "lat": "34.689536",
      "lng": "135.510042",
      "geocode_source": "geocoding_jp",
      "coordinate_level": "city",
      "normalized_address": "大阪府大阪市中央区東高麗橋6-2",
      "id": "curry-212"
    },
    {
      "name": "シナジー",
      "url": "https://tabelog.com/osaka/A2701/A270101/27074379/",
      "address": "大阪府大阪市北区堂島1丁目5-35 堂島レジャービル 2F",
      "code": "hyakumeiten_curry_west_2026_restaurant_27074379",
      "lat": "34.696281",
      "lng": "135.496894",
      "geocode_source": "geocoding_jp",
      "coordinate_level": "city",
      "normalized_address": "大阪府大阪市北区堂島1丁目5-35 堂島レジャービル 2F",
      "id": "curry-213"
    },
    {
      "name": "旧ヤム邸 空堀店",
      "url": "https://tabelog.com/osaka/A2701/A270204/27060944/",
      "address": "大阪府大阪市中央区谷町6-4-23",
      "code": "hyakumeiten_curry_west_2026_restaurant_27060944",
      "lat": "34.673642",
      "lng": "135.515211",
      "geocode_source": "geocoding_jp",
      "coordinate_level": "city",
      "normalized_address": "大阪府大阪市中央区谷町6丁目4-23",
      "id": "curry-214"
    },
    {
      "name": "白銀亭",
      "url": "https://tabelog.com/osaka/A2701/A270106/27012545/",
      "address": "大阪府大阪市中央区淡路町4-4-12 ダイドーメゾン大阪御堂筋 １Ｆ",
      "code": "hyakumeiten_curry_west_2026_restaurant_27012545",
      "lat": "34.686942",
      "lng": "135.499398",
      "geocode_source": "geocoding_jp",
      "coordinate_level": "city",
      "normalized_address": "大阪府大阪市中央区淡路町4丁目4-12 ダイドーメゾン大阪御堂筋 1F",
      "id": "curry-215"
    },
    {
      "name": "スパイスカリー 大陸",
      "url": "https://tabelog.com/osaka/A2701/A270108/27093666/",
      "address": "大阪府大阪市福島区福島2-9-23",
      "code": "hyakumeiten_curry_west_2026_restaurant_27093666",
      "lat": "34.694653",
      "lng": "135.486495",
      "geocode_source": "geocoding_jp",
      "coordinate_level": "city",
      "normalized_address": "大阪府大阪市福島区福島2丁目9-23",
      "id": "curry-216"
    },
    {
      "name": "コロンビア エイト 北浜本店",
      "url": "https://tabelog.com/osaka/A2701/A270102/27015618/",
      "address": "大阪府大阪市中央区道修町1-3-3 エビス道修町ビル２Ｆ",
      "code": "hyakumeiten_curry_west_2026_restaurant_27015618",
      "lat": "34.688209",
      "lng": "135.508615",
      "geocode_source": "geocoding_jp",
      "coordinate_level": "city",
      "normalized_address": "大阪府大阪市中央区道修町1丁目3-3 エビス道修町ビル2F",
      "id": "curry-217"
    },
    {
      "name": "ガネーシュ N",
      "url": "https://tabelog.com/osaka/A2701/A270103/27065938/",
      "address": "大阪府大阪市北区天神橋1-10-18",
      "code": "hyakumeiten_curry_west_2026_restaurant_27065938",
      "lat": "34.694072",
      "lng": "135.512513",
      "geocode_source": "geocoding_jp",
      "coordinate_level": "city",
      "normalized_address": "大阪府大阪市北区天神橋1丁目10-18",
      "id": "curry-218"
    },
    {
      "name": "定食堂 金剛石",
      "url": "https://tabelog.com/osaka/A2701/A270204/27097683/",
      "address": "大阪府大阪市中央区瓦屋町1-8-25 ハイツ松屋町 1F",
      "code": "hyakumeiten_curry_west_2026_restaurant_27097683",
      "lat": "34.67283",
      "lng": "135.512355",
      "geocode_source": "geocoding_jp",
      "coordinate_level": "city",
      "normalized_address": "大阪府大阪市中央区瓦屋町1丁目8-25 ハイツ松屋町 1F",
      "id": "curry-219"
    },
    {
      "name": "百薫香辛食堂",
      "url": "https://tabelog.com/osaka/A2701/A270106/27117152/",
      "address": "大阪府大阪市中央区南本町3-5-5 プラスビル 2F",
      "code": "hyakumeiten_curry_west_2026_restaurant_27117152",
      "lat": "34.682824",
      "lng": "135.501379",
      "geocode_source": "geocoding_jp",
      "coordinate_level": "city",
      "normalized_address": "大阪府大阪市中央区南本町3丁目5-5 プラスビル 2F",
      "id": "curry-220"
    },
    {
      "name": "レベルカレー",
      "url": "https://tabelog.com/osaka/A2701/A270106/27082257/",
      "address": "大阪府大阪市中央区南本町3-3-23 インペリアル船場ビル 2F",
      "code": "hyakumeiten_curry_west_2026_restaurant_27082257",
      "lat": "34.682529",
      "lng": "135.504188",
      "geocode_source": "geocoding_jp",
      "coordinate_level": "city",
      "normalized_address": "大阪府大阪市中央区南本町3丁目3-23 インペリアル船場ビル 2F",
      "id": "curry-221"
    },
    {
      "name": "カルダモン．",
      "url": "https://tabelog.com/osaka/A2701/A270103/27004332/",
      "address": "大阪府大阪市北区天神橋6-5-3",
      "code": "hyakumeiten_curry_west_2026_restaurant_27004332",
      "lat": "34.708892",
      "lng": "135.51155",
      "geocode_source": "geocoding_jp",
      "coordinate_level": "city",
      "normalized_address": "大阪府大阪市北区天神橋6丁目5-3",
      "id": "curry-222"
    },
    {
      "name": "さぼてん食堂",
      "url": "https://tabelog.com/osaka/A2701/A270102/27080580/",
      "address": "大阪府大阪市西区江戸堀1-23-12",
      "code": "hyakumeiten_curry_west_2026_restaurant_27080580",
      "lat": "34.689485",
      "lng": "135.493989",
      "geocode_source": "geocoding_jp",
      "coordinate_level": "city",
      "normalized_address": "大阪府大阪市西区江戸堀1丁目23-12",
      "id": "curry-223"
    },
    {
      "name": "スパイスチャンバー",
      "url": "https://tabelog.com/kyoto/A2601/A260201/26015938/",
      "address": "京都府京都市下京区室町綾小路下る白楽天町502番地 福井ビル１Ｆ",
      "code": "hyakumeiten_curry_west_2026_restaurant_26015938",
      "lat": "35.00219",
      "lng": "135.758008",
      "geocode_source": "geocoding_jp",
      "coordinate_level": "prefecture",
      "normalized_address": "京都府京都市下京区室町綾小路下る白楽天町502 福井ビル1F",
      "id": "curry-224"
    },
    {
      "name": "コロンビアエイト 堺筋本町店",
      "url": "https://tabelog.com/osaka/A2701/A270106/27050088/",
      "address": "大阪府大阪市中央区南久宝寺1-9-2 南久宝寺ビル 1F",
      "code": "hyakumeiten_curry_west_2026_restaurant_27050088",
      "lat": "34.679382",
      "lng": "135.504061",
      "geocode_source": "geocoding_jp",
      "coordinate_level": "city",
      "normalized_address": "大阪府大阪市中央区南久宝寺町1丁目9-2 南久宝寺ビル 1F",
      "id": "curry-225"
    },
    {
      "name": "バンブルビー",
      "url": "https://tabelog.com/osaka/A2701/A270106/27007862/",
      "address": "大阪府大阪市西区西本町1-14-2 住吉ビル 1F",
      "code": "hyakumeiten_curry_west_2026_restaurant_27007862",
      "lat": "34.682761",
      "lng": "135.494065",
      "geocode_source": "geocoding_jp",
      "coordinate_level": "city",
      "normalized_address": "大阪府大阪市西区西本町1丁目14-2 住吉ビル 1F",
      "id": "curry-226"
    },
    {
      "name": "辛来飯",
      "url": "https://tabelog.com/osaka/A2701/A270106/27000068/",
      "address": "大阪府大阪市中央区安土町1-5-3 ループビル ２Ｆ",
      "code": "hyakumeiten_curry_west_2026_restaurant_27000068",
      "lat": "34.684474",
      "lng": "135.508363",
      "geocode_source": "geocoding_jp",
      "coordinate_level": "city",
      "normalized_address": "大阪府大阪市中央区安土町1丁目5-3 ループビル 2F",
      "id": "curry-227"
    },
    {
      "name": "創作カレー ツキノワ",
      "url": "https://tabelog.com/osaka/A2701/A270106/27092078/",
      "address": "大阪府大阪市中央区南久宝寺1-1-3 KT船場ビル 2F",
      "code": "hyakumeiten_curry_west_2026_restaurant_27092078",
      "lat": "34.67939",
      "lng": "135.510564",
      "geocode_source": "geocoding_jp",
      "coordinate_level": "city",
      "normalized_address": "大阪府大阪市中央区南久宝寺町1丁目1-3 KT船場ビル 2F",
      "id": "curry-228"
    },
    {
      "name": "ラヴィリンス",
      "url": "https://tabelog.com/osaka/A2701/A270201/27051602/",
      "address": "大阪府大阪市西区新町1-20-1",
      "code": "hyakumeiten_curry_west_2026_restaurant_27051602",
      "lat": "34.677024",
      "lng": "135.495824",
      "geocode_source": "geocoding_jp",
      "coordinate_level": "city",
      "normalized_address": "大阪府大阪市西区新町1丁目20-1",
      "id": "curry-229"
    },
    {
      "name": "スパイスカリー バビルの塔",
      "url": "https://tabelog.com/osaka/A2701/A270104/27064588/",
      "address": "大阪府大阪市中央区徳井町2-4-5 エクセル内本町ハイツ 1F",
      "code": "hyakumeiten_curry_west_2026_restaurant_27064588",
      "lat": "34.683927",
      "lng": "135.512618",
      "geocode_source": "geocoding_jp",
      "coordinate_level": "city",
      "normalized_address": "大阪府大阪市中央区徳井町2丁目4-5 エクセル内本町ハイツ 1F",
      "id": "curry-230"
    },
    {
      "name": "もりやま屋",
      "url": "https://tabelog.com/osaka/A2701/A270102/27002387/",
      "address": "大阪府大阪市北区西天満2-3-15 千都ビル １Ｆ",
      "code": "hyakumeiten_curry_west_2026_restaurant_27002387",
      "lat": "34.696036",
      "lng": "135.503006",
      "geocode_source": "geocoding_jp",
      "coordinate_level": "city",
      "normalized_address": "大阪府大阪市北区西天満2丁目3-15 千都ビル 1F",
      "id": "curry-231"
    },
    {
      "name": "モジャカレー",
      "url": "https://tabelog.com/osaka/A2701/A270301/27012792/",
      "address": "大阪府大阪市淀川区西中島5-16-1 JR新大阪駅 1F 味の小路",
      "code": "hyakumeiten_curry_west_2026_restaurant_27012792",
      "lat": "34.733291",
      "lng": "135.500046",
      "geocode_source": "geocoding_jp",
      "coordinate_level": "city",
      "normalized_address": "大阪府大阪市淀川区西中島5丁目16-1 JR新大阪駅 1F 味の小路",
      "id": "curry-232"
    },
    {
      "name": "アングル",
      "url": "https://tabelog.com/hyogo/A2803/A280304/28000142/",
      "address": "兵庫県尼崎市南塚口町2-1-2 塚口さんさんタウン２番館 １Ｆ",
      "code": "hyakumeiten_curry_west_2026_restaurant_28000142",
      "lat": "34.752264",
      "lng": "135.416244",
      "geocode_source": "geocoding_jp",
      "coordinate_level": "prefecture",
      "normalized_address": "兵庫県尼崎市南塚口町2-1-2 塚口さんさんタウン2番館 1F",
      "id": "curry-233"
    },
    {
      "name": "路地裏カレー Tiki",
      "url": "https://tabelog.com/fukuoka/A4001/A400103/40032551/",
      "address": "福岡県福岡市中央区渡辺通5-24-38",
      "code": "hyakumeiten_curry_west_2026_restaurant_40032551",
      "lat": "33.58831",
      "lng": "130.402875",
      "geocode_source": "geocoding_jp",
      "coordinate_level": "city",
      "normalized_address": "福岡県福岡市中央区渡辺通5丁目24-38",
      "id": "curry-234"
    },
    {
      "name": "辛激屋",
      "url": "https://tabelog.com/osaka/A2701/A270201/27011492/",
      "address": "大阪府大阪市中央区南船場2-5-21",
      "code": "hyakumeiten_curry_west_2026_restaurant_27011492",
      "lat": "34.675922",
      "lng": "135.504477",
      "geocode_source": "geocoding_jp",
      "coordinate_level": "city",
      "normalized_address": "大阪府大阪市中央区南船場2丁目5-21",
      "id": "curry-235"
    },