{
  "shops": [
    {
      "name": "もつ煮 太郎",
      "url": "https://tabelog.com/chiba/A1203/A120301/12001718/",
      "address": "千葉県柏市大青田706-5",
      "code": "hyakumeiten_shokudo_2026_restaurant_12001718",
      "lat": "35.90872628862662",
      "lng": "139.9393848065611",
      "geocode_source": "tabelog",
      "coordinate_level": "",
      "normalized_address": "",
      "id": "shokudo-0"
    },
    {
      "name": "田中田式海鮮食堂 魚忠",
      "url": "https://tabelog.com/fukuoka/A4001/A400103/40040601/",
      "address": "福岡県福岡市中央区今泉1-18-26",
      "code": "hyakumeiten_shokudo_2026_restaurant_40040601",
      "lat": "33.58541324706351",
      "lng": "130.3977572197819",
      "geocode_source": "tabelog",
      "coordinate_level": "",
      "normalized_address": "",
      "id": "shokudo-1"
    },
    {
      "name": "菱田屋",
      "url": "https://tabelog.com/tokyo/A1318/A131801/13010480/",
      "address": "東京都目黒区駒場1-27-12",
      "code": "hyakumeiten_shokudo_2026_restaurant_13010480",
      "lat": "35.65763585870535",
      "lng": "139.68586358420256",
      "geocode_source": "tabelog",
      "coordinate_level": "",
      "normalized_address": "",
      "id": "shokudo-2"
    },
    {
      "name": "花房",
      "url": "https://tabelog.com/shimane/A3202/A320201/32000232/",
      "address": "島根県出雲市大社町日御碕1481",
      "code": "hyakumeiten_shokudo_2026_restaurant_32000232",
      "lat": "35.43154972660156",
      "lng": "132.62901248686555",
      "geocode_source": "tabelog",
      "coordinate_level": "",
      "normalized_address": "",
      "id": "shokudo-3"
    },
    {
      "name": "市場食堂 城南店",
      "url": "https://tabelog.com/kagoshima/A4601/A460101/46000812/",
      "address": "鹿児島県鹿児島市城南町37 鹿児島市魚類市場内",
      "code": "hyakumeiten_shokudo_2026_restaurant_46000812",
      "lat": "31.58554599838742",
      "lng": "130.56656427946305",
      "geocode_source": "tabelog",
      "coordinate_level": "",
      "normalized_address": "",
      "id": "shokudo-4"
    },
    {
      "name": "活魚料理 びんび家",
      "url": "https://tabelog.com/tokushima/A3601/A360102/36000021/",
      "address": "徳島県鳴門市北灘町粟田ハシカ谷20-2",
      "code": "hyakumeiten_shokudo_2026_restaurant_36000021",
      "lat": "34.22580647797478",
      "lng": "134.53632712334945",
      "geocode_source": "tabelog",
      "coordinate_level": "",
      "normalized_address": "",
      "id": "shokudo-5"
    },
    {
      "name": "みなと食堂",
      "url": "https://tabelog.com/aomori/A0203/A020301/2000865/",
      "address": "青森県八戸市大字湊町字久保45-1",
      "code": "hyakumeiten_shokudo_2026_restaurant_2000865",
      "lat": "40.52397863539622",
      "lng": "141.52895373090345",
      "geocode_source": "tabelog",
      "coordinate_level": "",
      "normalized_address": "",
      "id": "shokudo-6"
    },
    {
      "name": "魚力",
      "url": "https://tabelog.com/tokyo/A1318/A131810/13012554/",
      "address": "東京都渋谷区神山町40-4",
      "code": "hyakumeiten_shokudo_2026_restaurant_13012554",
      "lat": "35.66477843870309",
      "lng": "139.6930201442697",
      "geocode_source": "tabelog",
      "coordinate_level": "",
      "normalized_address": "",
      "id": "shokudo-7"
    },
    {
      "name": "とんかつ小田保 場内店",
      "url": "https://tabelog.com/tokyo/A1313/A131307/13026535/",
      "address": "東京都江東区豊洲6-5-1 水産仲卸棟 3F",
      "code": "hyakumeiten_shokudo_2026_restaurant_13026535",
      "lat": "35.644679258744226",
      "lng": "139.78210604400422",
      "geocode_source": "tabelog",
      "coordinate_level": "",
      "normalized_address": "",
      "id": "shokudo-8"
    },
    {
      "name": "魚久 イートイン あじみせ 本店",
      "url": "https://tabelog.com/tokyo/A1302/A130204/13051336/",
      "address": "東京都中央区日本橋人形町1-1-20 京粕漬 魚久 本店 ２Ｆ",
      "code": "hyakumeiten_shokudo_2026_restaurant_13051336",
      "lat": "35.68442235949228",
      "lng": "139.78193564929543",
      "geocode_source": "tabelog",
      "coordinate_level": "",
      "normalized_address": "",
      "id": "shokudo-9"
    },
    {
      "name": "食堂わた",
      "url": "https://tabelog.com/tokyo/A1304/A130402/13301720/",
      "address": "東京都新宿区新宿1-19-11 クサマビル 1F",
      "code": "hyakumeiten_shokudo_2026_restaurant_13301720",
      "lat": "35.68980823508177",
      "lng": "139.71302671911104",
      "geocode_source": "tabelog",
      "coordinate_level": "",
      "normalized_address": "",
      "id": "shokudo-10"
    },
    {
      "name": "若柳食堂",
      "url": "https://tabelog.com/saga/A4101/A410101/41001919/",
      "address": "佐賀県佐賀市材木2-2-1",
      "code": "hyakumeiten_shokudo_2026_restaurant_41001919",
      "lat": "33.2518793372473",
      "lng": "130.30969315647462",
      "geocode_source": "tabelog",
      "coordinate_level": "",
      "normalized_address": "",
      "id": "shokudo-11"
    },
    {
      "name": "かつれつ四谷たけだ",
      "url": "https://tabelog.com/tokyo/A1309/A130902/13131643/",
      "address": "東京都新宿区四谷1-4-2 峯村ビル １Ｆ",
      "code": "hyakumeiten_shokudo_2026_restaurant_13131643",
      "lat": "35.68647459870088",
      "lng": "139.7293480044634",
      "geocode_source": "tabelog",
      "coordinate_level": "",
      "normalized_address": "",
      "id": "shokudo-12"
    },
    {
      "name": "食堂なまえ",
      "url": "https://tabelog.com/fukushima/A0706/A070601/7000006/",
      "address": "福島県喜多方市字永久7693-3",
      "code": "hyakumeiten_shokudo_2026_restaurant_7000006",
      "lat": "37.645802717502264",
      "lng": "139.8731472441536",
      "geocode_source": "tabelog",
      "coordinate_level": "",
      "normalized_address": "",
      "id": "shokudo-13"
    },
    {
      "name": "里の宿",
      "url": "https://tabelog.com/tokyo/A1320/A132001/13026447/",
      "address": "東京都武蔵野市吉祥寺南町1-28-5 107MAC吉祥寺コート 1F",
      "code": "hyakumeiten_shokudo_2026_restaurant_13026447",
      "lat": "35.70091143864491",
      "lng": "139.58238854471224",
      "geocode_source": "tabelog",
      "coordinate_level": "",
      "normalized_address": "",
      "id": "shokudo-14"
    },
    {
      "name": "定食 めし屋",
      "url": "https://tabelog.com/hokkaido/A0101/A010105/1009451/",
      "address": "北海道札幌市中央区北11条西22-1-26 卸売りセンター 1F",
      "code": "hyakumeiten_shokudo_2026_restaurant_1009451",
      "lat": "43.070496054517804",
      "lng": "141.32032577793362",
      "geocode_source": "tabelog",
      "coordinate_level": "",
      "normalized_address": "",
      "id": "shokudo-15"
    },
    {
      "name": "永井食堂",
      "url": "https://tabelog.com/gunma/A1004/A100401/10000040/",
      "address": "群馬県渋川市上白井4477-1",
      "code": "hyakumeiten_shokudo_2026_restaurant_10000040",
      "lat": "36.565162597922445",
      "lng": "139.037393543824",
      "geocode_source": "tabelog",
      "coordinate_level": "",
      "normalized_address": "",
      "id": "shokudo-16"
    },
    {
      "name": "炭焼き かどた/お料理すゞ㐂",
      "url": "https://tabelog.com/tokyo/A1303/A130302/13016622/",
      "address": "東京都渋谷区恵比寿西1-1-2 しんみつビル B1F",
      "code": "hyakumeiten_shokudo_2026_restaurant_13016622",
      "lat": "35.64791823791358",
      "lng": "139.70920648292628",
      "geocode_source": "tabelog",
      "coordinate_level": "",
      "normalized_address": "",
      "id": "shokudo-17"
    },
    {
      "name": "かつお食堂",
      "url": "https://tabelog.com/tokyo/A1303/A130301/13237611/",
      "address": "東京都渋谷区鶯谷町7-12 GranDuo渋谷 B1F",
      "code": "hyakumeiten_shokudo_2026_restaurant_13237611",
      "lat": "35.65411976871276",
      "lng": "139.70211195415567",
      "geocode_source": "tabelog",
      "coordinate_level": "",
      "normalized_address": "",
      "id": "shokudo-18"
    },
    {
      "name": "鈴波 エスカ店",
      "url": "https://tabelog.com/aichi/A2301/A230101/23006114/",
      "address": "愛知県名古屋市中村区椿町6-9 エスカ地下街",
      "code": "hyakumeiten_shokudo_2026_restaurant_23006114",
      "lat": "35.16972284015466",
      "lng": "136.8803433794935",
      "geocode_source": "tabelog",
      "coordinate_level": "",
      "normalized_address": "",
      "id": "shokudo-19"
    },
    {
      "name": "一富士食堂",
      "url": "https://tabelog.com/osaka/A2701/A270103/27031421/",
      "address": "大阪府大阪市北区天満2-13-16",
      "code": "hyakumeiten_shokudo_2026_restaurant_27031421",
      "lat": "34.69574733798884",
      "lng": "135.51769870740839",
      "geocode_source": "tabelog",
      "coordinate_level": "",
      "normalized_address": "",
      "id": "shokudo-20"
    },
    {
      "name": "鳥喜多 本店",
      "url": "https://tabelog.com/shiga/A2504/A250402/25000047/",
      "address": "滋賀県長浜市元浜町8-26",
      "code": "hyakumeiten_shokudo_2026_restaurant_25000047",
      "lat": "35.379671557793124",
      "lng": "136.26708409379134",
      "geocode_source": "tabelog",
      "coordinate_level": "",
      "normalized_address": "",
      "id": "shokudo-21"
    },
    {
      "name": "美味なかよし",
      "url": "https://tabelog.com/oita/A4401/A440101/44003656/",
      "address": "大分県大分市東春日町10-1",
      "code": "hyakumeiten_shokudo_2026_restaurant_44003656",
      "lat": "33.2407428976652",
      "lng": "131.59971538545787",
      "geocode_source": "tabelog",
      "coordinate_level": "",
      "normalized_address": "",
      "id": "shokudo-22"
    },
    {
      "name": "あじフライ食堂かば",
      "url": "https://tabelog.com/fukuoka/A4001/A400202/40057140/",
      "address": "福岡県福岡市城南区別府2-21-5",
      "code": "hyakumeiten_shokudo_2026_restaurant_40057140",
      "lat": "33.57345932706196",
      "lng": "130.36907087968126",
      "geocode_source": "tabelog",
      "coordinate_level": "",
      "normalized_address": "",
      "id": "shokudo-23"
    },
    {
      "name": "巣鴨ときわ食堂 本店",
      "url": "https://tabelog.com/tokyo/A1322/A132201/13012336/",
      "address": "東京都豊島区巣鴨3-14-20",
      "code": "hyakumeiten_shokudo_2026_restaurant_13012336",
      "lat": "35.73616983786547",
      "lng": "139.73410168380028",
      "geocode_source": "tabelog",
      "coordinate_level": "",
      "normalized_address": "",
      "id": "shokudo-24"
    },
    {
      "name": "いまきん食堂",
      "url": "https://tabelog.com/kumamoto/A4302/A430201/43004788/",
      "address": "熊本県阿蘇市内牧366-2",
      "code": "hyakumeiten_shokudo_2026_restaurant_43004788",
      "lat": "32.974935011442824",
      "lng": "131.03920314873105",
      "geocode_source": "tabelog",
      "coordinate_level": "",
      "normalized_address": "",
      "id": "shokudo-25"
    },
    {
      "name": "さばめしの鯖匠",
      "url": "https://tabelog.com/tokyo/A1310/A131003/13265562/",
      "address": "東京都千代田区神田三崎町2-21-11 ゑびすビル 1F",
      "code": "hyakumeiten_shokudo_2026_restaurant_13265562",
      "lat": "35.70141504869914",
      "lng": "139.75368351459724",
      "geocode_source": "tabelog",
      "coordinate_level": "",
      "normalized_address": "",
      "id": "shokudo-26"
    },
    {
      "name": "さすけ食堂",
      "url": "https://tabelog.com/chiba/A1206/A120603/12014064/",
      "address": "千葉県富津市金谷2193-5",
      "code": "hyakumeiten_shokudo_2026_restaurant_12014064",
      "lat": "35.16735603905983",
      "lng": "139.8212010891554",
      "geocode_source": "tabelog",
      "coordinate_level": "",
      "normalized_address": "",
      "id": "shokudo-27"
    },
    {
      "name": "直ちゃん",
      "url": "https://tabelog.com/miyazaki/A4505/A450501/45000063/",
      "address": "宮崎県延岡市栄町9-3",
      "code": "hyakumeiten_shokudo_2026_restaurant_45000063",
      "lat": "32.58914025810163",
      "lng": "131.67064045882637",
      "geocode_source": "tabelog",
      "coordinate_level": "",
      "normalized_address": "",
      "id": "shokudo-28"
    },
    {
      "name": "梅山鉄平食堂 本店",
      "url": "https://tabelog.com/fukuoka/A4001/A400103/40018886/",
      "address": "福岡県福岡市中央区渡辺通3-6-1",
      "code": "hyakumeiten_shokudo_2026_restaurant_40018886",
      "lat": "33.585564236260176",
      "lng": "130.40445326861695",
      "geocode_source": "tabelog",
      "coordinate_level": "",
      "normalized_address": "",
      "id": "shokudo-29"
    },
    {
      "name": "びっくり亭 本家 本店",
      "url": "https://tabelog.com/fukuoka/A4001/A400108/40018309/",
      "address": "福岡県福岡市博多区寿町2-8-12",
      "code": "hyakumeiten_shokudo_2026_restaurant_40018309",
      "lat": "33.54290605711033",
      "lng": "130.46000008930892",
      "geocode_source": "tabelog",
      "coordinate_level": "",
      "normalized_address": "",
      "id": "shokudo-30"
    },
    {
      "name": "朝日屋",
      "url": "https://tabelog.com/gifu/A2101/A210104/21008822/",
      "address": "岐阜県大垣市東長町40",
      "code": "hyakumeiten_shokudo_2026_restaurant_21008822",
      "lat": "35.36095056791799",
      "lng": "136.62184950335356",
      "geocode_source": "tabelog",
      "coordinate_level": "",
      "normalized_address": "",
      "id": "shokudo-31"
    },
    {
      "name": "季節料理 いし井",
      "url": "https://tabelog.com/tokyo/A1302/A130202/13011465/",
      "address": "東京都中央区日本橋2-2-15 B1F",
      "code": "hyakumeiten_shokudo_2026_restaurant_13011465",
      "lat": "35.681881581841466",
      "lng": "139.77248859565583",
      "geocode_source": "tabelog",
      "coordinate_level": "",
      "normalized_address": "",
      "id": "shokudo-32"
    },
    {
      "name": "食堂 煮魚少年",
      "url": "https://tabelog.com/fukuoka/A4001/A400101/40048045/",
      "address": "福岡県福岡市博多区住吉2-6-32 リファレンス住吉 1-A",
      "code": "hyakumeiten_shokudo_2026_restaurant_40048045",
      "lat": "33.58717493626166",
      "lng": "130.4123457686277",
      "geocode_source": "tabelog",
      "coordinate_level": "",
      "normalized_address": "",
      "id": "shokudo-33"
    },
    {
      "name": "まるやま食堂",
      "url": "https://tabelog.com/tokyo/A1315/A131503/13119166/",
      "address": "東京都大田区蒲田5-2-7 渡辺ビル 1F",
      "code": "hyakumeiten_shokudo_2026_restaurant_13119166",
      "lat": "35.56395494611907",
      "lng": "139.7171301890327",
      "geocode_source": "tabelog",
      "coordinate_level": "",
      "normalized_address": "",
      "id": "shokudo-34"
    },
    {
      "name": "スワチカ",
      "url": "https://tabelog.com/tokyo/A1316/A131603/13014630/",
      "address": "東京都品川区西五反田1-27-6",
      "code": "hyakumeiten_shokudo_2026_restaurant_13014630",
      "lat": "35.624434748738246",
      "lng": "139.7229528438412",
      "geocode_source": "tabelog",
      "coordinate_level": "",
      "normalized_address": "",
      "id": "shokudo-35"
    },
    {
      "name": "民宿 青塚食堂",
      "url": "https://tabelog.com/hokkaido/A0106/A010601/1001467/",
      "address": "北海道小樽市祝津3-210",
      "code": "hyakumeiten_shokudo_2026_restaurant_1001467",
      "lat": "43.23650806431512",
      "lng": "141.01495577982456",
      "geocode_source": "tabelog",
      "coordinate_level": "",
      "normalized_address": "",
      "id": "shokudo-36"
    },
    {
      "name": "とんかつ ひろ喜 徳庵本店",
      "url": "https://tabelog.com/osaka/A2707/A270703/27043187/",
      "address": "大阪府東大阪市稲田本町3-20-11",
      "code": "hyakumeiten_shokudo_2026_restaurant_27043187",
      "lat": "34.68797825801412",
      "lng": "135.5815871372851",
      "geocode_source": "tabelog",
      "coordinate_level": "",
      "normalized_address": "",
      "id": "shokudo-37"
    },
    {
      "name": "国八食堂",
      "url": "https://tabelog.com/gifu/A2104/A210401/21001354/",
      "address": "岐阜県高山市下切町1441-3",
      "code": "hyakumeiten_shokudo_2026_restaurant_21001354",
      "lat": "36.187226287594655",
      "lng": "137.2544030212563",
      "geocode_source": "tabelog",
      "coordinate_level": "",
      "normalized_address": "",
      "id": "shokudo-38"
    },
    {
      "name": "しゃけ小島 本店",
      "url": "https://tabelog.com/tokyo/A1318/A131808/13095793/",
      "address": "東京都杉並区和泉1-3-15 めんそーれ大都市場内",
      "code": "hyakumeiten_shokudo_2026_restaurant_13095793",
      "lat": "35.67270727868695",
      "lng": "139.65813397437424",
      "geocode_source": "tabelog",
      "coordinate_level": "",
      "normalized_address": "",
      "id": "shokudo-39"
    },
    {
      "name": "シロクマ食堂",
      "url": "https://tabelog.com/hokkaido/A0106/A010601/1037103/",
      "address": "北海道小樽市色内3-6-3",
      "code": "hyakumeiten_shokudo_2026_restaurant_1037103",
      "lat": "43.20639395432914",
      "lng": "140.99892521953163",
      "geocode_source": "tabelog",
      "coordinate_level": "",
      "normalized_address": "",
      "id": "shokudo-40"
    },
    {
      "name": "こもれび食堂+",
      "url": "https://tabelog.com/saitama/A1101/A110102/11036633/",
      "address": "埼玉県さいたま市浦和区仲町2-16-15 ATビル 1F",
      "code": "hyakumeiten_shokudo_2026_restaurant_11036633",
      "lat": "35.859086937760765",
      "lng": "139.65048888510046",
      "geocode_source": "tabelog",
      "coordinate_level": "",
      "normalized_address": "",
      "id": "shokudo-41"
    },
    {
      "name": "炭火焼き魚弁当 すみさわ",
      "url": "https://tabelog.com/tokyo/A1317/A131709/13252662/",
      "address": "東京都世田谷区世田谷4-5-1",
      "code": "hyakumeiten_shokudo_2026_restaurant_13252662",
      "lat": "35.64253695870459",
      "lng": "139.65335220407286",
      "geocode_source": "tabelog",
      "coordinate_level": "",
      "normalized_address": "",
      "id": "shokudo-42"
    },
    {
      "name": "あおぞら",
      "url": "https://tabelog.com/shizuoka/A2201/A220102/22003918/",
      "address": "静岡県静岡市清水区由比今宿195-1",
      "code": "hyakumeiten_shokudo_2026_restaurant_22003918",
      "lat": "35.09721384870031",
      "lng": "138.55239987933632",
      "geocode_source": "tabelog",
      "coordinate_level": "",
      "normalized_address": "",
      "id": "shokudo-43"
    },
    {
      "name": "博多ごまさば屋",
      "url": "https://tabelog.com/fukuoka/A4001/A400104/40034751/",
      "address": "福岡県福岡市中央区舞鶴1-2-11 おがわビル 1F",
      "code": "hyakumeiten_shokudo_2026_restaurant_40034751",
      "lat": "33.590977236253096",
      "lng": "130.39303256867964",
      "geocode_source": "tabelog",
      "coordinate_level": "",
      "normalized_address": "",
      "id": "shokudo-44"
    },
    {
      "name": "割烹 三友",
      "url": "https://tabelog.com/tokyo/A1302/A130204/13048033/",
      "address": "東京都中央区日本橋人形町1-10-8",
      "code": "hyakumeiten_shokudo_2026_restaurant_13048033",
      "lat": "35.68412898871938",
      "lng": "139.78276930440225",
      "geocode_source": "tabelog",
      "coordinate_level": "",
      "normalized_address": "",
      "id": "shokudo-45"
    },
    {
      "name": "大黒",
      "url": "https://tabelog.com/osaka/A2701/A270202/27001293/",
      "address": "大阪府大阪市中央区道頓堀2-2-7",
      "code": "hyakumeiten_shokudo_2026_restaurant_27001293",
      "lat": "34.66821422800069",
      "lng": "135.49998667714266",
      "geocode_source": "tabelog",
      "coordinate_level": "",
      "normalized_address": "",
      "id": "shokudo-46"
    },
    {
      "name": "はまべ",
      "url": "https://tabelog.com/chiba/A1206/A120603/12035117/",
      "address": "千葉県富津市金谷3971",
      "code": "hyakumeiten_shokudo_2026_restaurant_12035117",
      "lat": "35.16433073825691",
      "lng": "139.82285737796192",
      "geocode_source": "tabelog",
      "coordinate_level": "",
      "normalized_address": "",
      "id": "shokudo-47"
    },
    {
      "name": "漣 伊勢店",
      "url": "https://tabelog.com/mie/A2403/A240301/24001215/",
      "address": "三重県伊勢市神久3-5-55 ホテルキャッスルイン伊勢１Ｆ",
      "code": "hyakumeiten_shokudo_2026_restaurant_24001215",
      "lat": "34.49529578849913",
      "lng": "136.7202371245407",
      "geocode_source": "tabelog",
      "coordinate_level": "",
      "normalized_address": "",
      "id": "shokudo-48"
    },
    {
      "name": "松月",
      "url": "https://tabelog.com/aichi/A2306/A230603/23066940/",
      "address": "愛知県蒲郡市形原町春日浦29-1",
      "code": "hyakumeiten_shokudo_2026_restaurant_23066940",
      "lat": "34.7998294884556",
      "lng": "137.19092838728682",
      "geocode_source": "tabelog",
      "coordinate_level": "",
      "normalized_address": "",
      "id": "shokudo-49"
    },
    {
      "name": "めんどり屋",
      "url": "https://tabelog.com/fukuoka/A4008/A400802/40013231/",
      "address": "福岡県朝倉市相窪37-2",
      "code": "hyakumeiten_shokudo_2026_restaurant_40013231",
      "lat": "33.408503827268376",
      "lng": "130.68823594779133",
      "geocode_source": "tabelog",
      "coordinate_level": "",
      "normalized_address": "",
      "id": "shokudo-50"
    },
    {
      "name": "神戸温泉 創作ダイニング蒼",
      "url": "https://tabelog.com/hyogo/A2801/A280112/28063657/",
      "address": "兵庫県神戸市北区山田町小部字妙賀11-1 有馬街道温泉すずらんの湯",
      "code": "hyakumeiten_shokudo_2026_restaurant_28063657",
      "lat": "34.73458703704515",
      "lng": "135.16086467688905",
      "geocode_source": "tabelog",
      "coordinate_level": "",
      "normalized_address": "",
      "id": "shokudo-51"
    },
    {
      "name": "旬家ばんちゃん",
      "url": "https://tabelog.com/okinawa/A4705/A470501/47012017/",
      "address": "沖縄県石垣市白保13-1",
      "code": "hyakumeiten_shokudo_2026_restaurant_47012017",
      "lat": "24.354114530967003",
      "lng": "124.24486051085024",
      "geocode_source": "tabelog",
      "coordinate_level": "",
      "normalized_address": "",
      "id": "shokudo-52"
    },
    {
      "name": "さばたろう",
      "url": "https://tabelog.com/fukuoka/A4001/A400104/40063488/",
      "address": "福岡県福岡市中央区赤坂1-5-11 アバンダント89",
      "code": "hyakumeiten_shokudo_2026_restaurant_40063488",
      "lat": "33.58644723625521",
      "lng": "130.39063626863557",
      "geocode_source": "tabelog",
      "coordinate_level": "",
      "normalized_address": "",
      "id": "shokudo-53"
    },
    {
      "name": "魚正",
      "url": "https://tabelog.com/kumamoto/A4305/A430501/43001082/",
      "address": "熊本県天草市牛深町2286-101",
      "code": "hyakumeiten_shokudo_2026_restaurant_43001082",
      "lat": "32.19386083782859",
      "lng": "130.02495800598726",
      "geocode_source": "tabelog",
      "coordinate_level": "",
      "normalized_address": "",
      "id": "shokudo-54"
    },
    {
      "name": "海峡荘",
      "url": "https://tabelog.com/aomori/A0204/A020403/2000217/",
      "address": "青森県下北郡大間町大字大間字大間平17-734",
      "code": "hyakumeiten_shokudo_2026_restaurant_2000217",
      "lat": "41.546221915356305",
      "lng": "140.91338582282228",
      "geocode_source": "tabelog",
      "coordinate_level": "",
      "normalized_address": "",
      "id": "shokudo-55"
    },
    {
      "name": "レバニラや金太郎 東京出張所",
      "url": "https://tabelog.com/tokyo/A1314/A131405/13289015/",
      "address": "東京都品川区北品川2-24-9",
      "code": "hyakumeiten_shokudo_2026_restaurant_13289015",
      "lat": "35.61794296512427",
      "lng": "139.7434802371793",
      "geocode_source": "tabelog",
      "coordinate_level": "",
      "normalized_address": "",
      "id": "shokudo-56"
    },
    {
      "name": "西村食堂",
      "url": "https://tabelog.com/mie/A2403/A240302/24000942/",
      "address": "三重県鳥羽市石鏡町336-1",
      "code": "hyakumeiten_shokudo_2026_restaurant_24000942",
      "lat": "34.446622888593176",
      "lng": "136.91849709391008",
      "geocode_source": "tabelog",
      "coordinate_level": "",
      "normalized_address": "",
      "id": "shokudo-57"
    },
    {
      "name": "かてい菜園 ささ木",
      "url": "https://tabelog.com/tokyo/A1305/A130502/13012434/",
      "address": "東京都新宿区下落合3-18-4",
      "code": "hyakumeiten_shokudo_2026_restaurant_13012434",
      "lat": "35.72279029866976",
      "lng": "139.70404201484797",
      "geocode_source": "tabelog",
      "coordinate_level": "",
      "normalized_address": "",
      "id": "shokudo-58"
    },
    {
      "name": "のぶ味",
      "url": "https://tabelog.com/gifu/A2103/A210301/21001753/",
      "address": "岐阜県多治見市小田町4-19-4",
      "code": "hyakumeiten_shokudo_2026_restaurant_21001753",
      "lat": "35.341118808092304",
      "lng": "137.12964672279728",
      "geocode_source": "tabelog",
      "coordinate_level": "",
      "normalized_address": "",
      "id": "shokudo-59"
    },
    {
      "name": "玉井屋",
      "url": "https://tabelog.com/saitama/A1105/A110605/11012295/",
      "address": "埼玉県比企郡小川町大塚178-2",
      "code": "hyakumeiten_shokudo_2026_restaurant_11012295",
      "lat": "36.05364523751154",
      "lng": "139.25593888734224",
      "geocode_source": "tabelog",
      "coordinate_level": "",
      "normalized_address": "",
      "id": "shokudo-60"
    },
    {
      "name": "銀シャリ en",
      "url": "https://tabelog.com/osaka/A2705/A270501/27134058/",
      "address": "大阪府堺市堺区戎之町東3-1-9 オクムラビル 1F",
      "code": "hyakumeiten_shokudo_2026_restaurant_27134058",
      "lat": "34.579158108050066",
      "lng": "135.47742293625893",
      "geocode_source": "tabelog",
      "coordinate_level": "",
      "normalized_address": "",
      "id": "shokudo-61"
    },
    {
      "name": "ミートピア",
      "url": "https://tabelog.com/yamagata/A0602/A060201/6000398/",
      "address": "山形県米沢市中央1-11-9",
      "code": "hyakumeiten_shokudo_2026_restaurant_6000398",
      "lat": "37.91351711740787",
      "lng": "140.11064980669133",
      "geocode_source": "tabelog",
      "coordinate_level": "",
      "normalized_address": "",
      "id": "shokudo-62"
    },
    {
      "name": "津田屋食堂",
      "url": "https://tabelog.com/fukuoka/A4004/A400401/40021892/",
      "address": "福岡県北九州市小倉北区馬借2-1-33",
      "code": "hyakumeiten_shokudo_2026_restaurant_40021892",
      "lat": "33.87892892702997",
      "lng": "130.87779940241018",
      "geocode_source": "tabelog",
      "coordinate_level": "",
      "normalized_address": "",
      "id": "shokudo-63"
    },
    {
      "name": "うに専門店 世壱屋 函館朝市店",
      "url": "https://tabelog.com/hokkaido/A0105/A010501/1073958/",
      "address": "北海道函館市若松町8-16",
      "code": "hyakumeiten_shokudo_2026_restaurant_1073958",
      "lat": "41.77231693515321",
      "lng": "140.726563245237",
      "geocode_source": "tabelog",
      "coordinate_level": "",
      "normalized_address": "",
      "id": "shokudo-64"
    },
    {
      "name": "わしょく亭",
      "url": "https://tabelog.com/kagoshima/A4601/A460101/46003295/",
      "address": "鹿児島県鹿児島市中央町25-8",
      "code": "hyakumeiten_shokudo_2026_restaurant_46003295",
      "lat": "31.581114468382708",
      "lng": "130.54293741943488",
      "geocode_source": "tabelog",
      "coordinate_level": "",
      "normalized_address": "",
      "id": "shokudo-65"
    },
    {
      "name": "野口鮮魚店",
      "url": "https://tabelog.com/tokyo/A1312/A131203/13103727/",
      "address": "東京都墨田区東駒形4-6-9 リバーハイツワコー 1F",
      "code": "hyakumeiten_shokudo_2026_restaurant_13103727",
      "lat": "35.70642493790712",
      "lng": "139.8056249834497",
      "geocode_source": "tabelog",
      "coordinate_level": "",
      "normalized_address": "",
      "id": "shokudo-66"
    },
    {
      "name": "京粕漬 魚久  銀座店",
      "url": "https://tabelog.com/tokyo/A1301/A130101/13005687/",
      "address": "東京都中央区銀座3-10-15 東銀2ビル 2F",
      "code": "hyakumeiten_shokudo_2026_restaurant_13005687",
      "lat": "35.67111936924069",
      "lng": "139.76782465592828",
      "geocode_source": "tabelog",
      "coordinate_level": "",
      "normalized_address": "",
      "id": "shokudo-67"
    },
    {
      "name": "黒川 ゆうあん亭",
      "url": "https://tabelog.com/aichi/A2301/A230110/23081865/",
      "address": "愛知県名古屋市北区清水4-15-1",
      "code": "hyakumeiten_shokudo_2026_restaurant_23081865",
      "lat": "35.193362258116956",
      "lng": "136.91237525145712",
      "geocode_source": "tabelog",
      "coordinate_level": "",
      "normalized_address": "",
      "id": "shokudo-68"
    },
    {
      "name": "阿蘇",
      "url": "https://tabelog.com/okinawa/A4701/A470101/47003786/",
      "address": "沖縄県那覇市松山1-6-22",
      "code": "hyakumeiten_shokudo_2026_restaurant_47003786",
      "lat": "26.21752864007192",
      "lng": "127.6793677961032",
      "geocode_source": "tabelog",
      "coordinate_level": "",
      "normalized_address": "",
      "id": "shokudo-69"
    },
    {
      "name": "食事処 たらふく",
      "url": "https://tabelog.com/saitama/A1101/A110101/11046666/",
      "address": "埼玉県さいたま市中央区桜丘2-3-6",
      "code": "hyakumeiten_shokudo_2026_restaurant_11046666",
      "lat": "35.880383658541376",
      "lng": "139.61521768650204",
      "geocode_source": "tabelog",
      "coordinate_level": "",
      "normalized_address": "",
      "id": "shokudo-70"
    },
    {
      "name": "HAKKO食堂",
      "url": "https://tabelog.com/fukuoka/A4001/A400105/40050325/",
      "address": "福岡県福岡市中央区大手門3-2-26",
      "code": "hyakumeiten_shokudo_2026_restaurant_40050325",
      "lat": "33.59019878705528",
      "lng": "130.3814779098417",
      "geocode_source": "tabelog",
      "coordinate_level": "",
      "normalized_address": "",
      "id": "shokudo-71"
    },
    {
      "name": "キセキ食堂 上尾店",
      "url": "https://tabelog.com/saitama/A1104/A110401/11043868/",
      "address": "埼玉県上尾市本町3-11-13",
      "code": "hyakumeiten_shokudo_2026_restaurant_11043868",
      "lat": "35.97892906847208",
      "lng": "139.59414335751225",
      "geocode_source": "tabelog",
      "coordinate_level": "",
      "normalized_address": "",
      "id": "shokudo-72"
    },
    {
      "name": "糸満漁民食堂",
      "url": "https://tabelog.com/okinawa/A4704/A470402/47012172/",
      "address": "沖縄県糸満市西崎町4-17",
      "code": "hyakumeiten_shokudo_2026_restaurant_47012172",
      "lat": "26.139306630920775",
      "lng": "127.65992178648848",
      "geocode_source": "tabelog",
      "coordinate_level": "",
      "normalized_address": "",
      "id": "shokudo-73"
    },
    {
      "name": "新潟本町 鈴木鮮魚",
      "url": "https://tabelog.com/niigata/A1501/A150101/15011022/",
      "address": "新潟県新潟市中央区本町通6番町1114",
      "code": "hyakumeiten_shokudo_2026_restaurant_15011022",
      "lat": "37.920177337064665",
      "lng": "139.04625576750468",
      "geocode_source": "tabelog",
      "coordinate_level": "",
      "normalized_address": "",
      "id": "shokudo-74"
    },
    {
      "name": "フーナ",
      "url": "https://tabelog.com/osaka/A2701/A270103/27128238/",
      "address": "大阪府大阪市北区浪花町5-14",
      "code": "hyakumeiten_shokudo_2026_restaurant_27128238",
      "lat": "34.7078818279789",
      "lng": "135.51068682753586",
      "geocode_source": "tabelog",
      "coordinate_level": "",
      "normalized_address": "",
      "id": "shokudo-75"
    },
    {
      "name": "久六",
      "url": "https://tabelog.com/chiba/A1205/A120501/12000082/",
      "address": "千葉県銚子市新生町1-36-49",
      "code": "hyakumeiten_shokudo_2026_restaurant_12000082",
      "lat": "35.733780019023996",
      "lng": "140.8382961641639",
      "geocode_source": "tabelog",
      "coordinate_level": "",
      "normalized_address": "",
      "id": "shokudo-76"
    },
    {
      "name": "とん汁と玄米の店 檍食堂",
      "url": "https://tabelog.com/tokyo/A1315/A131503/13276433/",
      "address": "東京都大田区蒲田4-7-6",
      "code": "hyakumeiten_shokudo_2026_restaurant_13276433",
      "lat": "35.561621437972846",
      "lng": "139.7231898820448",
      "geocode_source": "tabelog",
      "coordinate_level": "",
      "normalized_address": "",
      "id": "shokudo-77"
    },
    {
      "name": "西京焼き 京都やま六",
      "url": "https://tabelog.com/kyoto/A2601/A260101/26039724/",
      "address": "京都府京都市下京区烏丸通塩小路下ル東塩小路町 ジェイアール京都伊勢丹 B1F",
      "code": "hyakumeiten_shokudo_2026_restaurant_26039724",
      "lat": "34.98621126788104",
      "lng": "135.75846892017356",
      "geocode_source": "tabelog",
      "coordinate_level": "",
      "normalized_address": "",
      "id": "shokudo-78"
    },
    {
      "name": "海鮮食堂 さばや",
      "url": "https://tabelog.com/niigata/A1501/A150101/15020489/",
      "address": "新潟県新潟市江南区北山188",
      "code": "hyakumeiten_shokudo_2026_restaurant_15020489",
      "lat": "37.875425827115535",
      "lng": "139.11675031700324",
      "geocode_source": "tabelog",
      "coordinate_level": "",
      "normalized_address": "",
      "id": "shokudo-79"
    },
    {
      "name": "食堂オーツカ",
      "url": "https://tabelog.com/chiba/A1202/A120202/12059567/",
      "address": "千葉県市川市福栄1-3-21",
      "code": "hyakumeiten_shokudo_2026_restaurant_12059567",
      "lat": "35.67836189876334",
      "lng": "139.9093215842553",
      "geocode_source": "tabelog",
      "coordinate_level": "",
      "normalized_address": "",
      "id": "shokudo-80"
    },
    {
      "name": "濱田商店",
      "url": "https://tabelog.com/hokkaido/A0112/A011204/1030424/",
      "address": "北海道目梨郡羅臼町礼文町365-1",
      "code": "hyakumeiten_shokudo_2026_restaurant_1030424",
      "lat": "44.005394655153005",
      "lng": "145.1793514146719",
      "geocode_source": "tabelog",
      "coordinate_level": "",
      "normalized_address": "",
      "id": "shokudo-81"
    },
    {
      "name": "呑喜屋むね",
      "url": "https://tabelog.com/kyoto/A2601/A260202/26016501/",
      "address": "京都府京都市中京区堺町通夷川上る絹屋町127-5",
      "code": "hyakumeiten_shokudo_2026_restaurant_26016501",
      "lat": "35.015201447864214",
      "lng": "135.7634510604629",
      "geocode_source": "tabelog",
      "coordinate_level": "",
      "normalized_address": "",
      "id": "shokudo-82"
    },
    {
      "name": "炭火焼き魚と、土鍋炊きごはん。定食屋 おちゃわん",
      "url": "https://tabelog.com/kagoshima/A4601/A460101/46018052/",
      "address": "鹿児島県鹿児島市東千石町1-32 レム鹿児島",
      "code": "hyakumeiten_shokudo_2026_restaurant_46018052",
      "lat": "31.590041438380318",
      "lng": "130.55322064951784",
      "geocode_source": "tabelog",
      "coordinate_level": "",
      "normalized_address": "",
      "id": "shokudo-83"
    },
    {
      "name": "たけおごはん",
      "url": "https://tabelog.com/chiba/A1205/A120502/12029079/",
      "address": "千葉県匝瑳市生尾114-2",
      "code": "hyakumeiten_shokudo_2026_restaurant_12029079",
      "lat": "35.70792734894664",
      "lng": "140.54382413410917",
      "geocode_source": "tabelog",
      "coordinate_level": "",
      "normalized_address": "",
      "id": "shokudo-84"
    },
    {
      "name": "富屋",
      "url": "https://tabelog.com/ehime/A3804/A380401/38012170/",
      "address": "愛媛県宇和島市和霊元町1-3-2",
      "code": "hyakumeiten_shokudo_2026_restaurant_38012170",
      "lat": "33.22675600798211",
      "lng": "132.56692916463862",
      "geocode_source": "tabelog",
      "coordinate_level": "",
      "normalized_address": "",
      "id": "shokudo-85"
    },
    {
      "name": "とん汁 たちばな",
      "url": "https://tabelog.com/niigata/A1503/A150303/15000112/",
      "address": "新潟県妙高市栗原2-3-10",
      "code": "hyakumeiten_shokudo_2026_restaurant_15000112",
      "lat": "37.042398636566645",
      "lng": "138.26077889802716",
      "geocode_source": "tabelog",
      "coordinate_level": "",
      "normalized_address": "",
      "id": "shokudo-86"
    },
    {
      "name": "食堂ニューミサ",
      "url": "https://tabelog.com/niigata/A1503/A150301/15000005/",
      "address": "新潟県上越市中郷区稲荷山367",
      "code": "hyakumeiten_shokudo_2026_restaurant_15000005",
      "lat": "36.94490908742086",
      "lng": "138.21974401823292",
      "geocode_source": "tabelog",
      "coordinate_level": "",
      "normalized_address": "",
      "id": "shokudo-87"
    },
    {
      "name": "食事処 池田",
      "url": "https://tabelog.com/chiba/A1207/A120703/12006767/",
      "address": "千葉県鴨川市八色518-8",
      "code": "hyakumeiten_shokudo_2026_restaurant_12006767",
      "lat": "35.11823094917636",
      "lng": "140.08909371847145",
      "geocode_source": "tabelog",
      "coordinate_level": "",
      "normalized_address": "",
      "id": "shokudo-88"
    },
    {
      "name": "築地 田所食品",
      "url": "https://tabelog.com/tokyo/A1313/A131301/13220295/",
      "address": "東京都中央区築地4-9-11",
      "code": "hyakumeiten_shokudo_2026_restaurant_13220295",
      "lat": "35.66562048872697",
      "lng": "139.76969780422445",
      "geocode_source": "tabelog",
      "coordinate_level": "",
      "normalized_address": "",
      "id": "shokudo-89"
    },
    {
      "name": "仁亭",
      "url": "https://tabelog.com/fukushima/A0702/A070201/7000028/",
      "address": "福島県郡山市鶴見坦3-5-2",
      "code": "hyakumeiten_shokudo_2026_restaurant_7000028",
      "lat": "37.391462657819474",
      "lng": "140.3619734012419",
      "geocode_source": "tabelog",
      "coordinate_level": "",
      "normalized_address": "",
      "id": "shokudo-90"
    },
    {
      "name": "萩の茶屋",
      "url": "https://tabelog.com/kochi/A3903/A390301/39000589/",
      "address": "高知県土佐市宇佐町宇佐2739",
      "code": "hyakumeiten_shokudo_2026_restaurant_39000589",
      "lat": "33.44833197812473",
      "lng": "133.45666212625306",
      "geocode_source": "tabelog",
      "coordinate_level": "",
      "normalized_address": "",
      "id": "shokudo-91"
    },
    {
      "name": "鉢の木",
      "url": "https://tabelog.com/fukushima/A0701/A070101/7003932/",
      "address": "福島県福島市伏拝台田9-2",
      "code": "hyakumeiten_shokudo_2026_restaurant_7003932",
      "lat": "37.72355838763925",
      "lng": "140.45837915452879",
      "geocode_source": "tabelog",
      "coordinate_level": "",
      "normalized_address": "",
      "id": "shokudo-92"
    },
    {
      "name": "神戸北野旭屋精肉店",
      "url": "https://tabelog.com/hyogo/A2801/A280101/28069552/",
      "address": "兵庫県神戸市中央区山本通2-2-13 ルーチェ北野坂 1F",
      "code": "hyakumeiten_shokudo_2026_restaurant_28069552",
      "lat": "34.69837683788293",
      "lng": "135.1903648776644",
      "geocode_source": "tabelog",
      "coordinate_level": "",
      "normalized_address": "",
      "id": "shokudo-93"
    },
    {
      "name": "宝楽",
      "url": "https://tabelog.com/nagasaki/A4203/A420302/42003262/",
      "address": "長崎県島原市柿の木町3961-1",
      "code": "hyakumeiten_shokudo_2026_restaurant_42003262",
      "lat": "32.79294753755345",
      "lng": "130.35578040180667",
      "geocode_source": "tabelog",
      "coordinate_level": "",
      "normalized_address": "",
      "id": "shokudo-94"
    },
    {
      "name": "かっぱ",
      "url": "https://tabelog.com/okayama/A3302/A330201/33000185/",
      "address": "岡山県倉敷市阿知2-17-2",
      "code": "hyakumeiten_shokudo_2026_restaurant_33000185",
      "lat": "34.599402197493156",
      "lng": "133.76907086766093",
      "geocode_source": "tabelog",
      "coordinate_level": "",
      "normalized_address": "",
      "id": "shokudo-95"
    },
    {
      "name": "氷見 魚市場食堂",
      "url": "https://tabelog.com/toyama/A1604/A160402/16008630/",
      "address": "富山県氷見市比美町435",
      "code": "hyakumeiten_shokudo_2026_restaurant_16008630",
      "lat": "36.85958680363015",
      "lng": "136.99109998786165",
      "geocode_source": "tabelog",
      "coordinate_level": "",
      "normalized_address": "",
      "id": "shokudo-96"
    },
    {
      "name": "三福亭",
      "url": "https://tabelog.com/tokyo/A1302/A130204/13059379/",
      "address": "東京都中央区日本橋馬喰町1-4-10",
      "code": "hyakumeiten_shokudo_2026_restaurant_13059379",
      "lat": "35.69315919871321",
      "lng": "139.78140281449438",
      "geocode_source": "tabelog",
      "coordinate_level": "",
      "normalized_address": "",
      "id": "shokudo-97"
    },
    {
      "name": "中西食堂",
      "url": "https://tabelog.com/fukuoka/A4001/A400201/40000918/",
      "address": "福岡県福岡市東区志賀島583-7",
      "code": "hyakumeiten_shokudo_2026_restaurant_40000918",
      "lat": "33.6634230769873",
      "lng": "130.31406699062853",
      "geocode_source": "tabelog",
      "coordinate_level": "",
      "normalized_address": "",
      "id": "shokudo-98"
    },
    {
      "name": "みなと食堂",
      "url": "https://tabelog.com/okinawa/A4705/A470503/47025515/",
      "address": "沖縄県宮古島市平良字荷川取593-10",
      "code": "hyakumeiten_shokudo_2026_restaurant_47025515",
      "lat": "24.816612761003093",
      "lng": "125.28054592479592",
      "geocode_source": "tabelog",
      "coordinate_level": "",
      "normalized_address": "",
      "id": "shokudo-99"
    }
  ]
}
