{
  "shops": [
    {
      "name": "てんぷら ひら井",
      "url": "https://tabelog.com/fukushima/A0701/A070101/7000216/",
      "address": "福島県福島市置賜町5-13 シルクビル １Ｆ",
      "code": "hyakumeiten_tempura_2025_restaurant_7000216",
      "lat": "37.75558",
      "lng": "140.464401",
      "geocode_source": "abr",
      "coordinate_level": "residential_block",
      "normalized_address": "福島県福島市置賜町5-13 シルクビル 1F",
      "id": "tempura-0"
    },
    {
      "name": "天ぷらふく西 禅と匠",
      "url": "https://tabelog.com/kanagawa/A1401/A140103/14045692/",
      "address": "神奈川県横浜市西区みなとみらい4-6-2 みなとみらいグランドセントラルテラス 2F",
      "code": "hyakumeiten_tempura_2025_restaurant_14045692",
      "lat": "35.458625439",
      "lng": "139.629351213",
      "geocode_source": "abr",
      "coordinate_level": "parcel",
      "normalized_address": "神奈川県横浜市西区みなとみらい四丁目6-2 みなとみらいグランドセントラルテラス 2F",
      "id": "tempura-1"
    },
    {
      "name": "てんぷら 千の種",
      "url": "https://tabelog.com/okayama/A3301/A330101/33016549/",
      "address": "岡山県岡山市北区野田屋町1-10-20",
      "code": "hyakumeiten_tempura_2025_restaurant_33016549",
      "lat": "34.666684",
      "lng": "133.925676",
      "geocode_source": "geocoding_jp",
      "coordinate_level": "prefecture",
      "normalized_address": "岡山県岡山市北区野田屋町1-10-20",
      "id": "tempura-2"
    },
    {
      "name": "天ぷら 元吉",
      "url": "https://tabelog.com/tokyo/A1303/A130302/13270939/",
      "address": "東京都渋谷区恵比寿西2-8-11 グランベル恵比寿Ⅳ 3F",
      "code": "hyakumeiten_tempura_2025_restaurant_13270939",
      "lat": "35.649668",
      "lng": "139.707442",
      "geocode_source": "abr",
      "coordinate_level": "residential_block",
      "normalized_address": "東京都渋谷区恵比寿西2丁目8-11 グランベル恵比寿Ⅳ 3F",
      "id": "tempura-3"
    },
    {
      "name": "なかがわ",
      "url": "https://tabelog.com/tokyo/A1313/A131301/13002379/",
      "address": "東京都中央区築地2-14-2 築地ＮＹビル １Ｆ",
      "code": "hyakumeiten_tempura_2025_restaurant_13002379",
      "lat": "35.667488",
      "lng": "139.770804",
      "geocode_source": "abr",
      "coordinate_level": "residential_block",
      "normalized_address": "東京都中央区築地2丁目14-2 築地NYビル 1F",
      "id": "tempura-4"
    },
    {
      "name": "天婦羅処 京林泉",
      "url": "https://tabelog.com/kyoto/A2601/A260101/26000484/",
      "address": "京都府京都市下京区烏丸通塩小路下ル JR京都駅中央口 ホテルグランヴィア京都 M3F",
      "code": "hyakumeiten_tempura_2025_restaurant_26000484",
      "lat": "34.984987",
      "lng": "135.759776",
      "geocode_source": "geocoding_jp",
      "coordinate_level": "prefecture",
      "normalized_address": "京都府京都市下京区烏丸通塩小路下ル JR京都駅中央口 ホテルグランヴィア京都 M3F",
      "id": "tempura-5"
    },
    {
      "name": "CHIKAMINE",
      "url": "https://tabelog.com/tokyo/A1303/A130301/13280028/",
      "address": "東京都渋谷区渋谷3-13-7 五常ビル B1F",
      "code": "hyakumeiten_tempura_2025_restaurant_13280028",
      "lat": "35.655818153",
      "lng": "139.706286014",
      "geocode_source": "abr",
      "coordinate_level": "parcel",
      "normalized_address": "東京都渋谷区渋谷3丁目13-7 五常ビル B1F",
      "id": "tempura-6"
    },
    {
      "name": "井筒",
      "url": "https://tabelog.com/kanagawa/A1401/A140308/14000921/",
      "address": "神奈川県横浜市磯子区森1-2-1 同潤会磯子ハイツ １０４号",
      "code": "hyakumeiten_tempura_2025_restaurant_14000921",
      "lat": "35.396992",
      "lng": "139.616084",
      "geocode_source": "geocoding_jp",
      "coordinate_level": "city",
      "normalized_address": "神奈川県横浜市磯子区森1-2-1 同潤会磯子ハイツ 104",
      "id": "tempura-7"
    },
    {
      "name": "天菊",
      "url": "https://tabelog.com/fukui/A1801/A180101/18000487/",
      "address": "福井県福井市順化1丁目14-4",
      "code": "hyakumeiten_tempura_2025_restaurant_18000487",
      "lat": "36.06454",
      "lng": "136.216232",
      "geocode_source": "geocoding_jp",
      "coordinate_level": "prefecture",
      "normalized_address": "福井県福井市順化1丁目14-4",
      "id": "tempura-8"
    },
    {
      "name": "天ぷら 佐久間",
      "url": "https://tabelog.com/fukushima/A0702/A070201/7000013/",
      "address": "福島県郡山市富田東1-379",
      "code": "hyakumeiten_tempura_2025_restaurant_7000013",
      "lat": "37.417581474",
      "lng": "140.365481265",
      "geocode_source": "abr",
      "coordinate_level": "parcel",
      "normalized_address": "福島県郡山市富田東一丁目379",
      "id": "tempura-9"
    },
    {
      "name": "天ぷら 桜人",
      "url": "https://tabelog.com/hyogo/A2803/A280302/28064476/",
      "address": "兵庫県芦屋市茶屋之町10-9 アルブルクール 2F",
      "code": "hyakumeiten_tempura_2025_restaurant_28064476",
      "lat": "34.729612",
      "lng": "135.307085",
      "geocode_source": "geocoding_jp",
      "coordinate_level": "prefecture",
      "normalized_address": "兵庫県芦屋市茶屋之町10-9 アルブルクール 2F",
      "id": "tempura-10"
    },
    {
      "name": "天ぷら たなか",
      "url": "https://tabelog.com/fukuoka/A4001/A400104/40057078/",
      "address": "福岡県福岡市中央区警固2-2-1 ルピエレジデンス赤坂南 1F",
      "code": "hyakumeiten_tempura_2025_restaurant_40057078",
      "lat": "33.583164",
      "lng": "130.392639",
      "geocode_source": "geocoding_jp",
      "coordinate_level": "city",
      "normalized_address": "福岡県福岡市中央区警固2丁目2-1 ルピエレジデンス赤坂南 1F",
      "id": "tempura-11"
    },
    {
      "name": "天麩羅処ひらお 本店",
      "url": "https://tabelog.com/fukuoka/A4001/A400107/40000033/",
      "address": "福岡県福岡市博多区東平尾2-4-1",
      "code": "hyakumeiten_tempura_2025_restaurant_40000033",
      "lat": "33.583866",
      "lng": "130.456562",
      "geocode_source": "geocoding_jp",
      "coordinate_level": "city",
      "normalized_address": "福岡県福岡市博多区東平尾2-4-1",
      "id": "tempura-12"
    },
    {
      "name": "てん茂",
      "url": "https://tabelog.com/tokyo/A1302/A130202/13000320/",
      "address": "東京都中央区日本橋本町4-1-3",
      "code": "hyakumeiten_tempura_2025_restaurant_13000320",
      "lat": "35.689178",
      "lng": "139.773927",
      "geocode_source": "abr",
      "coordinate_level": "residential_block",
      "normalized_address": "東京都中央区日本橋本町4丁目1-3",
      "id": "tempura-13"
    },
    {
      "name": "天婦羅 みやしろ",
      "url": "https://tabelog.com/tokyo/A1317/A131701/13220479/",
      "address": "東京都目黒区上目黒2-18-11",
      "code": "hyakumeiten_tempura_2025_restaurant_13220479",
      "lat": "35.641604",
      "lng": "139.697426",
      "geocode_source": "abr",
      "coordinate_level": "residential_block",
      "normalized_address": "東京都目黒区上目黒2丁目18-11",
      "id": "tempura-14"
    },
    {
      "name": "一宝 本店",
      "url": "https://tabelog.com/osaka/A2701/A270102/27000267/",
      "address": "大阪府大阪市西区江戸堀1-18-35 肥後橋ＩＰビル １Ｆ・２Ｆ",
      "code": "hyakumeiten_tempura_2025_restaurant_27000267",
      "lat": "34.690391",
      "lng": "135.494615",
      "geocode_source": "geocoding_jp",
      "coordinate_level": "city",
      "normalized_address": "大阪府大阪市西区江戸堀1丁目18-35 肥後橋IPビル 1F・2F",
      "id": "tempura-15"
    },
    {
      "name": "てんぷら 近藤",
      "url": "https://tabelog.com/tokyo/A1301/A130101/13004993/",
      "address": "東京都中央区銀座5-5-13 坂口ビル 9Ｆ",
      "code": "hyakumeiten_tempura_2025_restaurant_13004993",
      "lat": "35.671456",
      "lng": "139.763605",
      "geocode_source": "abr",
      "coordinate_level": "residential_block",
      "normalized_address": "東京都中央区銀座5丁目5-13 坂口ビル 9F",
      "id": "tempura-16"
    },
    {
      "name": "鶴八",
      "url": "https://tabelog.com/kumamoto/A4301/A430101/43006179/",
      "address": "熊本県熊本市中央区新市街1-2 フジモトビル 2F",
      "code": "hyakumeiten_tempura_2025_restaurant_43006179",
      "lat": "32.800033",
      "lng": "130.705603",
      "geocode_source": "geocoding_jp",
      "coordinate_level": "prefecture",
      "normalized_address": "熊本県熊本市中央区新市街1-2 フジモトビル 2F",
      "id": "tempura-17"
    },
    {
      "name": "天ぷら浅沼",
      "url": "https://tabelog.com/tokyo/A1302/A130202/13275655/",
      "address": "東京都中央区日本橋2-10-11 ordin日本橋ビル 6F",
      "code": "hyakumeiten_tempura_2025_restaurant_13275655",
      "lat": "35.680886",
      "lng": "139.774818",
      "geocode_source": "abr",
      "coordinate_level": "residential_block",
      "normalized_address": "東京都中央区日本橋2丁目10-11 ordin日本橋ビル 6F",
      "id": "tempura-18"
    },
    {
      "name": "天冨良 天孝",
      "url": "https://tabelog.com/fukuoka/A4001/A400104/40000141/",
      "address": "福岡県福岡市中央区薬院2-4-26 ライオンズマンション １Ｆ",
      "code": "hyakumeiten_tempura_2025_restaurant_40000141",
      "lat": "33.581048543",
      "lng": "130.397131405",
      "geocode_source": "abr",
      "coordinate_level": "parcel",
      "normalized_address": "福岡県福岡市中央区薬院2丁目4-26 ライオンズマンション 1F",
      "id": "tempura-19"
    },
    {
      "name": "天星",
      "url": "https://tabelog.com/osaka/A2701/A270103/27119037/",
      "address": "大阪府大阪市北区天神橋7-10-9",
      "code": "hyakumeiten_tempura_2025_restaurant_27119037",
      "lat": "34.713734",
      "lng": "135.511258",
      "geocode_source": "geocoding_jp",
      "coordinate_level": "city",
      "normalized_address": "大阪府大阪市北区天神橋7丁目10-9",
      "id": "tempura-20"
    },
    {
      "name": "旬天 伸",
      "url": "https://tabelog.com/osaka/A2701/A270205/27118815/",
      "address": "大阪府大阪市天王寺区上汐3-8-10 吉田ビル グレイシイコート 1F",
      "code": "hyakumeiten_tempura_2025_restaurant_27118815",
      "lat": "34.665544",
      "lng": "135.51674",
      "geocode_source": "geocoding_jp",
      "coordinate_level": "city",
      "normalized_address": "大阪府大阪市天王寺区上汐3丁目8-10 吉田ビル グレイシイコート 1F",
      "id": "tempura-21"
    },
    {
      "name": "天ぷら 蕎楽亭",
      "url": "https://tabelog.com/tokyo/A1309/A130903/13171952/",
      "address": "東京都新宿区余丁町1-14",
      "code": "hyakumeiten_tempura_2025_restaurant_13171952",
      "lat": "35.694896",
      "lng": "139.717151",
      "geocode_source": "geocoding_jp",
      "coordinate_level": "city",
      "normalized_address": "東京都新宿区余丁町1-14",
      "id": "tempura-22"
    },
    {
      "name": "お座敷 天婦良 あやめ",
      "url": "https://tabelog.com/aichi/A2301/A230105/23031296/",
      "address": "愛知県名古屋市中区橘1丁目19-10 メゾン橘 １Ｆ",
      "code": "hyakumeiten_tempura_2025_restaurant_23031296",
      "lat": "35.153904",
      "lng": "136.899574",
      "geocode_source": "abr",
      "coordinate_level": "residential_block",
      "normalized_address": "愛知県名古屋市中区橘一丁目19-10 メゾン橘 1F",
      "id": "tempura-23"
    },
    {
      "name": "なかむら",
      "url": "https://tabelog.com/shizuoka/A2203/A220301/22041228/",
      "address": "静岡県焼津市栄町2-4-8",
      "code": "hyakumeiten_tempura_2025_restaurant_22041228",
      "lat": "34.871169",
      "lng": "138.320369",
      "geocode_source": "geocoding_jp",
      "coordinate_level": "city",
      "normalized_address": "静岡県焼津市栄町2丁目4-8",
      "id": "tempura-24"
    },
    {
      "name": "天源・天ぷら専門店",
      "url": "https://tabelog.com/aichi/A2306/A230601/23026087/",
      "address": "愛知県豊橋市広小路1-42",
      "code": "hyakumeiten_tempura_2025_restaurant_23026087",
      "lat": "34.763851",
      "lng": "137.383691",
      "geocode_source": "geocoding_jp",
      "coordinate_level": "city",
      "normalized_address": "愛知県豊橋市広小路一丁目42",
      "id": "tempura-25"
    },
    {
      "name": "天ぷら　安住",
      "url": "https://tabelog.com/miyagi/A0401/A040101/4010809/",
      "address": "宮城県仙台市青葉区国分町2-12-20 都ビル 1Ｆ",
      "code": "hyakumeiten_tempura_2025_restaurant_4010809",
      "lat": "38.264649",
      "lng": "140.86852",
      "geocode_source": "abr",
      "coordinate_level": "residential_block",
      "normalized_address": "宮城県仙台市青葉区国分町2丁目12-20 都ビル 1F",
      "id": "tempura-26"
    },
    {
      "name": "てんぷら前平",
      "url": "https://tabelog.com/tokyo/A1307/A130702/13212060/",
      "address": "東京都港区麻布十番2-8-16 ISIビル 4F",
      "code": "hyakumeiten_tempura_2025_restaurant_13212060",
      "lat": "35.655537",
      "lng": "139.734318",
      "geocode_source": "abr",
      "coordinate_level": "residential_block",
      "normalized_address": "東京都港区麻布十番2丁目8-16 ISIビル 4F",
      "id": "tempura-27"
    },
    {
      "name": "天ぷらあら木",
      "url": "https://tabelog.com/hokkaido/A0101/A010103/1048079/",
      "address": "北海道札幌市中央区南7条西4 延寿堂 1F",
      "code": "hyakumeiten_tempura_2025_restaurant_1048079",
      "lat": "43.052505",
      "lng": "141.353579",
      "geocode_source": "geocoding_jp",
      "coordinate_level": "prefecture",
      "normalized_address": "北海道札幌市中央区南7条西4 延寿堂 1F",
      "id": "tempura-28"
    },
    {
      "name": "天ぷら たけうち",
      "url": "https://tabelog.com/fukuoka/A4003/A400301/40013636/",
      "address": "福岡県那珂川市今光6-64-1",
      "code": "hyakumeiten_tempura_2025_restaurant_40013636",
      "lat": "33.520434",
      "lng": "130.427099",
      "geocode_source": "geocoding_jp",
      "coordinate_level": "city",
      "normalized_address": "福岡県那珂川市今光6丁目64-1",
      "id": "tempura-29"
    },
    {
      "name": "天風楽・ブランド松葉蟹 松屋町 青天",
      "url": "https://tabelog.com/osaka/A2701/A270106/27108617/",
      "address": "大阪府大阪市中央区材木町1-1 ドエル南本町 1F",
      "code": "hyakumeiten_tempura_2025_restaurant_27108617",
      "lat": "34.68055",
      "lng": "135.511709",
      "geocode_source": "geocoding_jp",
      "coordinate_level": "city",
      "normalized_address": "大阪府大阪市中央区材木町1-1 ドエル南本町 1F",
      "id": "tempura-30"
    },
    {
      "name": "ぎをん 藤",
      "url": "https://tabelog.com/kyoto/A2601/A260301/26034159/",
      "address": "京都府京都市東山区祇園町南側570-121",
      "code": "hyakumeiten_tempura_2025_restaurant_26034159",
      "lat": "35.002305",
      "lng": "135.774639",
      "geocode_source": "geocoding_jp",
      "coordinate_level": "prefecture",
      "normalized_address": "京都府京都市東山区祇園町南側570-121",
      "id": "tempura-31"
    },
    {
      "name": "天ぷら 小泉",
      "url": "https://tabelog.com/ishikawa/A1701/A170101/17009514/",
      "address": "石川県金沢市池田町4-34",
      "code": "hyakumeiten_tempura_2025_restaurant_17009514",
      "lat": "36.557656",
      "lng": "136.653593",
      "geocode_source": "geocoding_jp",
      "coordinate_level": "prefecture",
      "normalized_address": "石川県金沢市池田町4-34",
      "id": "tempura-32"
    },
    {
      "name": "天ぷら あらたみかわ",
      "url": "https://tabelog.com/tokyo/A1308/A130802/13299995/",
      "address": "東京都港区西新橋2-15-6 2F",
      "code": "hyakumeiten_tempura_2025_restaurant_13299995",
      "lat": "35.666856",
      "lng": "139.750788",
      "geocode_source": "abr",
      "coordinate_level": "residential_block",
      "normalized_address": "東京都港区西新橋2丁目15-6 2F",
      "id": "tempura-33"
    },
    {
      "name": "旬彩天 つちや",
      "url": "https://tabelog.com/osaka/A2706/A270602/27017728/",
      "address": "大阪府吹田市豊津町41-4",
      "code": "hyakumeiten_tempura_2025_restaurant_27017728",
      "lat": "34.760521",
      "lng": "135.490918",
      "geocode_source": "geocoding_jp",
      "coordinate_level": "city",
      "normalized_address": "大阪府吹田市豊津町41-4",
      "id": "tempura-34"
    },
    {
      "name": "天麩羅処ひらお 大名店",
      "url": "https://tabelog.com/fukuoka/A4001/A400104/40046106/",
      "address": "福岡県福岡市中央区大名2-6-20",
      "code": "hyakumeiten_tempura_2025_restaurant_40046106",
      "lat": "33.58897",
      "lng": "130.394083",
      "geocode_source": "geocoding_jp",
      "coordinate_level": "city",
      "normalized_address": "福岡県福岡市中央区大名2丁目6-20",
      "id": "tempura-35"
    },
    {
      "name": "天麩羅 ひらいし",
      "url": "https://tabelog.com/osaka/A2701/A270101/27042091/",
      "address": "大阪府大阪市北区曾根崎新地1丁目9-6 菱冨ビル ３Ｆ",
      "code": "hyakumeiten_tempura_2025_restaurant_27042091",
      "lat": "34.696988",
      "lng": "135.498805",
      "geocode_source": "geocoding_jp",
      "coordinate_level": "city",
      "normalized_address": "大阪府大阪市北区曾根崎新地1丁目9-6 菱冨ビル 3F",
      "id": "tempura-36"
    },
    {
      "name": "みかわ 是山居",
      "url": "https://tabelog.com/tokyo/A1313/A131303/13090866/",
      "address": "東京都江東区福住1-3-1",
      "code": "hyakumeiten_tempura_2025_restaurant_13090866",
      "lat": "35.675505",
      "lng": "139.793099",
      "geocode_source": "geocoding_jp",
      "coordinate_level": "city",
      "normalized_address": "東京都江東区福住1-3-1",
      "id": "tempura-37"
    },
    {
      "name": "てんぷら 深町",
      "url": "https://tabelog.com/tokyo/A1302/A130202/13004105/",
      "address": "東京都中央区京橋2-5-2 A・M京橋ビル 1F",
      "code": "hyakumeiten_tempura_2025_restaurant_13004105",
      "lat": "35.67619",
      "lng": "139.770956",
      "geocode_source": "abr",
      "coordinate_level": "residential_block",
      "normalized_address": "東京都中央区京橋2丁目5-2 A・M京橋ビル 1F",
      "id": "tempura-38"
    },
    {
      "name": "天冨久",
      "url": "https://tabelog.com/tokyo/A1315/A131502/13082681/",
      "address": "東京都大田区大森北1-26-2",
      "code": "hyakumeiten_tempura_2025_restaurant_13082681",
      "lat": "35.584996",
      "lng": "139.729211",
      "geocode_source": "abr",
      "coordinate_level": "residential_block",
      "normalized_address": "東京都大田区大森北一丁目26-2",
      "id": "tempura-39"
    },
    {
      "name": "くすのき 本店",
      "url": "https://tabelog.com/tokyo/A1309/A130902/13223239/",
      "address": "東京都新宿区四谷1-9-4",
      "code": "hyakumeiten_tempura_2025_restaurant_13223239",
      "lat": "35.686074",
      "lng": "139.727987",
      "geocode_source": "geocoding_jp",
      "coordinate_level": "city",
      "normalized_address": "東京都新宿区四谷1-9-4",
      "id": "tempura-40"
    },
    {
      "name": "日本橋 蕎ノ字",
      "url": "https://tabelog.com/tokyo/A1302/A130204/13201969/",
      "address": "東京都中央区日本橋人形町2-22-11 井上ビル 1F",
      "code": "hyakumeiten_tempura_2025_restaurant_13201969",
      "lat": "35.686336",
      "lng": "139.784473",
      "geocode_source": "abr",
      "coordinate_level": "residential_block",
      "normalized_address": "東京都中央区日本橋人形町2丁目22-11 井上ビル 1F",
      "id": "tempura-41"
    },
    {
      "name": "天ぷら もっこす",
      "url": "https://tabelog.com/gunma/A1001/A100102/10000668/",
      "address": "群馬県高崎市中大類町426-7",
      "code": "hyakumeiten_tempura_2025_restaurant_10000668",
      "lat": "36.323560264",
      "lng": "139.058731556",
      "geocode_source": "abr",
      "coordinate_level": "parcel",
      "normalized_address": "群馬県高崎市中大類町426-7",
      "id": "tempura-42"
    },
    {
      "name": "天ぷら成",
      "url": "https://tabelog.com/hokkaido/A0101/A010103/1067374/",
      "address": "北海道札幌市中央区南四条西4-7 松岡ビル 1F 浪花亭",
      "code": "hyakumeiten_tempura_2025_restaurant_1067374",
      "lat": "43.055938",
      "lng": "141.35264",
      "geocode_source": "geocoding_jp",
      "coordinate_level": "prefecture",
      "normalized_address": "北海道札幌市中央区南四条西4-7 松岡ビル 1F 浪花亭",
      "id": "tempura-43"
    },
    {
      "name": "天冨良 よこ田",
      "url": "https://tabelog.com/tokyo/A1307/A130702/13001340/",
      "address": "東京都港区元麻布3-11-3 パティオ麻布十番Ⅱ 3F",
      "code": "hyakumeiten_tempura_2025_restaurant_13001340",
      "lat": "35.65676",
      "lng": "139.732822",
      "geocode_source": "abr",
      "coordinate_level": "residential_block",
      "normalized_address": "東京都港区元麻布3丁目11-3 パティオ麻布十番Ⅱ 3F",
      "id": "tempura-44"
    },
    {
      "name": "てんぷら 山の上 三越日本橋店内",
      "url": "https://tabelog.com/tokyo/A1302/A130202/13044042/",
      "address": "東京都中央区日本橋室町1-4-1 日本橋三越本店 B1F",
      "code": "hyakumeiten_tempura_2025_restaurant_13044042",
      "lat": "35.685659",
      "lng": "139.77345",
      "geocode_source": "abr",
      "coordinate_level": "residential_block",
      "normalized_address": "東京都中央区日本橋室町1丁目4-1 日本橋三越本店 B1F",
      "id": "tempura-45"
    },
    {
      "name": "登良屋",
      "url": "https://tabelog.com/kanagawa/A1401/A140104/14001494/",
      "address": "神奈川県横浜市中区吉田町2-3",
      "code": "hyakumeiten_tempura_2025_restaurant_14001494",
      "lat": "35.445283",
      "lng": "139.633269",
      "geocode_source": "geocoding_jp",
      "coordinate_level": "city",
      "normalized_address": "神奈川県横浜市中区吉田町2-3",
      "id": "tempura-46"
    },
    {
      "name": "天ぷら 松",
      "url": "https://tabelog.com/kyoto/A2601/A260403/26001461/",
      "address": "京都府京都市右京区梅津大縄場町21-26",
      "code": "hyakumeiten_tempura_2025_restaurant_26001461",
      "lat": "35.003974",
      "lng": "135.690569",
      "geocode_source": "geocoding_jp",
      "coordinate_level": "prefecture",
      "normalized_address": "京都府京都市右京区梅津大縄場町21-26",
      "id": "tempura-47"
    },
    {
      "name": "ぬま田",
      "url": "https://tabelog.com/osaka/A2701/A270101/27119864/",
      "address": "大阪府大阪市北区曽根崎新地1-10-2 北新地プレイス 7F",
      "code": "hyakumeiten_tempura_2025_restaurant_27119864",
      "lat": "34.698006",
      "lng": "135.497925",
      "geocode_source": "geocoding_jp",
      "coordinate_level": "city",
      "normalized_address": "大阪府大阪市北区曽根崎新地1-10-2 北新地プレイス 7F",
      "id": "tempura-48"
    },
    {
      "name": "てんぷら 高七",
      "url": "https://tabelog.com/tokyo/A1305/A130504/13010870/",
      "address": "東京都新宿区若松町36-27",
      "code": "hyakumeiten_tempura_2025_restaurant_13010870",
      "lat": "35.701242",
      "lng": "139.72102",
      "geocode_source": "geocoding_jp",
      "coordinate_level": "city",
      "normalized_address": "東京都新宿区若松町36-27",
      "id": "tempura-49"
    },
    {
      "name": "天ぷらnuu nuu",
      "url": "https://tabelog.com/osaka/A2701/A270103/27080127/",
      "address": "大阪府大阪市北区天神橋7-10-9",
      "code": "hyakumeiten_tempura_2025_restaurant_27080127",
      "lat": "34.713734",
      "lng": "135.511258",
      "geocode_source": "geocoding_jp",
      "coordinate_level": "city",
      "normalized_address": "大阪府大阪市北区天神橋7丁目10-9",
      "id": "tempura-50"
    },
    {
      "name": "旬彩 天ぷら 心来(しんら）",
      "url": "https://tabelog.com/aichi/A2301/A230113/23041432/",
      "address": "愛知県名古屋市中川区八田町409 杉山ハイツ1F",
      "code": "hyakumeiten_tempura_2025_restaurant_23041432",
      "lat": "35.147776",
      "lng": "136.854492",
      "geocode_source": "geocoding_jp",
      "coordinate_level": "city",
      "normalized_address": "愛知県名古屋市中川区八田町409 杉山ハイツ1F",
      "id": "tempura-51"
    },
    {
      "name": "江戸前晋作",
      "url": "https://tabelog.com/tokyo/A1302/A130204/13270572/",
      "address": "東京都中央区日本橋人形町2-10-11 KYOE PLAZA 日本橋人形町 6F",
      "code": "hyakumeiten_tempura_2025_restaurant_13270572",
      "lat": "35.685701",
      "lng": "139.784047",
      "geocode_source": "abr",
      "coordinate_level": "residential_block",
      "normalized_address": "東京都中央区日本橋人形町2丁目10-11 KYOE PLAZA 日本橋人形町 6F",
      "id": "tempura-52"
    },
    {
      "name": "天ぷら やぐち",
      "url": "https://tabelog.com/tokyo/A1302/A130204/13248312/",
      "address": "東京都中央区日本橋人形町2-9-7 大江戸アクセス2 1F",
      "code": "hyakumeiten_tempura_2025_restaurant_13248312",
      "lat": "35.68595",
      "lng": "139.783833",
      "geocode_source": "abr",
      "coordinate_level": "residential_block",
      "normalized_address": "東京都中央区日本橋人形町2丁目9-7 大江戸アクセス2 1F",
      "id": "tempura-53"
    },
    {
      "name": "天麩羅 安藤",
      "url": "https://tabelog.com/osaka/A2701/A270202/27123561/",
      "address": "大阪府大阪市中央区宗右衛門町5-2 TM-33ビル B1F",
      "code": "hyakumeiten_tempura_2025_restaurant_27123561",
      "lat": "34.670149",
      "lng": "135.504035",
      "geocode_source": "geocoding_jp",
      "coordinate_level": "city",
      "normalized_address": "大阪府大阪市中央区宗右衛門町5-2 TM-33ビル B1F",
      "id": "tempura-54"
    },
    {
      "name": "美かさ",
      "url": "https://tabelog.com/kanagawa/A1405/A140507/14000813/",
      "address": "神奈川県川崎市宮前区宮崎2-9-15",
      "code": "hyakumeiten_tempura_2025_restaurant_14000813",
      "lat": "35.587838",
      "lng": "139.590127",
      "geocode_source": "geocoding_jp",
      "coordinate_level": "city",
      "normalized_address": "神奈川県川崎市宮前区宮崎2丁目9-15",
      "id": "tempura-55"
    },
    {
      "name": "天ぷら 銀屋",
      "url": "https://tabelog.com/tokyo/A1316/A131602/13153190/",
      "address": "東京都港区白金台5-17-9 コスモ白金ヒルズ B1F",
      "code": "hyakumeiten_tempura_2025_restaurant_13153190",
      "lat": "35.637467",
      "lng": "139.723397",
      "geocode_source": "abr",
      "coordinate_level": "residential_block",
      "normalized_address": "東京都港区白金台5丁目17-9 コスモ白金ヒルズ B1F",
      "id": "tempura-56"
    },
    {
      "name": "天白",
      "url": "https://tabelog.com/chiba/A1201/A120101/12037698/",
      "address": "千葉県千葉市中央区本町2-1-21 石井ビル 1F",
      "code": "hyakumeiten_tempura_2025_restaurant_12037698",
      "lat": "35.609261872",
      "lng": "140.125201331",
      "geocode_source": "abr",
      "coordinate_level": "residential_detail",
      "normalized_address": "千葉県千葉市中央区本町2丁目1-21 石井ビル 1F",
      "id": "tempura-57"
    },
    {
      "name": "天ぷら 大坂屋 草哲",
      "url": "https://tabelog.com/osaka/A2701/A270108/27093282/",
      "address": "大阪府大阪市福島区福島6-8-2 サントビル 1F",
      "code": "hyakumeiten_tempura_2025_restaurant_27093282",
      "lat": "34.699344",
      "lng": "135.487988",
      "geocode_source": "geocoding_jp",
      "coordinate_level": "city",
      "normalized_address": "大阪府大阪市福島区福島6丁目8-2 サントビル 1F",
      "id": "tempura-58"
    },
    {
      "name": "天亭",
      "url": "https://tabelog.com/tokyo/A1301/A130103/13002621/",
      "address": "東京都中央区銀座8-6-3 新橋会館 Ｂ１Ｆ",
      "code": "hyakumeiten_tempura_2025_restaurant_13002621",
      "lat": "35.668619",
      "lng": "139.760613",
      "geocode_source": "abr",
      "coordinate_level": "residential_block",
      "normalized_address": "東京都中央区銀座8丁目6-3 新橋会館 B1F",
      "id": "tempura-59"
    },
    {
      "name": "秋田 てんぷら みかわ",
      "url": "https://tabelog.com/akita/A0501/A050101/5007142/",
      "address": "秋田県秋田市大町4-4-4",
      "code": "hyakumeiten_tempura_2025_restaurant_5007142",
      "lat": "39.715875",
      "lng": "140.113602",
      "geocode_source": "geocoding_jp",
      "coordinate_level": "city",
      "normalized_address": "秋田県秋田市大町四丁目4-4",
      "id": "tempura-60"
    },
    {
      "name": "天ぷら 車",
      "url": "https://tabelog.com/gunma/A1002/A100204/10014909/",
      "address": "群馬県館林市野辺町703-2",
      "code": "hyakumeiten_tempura_2025_restaurant_10014909",
      "lat": "36.218346",
      "lng": "139.47515",
      "geocode_source": "geocoding_jp",
      "coordinate_level": "city",
      "normalized_address": "群馬県館林市野辺町703-2",
      "id": "tempura-61"
    },
    {
      "name": "料理旅館・天ぷら吉川",
      "url": "https://tabelog.com/kyoto/A2601/A260202/26001150/",
      "address": "京都府京都市中京区富小路通御池下ル松下町135 料理旅館・天ぷら 吉川",
      "code": "hyakumeiten_tempura_2025_restaurant_26001150",
      "lat": "35.010329",
      "lng": "135.764758",
      "geocode_source": "geocoding_jp",
      "coordinate_level": "prefecture",
      "normalized_address": "京都府京都市中京区富小路通御池下ル松下町135 料理旅館・天ぷら 吉川",
      "id": "tempura-62"
    },
    {
      "name": "たきや",
      "url": "https://tabelog.com/tokyo/A1307/A130702/13185763/",
      "address": "東京都港区麻布十番2-8-6 ラベイユ麻布十番 2F",
      "code": "hyakumeiten_tempura_2025_restaurant_13185763",
      "lat": "35.655537",
      "lng": "139.734318",
      "geocode_source": "abr",
      "coordinate_level": "residential_block",
      "normalized_address": "東京都港区麻布十番2丁目8-6 ラベイユ麻布十番 2F",
      "id": "tempura-63"
    },
    {
      "name": "喜わ",
      "url": "https://tabelog.com/tokyo/A1318/A131811/13243177/",
      "address": "東京都渋谷区上原1-17-14 上原ハウス 1F",
      "code": "hyakumeiten_tempura_2025_restaurant_13243177",
      "lat": "35.669144",
      "lng": "139.682779",
      "geocode_source": "abr",
      "coordinate_level": "residential_block",
      "normalized_address": "東京都渋谷区上原1丁目17-14 上原ハウス 1F",
      "id": "tempura-64"
    },
    {
      "name": "天ぷら 川原崎",
      "url": "https://tabelog.com/osaka/A2701/A270102/27070191/",
      "address": "大阪府大阪市北区西天満3-1-5",
      "code": "hyakumeiten_tempura_2025_restaurant_27070191",
      "lat": "34.69441",
      "lng": "135.508857",
      "geocode_source": "geocoding_jp",
      "coordinate_level": "city",
      "normalized_address": "大阪府大阪市北区西天満3丁目1-5",
      "id": "tempura-65"
    },
    {
      "name": "天ぷら 逢坂",
      "url": "https://tabelog.com/tokyo/A1308/A130802/13007533/",
      "address": "東京都港区西新橋2-13-16 多田ビル １Ｆ",
      "code": "hyakumeiten_tempura_2025_restaurant_13007533",
      "lat": "35.667144",
      "lng": "139.751698",
      "geocode_source": "abr",
      "coordinate_level": "residential_block",
      "normalized_address": "東京都港区西新橋2丁目13-16 多田ビル 1F",
      "id": "tempura-66"
    },
    {
      "name": "光村",
      "url": "https://tabelog.com/aichi/A2301/A230110/23000086/",
      "address": "愛知県名古屋市北区清水3-19-18",
      "code": "hyakumeiten_tempura_2025_restaurant_23000086",
      "lat": "35.189314",
      "lng": "136.912394",
      "geocode_source": "abr",
      "coordinate_level": "residential_block",
      "normalized_address": "愛知県名古屋市北区清水三丁目19-18",
      "id": "tempura-67"
    },
    {
      "name": "天冨良 いわ井",
      "url": "https://tabelog.com/tokyo/A1301/A130101/13183675/",
      "address": "東京都中央区銀座7-4-5 銀座745ビル 6F",
      "code": "hyakumeiten_tempura_2025_restaurant_13183675",
      "lat": "35.670143",
      "lng": "139.760997",
      "geocode_source": "abr",
      "coordinate_level": "residential_block",
      "normalized_address": "東京都中央区銀座7丁目4-5 銀座745ビル 6F",
      "id": "tempura-68"
    },
    {
      "name": "好し智",
      "url": "https://tabelog.com/shizuoka/A2202/A220201/22040235/",
      "address": "静岡県浜松市中央区田町325-6 小島屋ビル 1F",
      "code": "hyakumeiten_tempura_2025_restaurant_22040235",
      "lat": "34.707932",
      "lng": "137.730141",
      "geocode_source": "geocoding_jp",
      "coordinate_level": "city",
      "normalized_address": "静岡県浜松市中央区田町325-6 小島屋ビル 1F",
      "id": "tempura-69"
    },
    {
      "name": "佐藤養助 正心庵",
      "url": "https://tabelog.com/akita/A0505/A050502/5008667/",
      "address": "秋田県湯沢市稲庭町字稲庭81",
      "code": "hyakumeiten_tempura_2025_restaurant_5008667",
      "lat": "39.106997",
      "lng": "140.582993",
      "geocode_source": "geocoding_jp",
      "coordinate_level": "city",
      "normalized_address": "秋田県湯沢市稲庭町字稲庭81",
      "id": "tempura-70"
    },
    {
      "name": "天蕎 かたへい",
      "url": "https://tabelog.com/kumamoto/A4301/A430101/43014435/",
      "address": "熊本県熊本市中央区上通町5-41 熊八長屋 3F",
      "code": "hyakumeiten_tempura_2025_restaurant_43014435",
      "lat": "32.80392",
      "lng": "130.711944",
      "geocode_source": "geocoding_jp",
      "coordinate_level": "prefecture",
      "normalized_address": "熊本県熊本市中央区上通町5-41 熊八長屋 3F",
      "id": "tempura-71"
    },
    {
      "name": "天ぷら 福たろう",
      "url": "https://tabelog.com/tokyo/A1311/A131106/13204299/",
      "address": "東京都台東区谷中1-2-17",
      "code": "hyakumeiten_tempura_2025_restaurant_13204299",
      "lat": "35.718968",
      "lng": "139.767189",
      "geocode_source": "abr",
      "coordinate_level": "residential_block",
      "normalized_address": "東京都台東区谷中1丁目2-17",
      "id": "tempura-72"
    },
    {
      "name": "てんぷら 拓",
      "url": "https://tabelog.com/tokyo/A1309/A130905/13293838/",
      "address": "東京都新宿区神楽坂3-1 KARUKOZAKA PLACE 501",
      "code": "hyakumeiten_tempura_2025_restaurant_13293838",
      "lat": "35.70218",
      "lng": "139.741055",
      "geocode_source": "geocoding_jp",
      "coordinate_level": "city",
      "normalized_address": "東京都新宿区神楽坂3-1 KARUKOZAKA PLACE 501",
      "id": "tempura-73"
    },
    {
      "name": "しおや",
      "url": "https://tabelog.com/fukushima/A0701/A070101/7010902/",
      "address": "福島県福島市上町2-14",
      "code": "hyakumeiten_tempura_2025_restaurant_7010902",
      "lat": "37.754277",
      "lng": "140.468405",
      "geocode_source": "abr",
      "coordinate_level": "residential_block",
      "normalized_address": "福島県福島市上町2-14",
      "id": "tempura-74"
    },
    {
      "name": "つくも",
      "url": "https://tabelog.com/yamagata/A0601/A060101/6000521/",
      "address": "山形県山形市成沢西1丁目1-23",
      "code": "hyakumeiten_tempura_2025_restaurant_6000521",
      "lat": "38.211899",
      "lng": "140.314425",
      "geocode_source": "geocoding_jp",
      "coordinate_level": "prefecture",
      "normalized_address": "山形県山形市成沢西1丁目1-23",
      "id": "tempura-75"
    },
    {
      "name": "天ぷら 川辰",
      "url": "https://tabelog.com/kyoto/A2601/A260401/26004797/",
      "address": "京都府京都市南区久世川原町65",
      "code": "hyakumeiten_tempura_2025_restaurant_26004797",
      "lat": "34.964921",
      "lng": "135.720144",
      "geocode_source": "geocoding_jp",
      "coordinate_level": "prefecture",
      "normalized_address": "京都府京都市南区久世川原町65",
      "id": "tempura-76"
    },
    {
      "name": "天ぷら小泉 たかの",
      "url": "https://tabelog.com/toyama/A1601/A160101/16006771/",
      "address": "富山県富山市牛島町18-7 アーバンプレイス B1F",
      "code": "hyakumeiten_tempura_2025_restaurant_16006771",
      "lat": "36.702117",
      "lng": "137.214042",
      "geocode_source": "geocoding_jp",
      "coordinate_level": "prefecture",
      "normalized_address": "富山県富山市牛島町18-7 アーバンプレイス B1F",
      "id": "tempura-77"
    },
    {
      "name": "茂竹",
      "url": "https://tabelog.com/tokyo/A1301/A130101/13007760/",
      "address": "東京都中央区銀座6-5-16 三楽ビル 2F",
      "code": "hyakumeiten_tempura_2025_restaurant_13007760",
      "lat": "35.671034",
      "lng": "139.761926",
      "geocode_source": "abr",
      "coordinate_level": "residential_block",
      "normalized_address": "東京都中央区銀座6丁目5-16 三楽ビル 2F",
      "id": "tempura-78"
    },
    {
      "name": "天錦",
      "url": "https://tabelog.com/shizuoka/A2202/A220201/22002164/",
      "address": "静岡県浜松市中央区田町325-29",
      "code": "hyakumeiten_tempura_2025_restaurant_22002164",
      "lat": "34.707721",
      "lng": "137.730533",
      "geocode_source": "geocoding_jp",
      "coordinate_level": "city",
      "normalized_address": "静岡県浜松市中央区田町325-29",
      "id": "tempura-79"
    },
    {
      "name": "司",
      "url": "https://tabelog.com/gunma/A1005/A100502/10014231/",
      "address": "群馬県藤岡市下栗須175-1",
      "code": "hyakumeiten_tempura_2025_restaurant_10014231",
      "lat": "36.257464",
      "lng": "139.088541",
      "geocode_source": "geocoding_jp",
      "coordinate_level": "city",
      "normalized_address": "群馬県藤岡市下栗須175-1",
      "id": "tempura-80"
    },
    {
      "name": "てんぷら山の上 Ginza",
      "url": "https://tabelog.com/tokyo/A1301/A130101/13207702/",
      "address": "東京都中央区銀座6-10-1 GINZA SIX 13F",
      "code": "hyakumeiten_tempura_2025_restaurant_13207702",
      "lat": "35.669564",
      "lng": "139.76406",
      "geocode_source": "abr",
      "coordinate_level": "residential_block",
      "normalized_address": "東京都中央区銀座6丁目10-1 GINZA SIX 13F",
      "id": "tempura-81"
    },
    {
      "name": "成生",
      "url": "https://tabelog.com/shizuoka/A2201/A220101/22037788/",
      "address": "静岡県静岡市葵区丸山町12-2",
      "code": "hyakumeiten_tempura_2025_restaurant_22037788",
      "lat": "34.985054",
      "lng": "138.376138",
      "geocode_source": "geocoding_jp",
      "coordinate_level": "city",
      "normalized_address": "静岡県静岡市葵区丸山町12-2",
      "id": "tempura-82"
    },
    {
      "name": "天麩羅処ひらお アクロス店",
      "url": "https://tabelog.com/fukuoka/A4001/A400103/40049747/",
      "address": "福岡県福岡市中央区天神1-1-1 アクロス福岡 B2F",
      "code": "hyakumeiten_tempura_2025_restaurant_40049747",
      "lat": "33.590967",
      "lng": "130.402909",
      "geocode_source": "geocoding_jp",
      "coordinate_level": "city",
      "normalized_address": "福岡県福岡市中央区天神1丁目1-1 アクロス福岡 B2F",
      "id": "tempura-83"
    },
    {
      "name": "天ぷら 京星",
      "url": "https://tabelog.com/kyoto/A2601/A260301/26006057/",
      "address": "京都府京都市東山区花見小路末吉町東入ル 双葉ビル 1F",
      "code": "hyakumeiten_tempura_2025_restaurant_26006057",
      "lat": "35.004378",
      "lng": "135.773912",
      "geocode_source": "geocoding_jp",
      "coordinate_level": "prefecture",
      "normalized_address": "京都府京都市東山区花見小路末吉町東入ル 双葉ビル 1F",
      "id": "tempura-84"
    },
    {
      "name": "てんぷら黒川",
      "url": "https://tabelog.com/tokyo/A1313/A131301/13002365/",
      "address": "東京都中央区築地6-21-8",
      "code": "hyakumeiten_tempura_2025_restaurant_13002365",
      "lat": "35.664486",
      "lng": "139.772298",
      "geocode_source": "abr",
      "coordinate_level": "residential_block",
      "normalized_address": "東京都中央区築地6丁目21-8",
      "id": "tempura-85"
    },
    {
      "name": "旬恵庵 あら垣",
      "url": "https://tabelog.com/tokyo/A1313/A131301/13210026/",
      "address": "東京都中央区湊3-5-10",
      "code": "hyakumeiten_tempura_2025_restaurant_13210026",
      "lat": "35.669624",
      "lng": "139.778448",
      "geocode_source": "abr",
      "coordinate_level": "residential_block",
      "normalized_address": "東京都中央区湊3丁目5-10",
      "id": "tempura-86"
    },
    {
      "name": "天麩羅　吉祥",
      "url": "https://tabelog.com/osaka/A2701/A270101/27085445/",
      "address": "大阪府大阪市北区中崎西1-6-24",
      "code": "hyakumeiten_tempura_2025_restaurant_27085445",
      "lat": "34.707686",
      "lng": "135.504274",
      "geocode_source": "geocoding_jp",
      "coordinate_level": "city",
      "normalized_address": "大阪府大阪市北区中崎西1丁目6-24",
      "id": "tempura-87"
    },
    {
      "name": "天ぷら とばり",
      "url": "https://tabelog.com/mie/A2403/A240303/24016491/",
      "address": "三重県志摩市阿児町鵜方1091-1",
      "code": "hyakumeiten_tempura_2025_restaurant_24016491",
      "lat": "34.328748629",
      "lng": "136.815567324",
      "geocode_source": "abr",
      "coordinate_level": "parcel",
      "normalized_address": "三重県志摩市阿児町鵜方1091-1",
      "id": "tempura-88"
    },
    {
      "name": "天麩羅 巽",
      "url": "https://tabelog.com/tokyo/A1302/A130201/13141129/",
      "address": "東京都千代田区丸の内 1-1-1 パレスホテル東京 6F",
      "code": "hyakumeiten_tempura_2025_restaurant_13141129",
      "lat": "35.684502",
      "lng": "139.76123",
      "geocode_source": "geocoding_jp",
      "coordinate_level": "city",
      "normalized_address": "東京都千代田区丸の内1-1-1 パレスホテル東京 6F",
      "id": "tempura-89"
    },
    {
      "name": "ぬまた 双",
      "url": "https://tabelog.com/osaka/A2701/A270101/27140129/",
      "address": "大阪府大阪市北区西天満4-7-7 サン・システム西天満ガストロプラザ 3F",
      "code": "hyakumeiten_tempura_2025_restaurant_27140129",
      "lat": "34.704955",
      "lng": "135.504211",
      "geocode_source": "geocoding_jp",
      "coordinate_level": "city",
      "normalized_address": "大阪府大阪市北区西天満4丁目7-7 サン・システム西天満ガストロプラザ 3F",
      "id": "tempura-90"
    },
    {
      "name": "清壽",
      "url": "https://tabelog.com/tokyo/A1313/A131301/13058904/",
      "address": "東京都中央区築地3-16-9 アーバンメイツビル B1F",
      "code": "hyakumeiten_tempura_2025_restaurant_13058904",
      "lat": "35.666554",
      "lng": "139.771353",
      "geocode_source": "abr",
      "coordinate_level": "residential_block",
      "normalized_address": "東京都中央区築地3丁目16-9 アーバンメイツビル B1F",
      "id": "tempura-91"
    },
    {
      "name": "北新地 天富",
      "url": "https://tabelog.com/osaka/A2701/A270101/27002018/",
      "address": "大阪府大阪市北区曽根崎新地1-5-2 大川ビル本館 ２Ｆ",
      "code": "hyakumeiten_tempura_2025_restaurant_27002018",
      "lat": "34.697626",
      "lng": "135.497756",
      "geocode_source": "geocoding_jp",
      "coordinate_level": "city",
      "normalized_address": "大阪府大阪市北区曽根崎新地1-5-2 大川ビル本館 2F",
      "id": "tempura-92"
    },
    {
      "name": "天ぷら よこい",
      "url": "https://tabelog.com/aichi/A2301/A230114/23006034/",
      "address": "愛知県名古屋市守山区幸心1-1319",
      "code": "hyakumeiten_tempura_2025_restaurant_23006034",
      "lat": "35.204933",
      "lng": "136.945803",
      "geocode_source": "geocoding_jp",
      "coordinate_level": "city",
      "normalized_address": "愛知県名古屋市守山区幸心一丁目1319",
      "id": "tempura-93"
    },
    {
      "name": "天若",
      "url": "https://tabelog.com/kyoto/A2601/A260501/26011319/",
      "address": "京都府京都市上京区千本通五辻上る牡丹鉾町570",
      "code": "hyakumeiten_tempura_2025_restaurant_26011319",
      "lat": "35.031398",
      "lng": "135.741797",
      "geocode_source": "geocoding_jp",
      "coordinate_level": "prefecture",
      "normalized_address": "京都府京都市上京区千本通五辻上る牡丹鉾町570",
      "id": "tempura-94"
    },
    {
      "name": "てんぷら 下村",
      "url": "https://tabelog.com/tokyo/A1311/A131101/13213663/",
      "address": "東京都台東区三筋1-11-13",
      "code": "hyakumeiten_tempura_2025_restaurant_13213663",
      "lat": "35.704265",
      "lng": "139.785276",
      "geocode_source": "abr",
      "coordinate_level": "residential_block",
      "normalized_address": "東京都台東区三筋1丁目11-13",
      "id": "tempura-95"
    },
    {
      "name": "まつむら",
      "url": "https://tabelog.com/tochigi/A0902/A090202/9004726/",
      "address": "栃木県足利市有楽町834-27",
      "code": "hyakumeiten_tempura_2025_restaurant_9004726",
      "lat": "36.341054",
      "lng": "139.458538",
      "geocode_source": "geocoding_jp",
      "coordinate_level": "city",
      "normalized_address": "栃木県足利市有楽町834-27",
      "id": "tempura-96"
    },
    {
      "name": "天 よこた",
      "url": "https://tabelog.com/tokyo/A1307/A130702/13258792/",
      "address": "東京都港区元麻布3-10-5 カドル元麻布 202",
      "code": "hyakumeiten_tempura_2025_restaurant_13258792",
      "lat": "35.656947",
      "lng": "139.73203",
      "geocode_source": "abr",
      "coordinate_level": "residential_block",
      "normalized_address": "東京都港区元麻布3丁目10-5 カドル元麻布 202",
      "id": "tempura-97"
    },
    {
      "name": "天七",
      "url": "https://tabelog.com/kanagawa/A1401/A140104/14003291/",
      "address": "神奈川県横浜市中区常盤町5-57 竹内ビル 1F",
      "code": "hyakumeiten_tempura_2025_restaurant_14003291",
      "lat": "35.447053",
      "lng": "139.635088",
      "geocode_source": "geocoding_jp",
      "coordinate_level": "city",
      "normalized_address": "神奈川県横浜市中区常盤町5丁目57 竹内ビル 1F",
      "id": "tempura-98"
    }
  ]
}
