{
  "shops": [
    {
      "name": "山勢",
      "url": "https://tabelog.com/nagano/A2002/A200201/20026525/",
      "address": "長野県松本市大手4-6-10-2",
      "code": "hyakumeiten_unagi_2024_restaurant_20026525",
      "lat": "34.68107502",
      "lng": "135.50978711",
      "geocode_source": "yahoo",
      "coordinate_level": "prefecture",
      "normalized_address": "長野県松本市大手4-6-10-2",
      "id": "unagi-0"
    },
    {
      "name": "かぶと",
      "url": "https://tabelog.com/tokyo/A1305/A130501/13016660/",
      "address": "東京都豊島区池袋2-53-2 池袋ESビル 1F",
      "code": "hyakumeiten_unagi_2024_restaurant_13016660",
      "lat": "35.734043",
      "lng": "139.709081",
      "geocode_source": "abr",
      "coordinate_level": "residential_block",
      "normalized_address": "東京都豊島区池袋2丁目53-2 池袋ESビル 1F",
      "id": "unagi-1"
    },
    {
      "name": "初小川",
      "url": "https://tabelog.com/tokyo/A1311/A131102/13003702/",
      "address": "東京都台東区雷門2-8-4",
      "code": "hyakumeiten_unagi_2024_restaurant_13003702",
      "lat": "35.709816",
      "lng": "139.794653",
      "geocode_source": "abr",
      "coordinate_level": "residential_block",
      "normalized_address": "東京都台東区雷門2丁目8-4",
      "id": "unagi-2"
    },
    {
      "name": "うなぎ家 しば福や",
      "url": "https://tabelog.com/aichi/A2301/A230101/23067466/",
      "address": "愛知県名古屋市西区那古野1-23-10",
      "code": "hyakumeiten_unagi_2024_restaurant_23067466",
      "lat": "35.175004",
      "lng": "136.891622",
      "geocode_source": "abr",
      "coordinate_level": "residential_block",
      "normalized_address": "愛知県名古屋市西区那古野一丁目23-10",
      "id": "unagi-3"
    },
    {
      "name": "あつた蓬莱軒 松坂屋店",
      "url": "https://tabelog.com/aichi/A2301/A230103/23000108/",
      "address": "愛知県名古屋市中区栄3-30-8 松坂屋名古屋店 南館 10F",
      "code": "hyakumeiten_unagi_2024_restaurant_23000108",
      "lat": "35.164533",
      "lng": "136.907894",
      "geocode_source": "abr",
      "coordinate_level": "residential_block",
      "normalized_address": "愛知県名古屋市中区栄三丁目30-8 松坂屋名古屋店 南館 10F",
      "id": "unagi-4"
    },
    {
      "name": "尾花",
      "url": "https://tabelog.com/tokyo/A1324/A132401/13003509/",
      "address": "東京都荒川区南千住5-33-1",
      "code": "hyakumeiten_unagi_2024_restaurant_13003509",
      "lat": "35.732007",
      "lng": "139.797356",
      "geocode_source": "abr",
      "coordinate_level": "residential_block",
      "normalized_address": "東京都荒川区南千住5丁目33-1",
      "id": "unagi-5"
    },
    {
      "name": "鰻 にしはら",
      "url": "https://tabelog.com/osaka/A2701/A270104/27081196/",
      "address": "大阪府大阪市中央区北新町4-12",
      "code": "hyakumeiten_unagi_2024_restaurant_27081196",
      "lat": "34.68518023",
      "lng": "135.51467832",
      "geocode_source": "yahoo",
      "coordinate_level": "city",
      "normalized_address": "大阪府大阪市中央区北新町4-12",
      "id": "unagi-6"
    },
    {
      "name": "駿河屋",
      "url": "https://tabelog.com/chiba/A1204/A120401/12006496/",
      "address": "千葉県成田市仲町359",
      "code": "hyakumeiten_unagi_2024_restaurant_12006496",
      "lat": "35.78461455",
      "lng": "140.31729736",
      "geocode_source": "yahoo",
      "coordinate_level": "city",
      "normalized_address": "千葉県成田市仲町359",
      "id": "unagi-7"
    },
    {
      "name": "川蝉",
      "url": "https://tabelog.com/tochigi/A0901/A090101/9000024/",
      "address": "栃木県宇都宮市大通り5-1-19",
      "code": "hyakumeiten_unagi_2024_restaurant_9000024",
      "lat": "36.561435711",
      "lng": "139.892082689",
      "geocode_source": "abr",
      "coordinate_level": "residential_detail",
      "normalized_address": "栃木県宇都宮市大通り5丁目1-19",
      "id": "unagi-8"
    },
    {
      "name": "清月",
      "url": "https://tabelog.com/aichi/A2301/A230110/23050355/",
      "address": "愛知県名古屋市東区徳川町2502 マルカネエクセレンス 1F",
      "code": "hyakumeiten_unagi_2024_restaurant_23050355",
      "lat": "35.18576005",
      "lng": "136.93495538",
      "geocode_source": "yahoo",
      "coordinate_level": "city",
      "normalized_address": "愛知県名古屋市東区徳川町2502 マルカネエクセレンス 1F",
      "id": "unagi-9"
    },
    {
      "name": "日本橋いづもや",
      "url": "https://tabelog.com/tokyo/A1302/A130202/13011198/",
      "address": "東京都中央区日本橋本石町3-3-4",
      "code": "hyakumeiten_unagi_2024_restaurant_13011198",
      "lat": "35.687734",
      "lng": "139.771365",
      "geocode_source": "abr",
      "coordinate_level": "residential_block",
      "normalized_address": "東京都中央区日本橋本石町3丁目3-4",
      "id": "unagi-10"
    },
    {
      "name": "川魚 根本",
      "url": "https://tabelog.com/saitama/A1102/A110205/11000077/",
      "address": "埼玉県三郷市戸ケ崎2951-1",
      "code": "hyakumeiten_unagi_2024_restaurant_11000077",
      "lat": "35.79603656",
      "lng": "139.8608763",
      "geocode_source": "yahoo",
      "coordinate_level": "city",
      "normalized_address": "埼玉県三郷市戸ケ崎2951-1",
      "id": "unagi-11"
    },
    {
      "name": "鰻 むさし乃",
      "url": "https://tabelog.com/saitama/A1101/A110102/11003959/",
      "address": "埼玉県さいたま市浦和区東高砂町8-3 1F",
      "code": "hyakumeiten_unagi_2024_restaurant_11003959",
      "lat": "35.857114",
      "lng": "139.660426",
      "geocode_source": "abr",
      "coordinate_level": "residential_block",
      "normalized_address": "埼玉県さいたま市浦和区東高砂町8-3 1F",
      "id": "unagi-12"
    },
    {
      "name": "参宮橋 あさや",
      "url": "https://tabelog.com/tokyo/A1318/A131810/13289291/",
      "address": "東京都渋谷区代々木4-6-5 A&U 1F",
      "code": "hyakumeiten_unagi_2024_restaurant_13289291",
      "lat": "35.678756",
      "lng": "139.693572",
      "geocode_source": "abr",
      "coordinate_level": "residential_block",
      "normalized_address": "東京都渋谷区代々木4丁目6-5 A&U 1F",
      "id": "unagi-13"
    },
    {
      "name": "炭焼うなぎ 加茂",
      "url": "https://tabelog.com/shizuoka/A2202/A220201/22008615/",
      "address": "静岡県浜松市浜名区三ヶ日町都筑791-8",
      "code": "hyakumeiten_unagi_2024_restaurant_22008615",
      "lat": "34.79118367",
      "lng": "137.58488976",
      "geocode_source": "yahoo",
      "coordinate_level": "city",
      "normalized_address": "静岡県浜松市浜名区三ヶ日町都筑791-8",
      "id": "unagi-14"
    },
    {
      "name": "うなぎの美鶴",
      "url": "https://tabelog.com/kagoshima/A4601/A460101/46003010/",
      "address": "鹿児島県鹿児島市下福元町3573-4",
      "code": "hyakumeiten_unagi_2024_restaurant_46003010",
      "lat": "31.51053622",
      "lng": "130.49378511",
      "geocode_source": "yahoo",
      "coordinate_level": "city",
      "normalized_address": "鹿児島県鹿児島市下福元町3573-4",
      "id": "unagi-15"
    },
    {
      "name": "鳥常本店",
      "url": "https://tabelog.com/tochigi/A0902/A090202/9006284/",
      "address": "栃木県足利市通1-2686",
      "code": "hyakumeiten_unagi_2024_restaurant_9006284",
      "lat": "36.33345129",
      "lng": "139.45295645",
      "geocode_source": "yahoo",
      "coordinate_level": "city",
      "normalized_address": "栃木県足利市通1丁目2686",
      "id": "unagi-16"
    },
    {
      "name": "はし本",
      "url": "https://tabelog.com/tokyo/A1309/A130905/13018616/",
      "address": "東京都文京区水道2-5-7",
      "code": "hyakumeiten_unagi_2024_restaurant_13018616",
      "lat": "35.709581",
      "lng": "139.736883",
      "geocode_source": "abr",
      "coordinate_level": "residential_block",
      "normalized_address": "東京都文京区水道2丁目5-7",
      "id": "unagi-17"
    },
    {
      "name": "五代目 野田岩 麻布飯倉本店",
      "url": "https://tabelog.com/tokyo/A1314/A131401/13002789/",
      "address": "東京都港区東麻布1-5-4",
      "code": "hyakumeiten_unagi_2024_restaurant_13002789",
      "lat": "35.658133",
      "lng": "139.743251",
      "geocode_source": "abr",
      "coordinate_level": "residential_block",
      "normalized_address": "東京都港区東麻布1丁目5-4",
      "id": "unagi-18"
    },
    {
      "name": "一鰻",
      "url": "https://tabelog.com/shizuoka/A2205/A220503/22004100/",
      "address": "静岡県伊東市湯川1-9-6",
      "code": "hyakumeiten_unagi_2024_restaurant_22004100",
      "lat": "34.97406363",
      "lng": "139.09306385",
      "geocode_source": "yahoo",
      "coordinate_level": "city",
      "normalized_address": "静岡県伊東市湯川1-9-6",
      "id": "unagi-19"
    },
    {
      "name": "うなぎ亭 友栄",
      "url": "https://tabelog.com/kanagawa/A1410/A141001/14001626/",
      "address": "神奈川県小田原市風祭122",
      "code": "hyakumeiten_unagi_2024_restaurant_14001626",
      "lat": "35.24325422",
      "lng": "139.1261513",
      "geocode_source": "yahoo",
      "coordinate_level": "city",
      "normalized_address": "神奈川県小田原市風祭122",
      "id": "unagi-20"
    },
    {
      "name": "ちか定",
      "url": "https://tabelog.com/shiga/A2501/A250101/25000697/",
      "address": "滋賀県大津市玉野浦7-4",
      "code": "hyakumeiten_unagi_2024_restaurant_25000697",
      "lat": "34.98065571",
      "lng": "135.90883531",
      "geocode_source": "yahoo",
      "coordinate_level": "city",
      "normalized_address": "滋賀県大津市玉野浦7-4",
      "id": "unagi-21"
    },
    {
      "name": "やしま",
      "url": "https://tabelog.com/tokyo/A1311/A131101/13024325/",
      "address": "東京都台東区小島2-18-19",
      "code": "hyakumeiten_unagi_2024_restaurant_13024325",
      "lat": "35.706497",
      "lng": "139.784445",
      "geocode_source": "abr",
      "coordinate_level": "residential_block",
      "normalized_address": "東京都台東区小島2丁目18-19",
      "id": "unagi-22"
    },
    {
      "name": "鰻家",
      "url": "https://tabelog.com/tokyo/A1321/A132101/13012445/",
      "address": "東京都豊島区南長崎5-18-17",
      "code": "hyakumeiten_unagi_2024_restaurant_13012445",
      "lat": "35.72817",
      "lng": "139.682201",
      "geocode_source": "abr",
      "coordinate_level": "residential_block",
      "normalized_address": "東京都豊島区南長崎5丁目18-17",
      "id": "unagi-23"
    },
    {
      "name": "小暮や",
      "url": "https://tabelog.com/chiba/A1203/A120304/12000292/",
      "address": "千葉県我孫子市天王台4-2-22 マンション １Ｆ",
      "code": "hyakumeiten_unagi_2024_restaurant_12000292",
      "lat": "35.872526803",
      "lng": "140.037590542",
      "geocode_source": "abr",
      "coordinate_level": "residential_detail",
      "normalized_address": "千葉県我孫子市天王台4丁目2-22 マンション 1F",
      "id": "unagi-24"
    },
    {
      "name": "うなぎ時任",
      "url": "https://tabelog.com/tokyo/A1307/A130702/13224663/",
      "address": "東京都港区麻布十番2-5-11 AZABUMAISON201",
      "code": "hyakumeiten_unagi_2024_restaurant_13224663",
      "lat": "35.65629",
      "lng": "139.733526",
      "geocode_source": "abr",
      "coordinate_level": "residential_block",
      "normalized_address": "東京都港区麻布十番2丁目5-11 AZABUMAISON201",
      "id": "unagi-25"
    },
    {
      "name": "鰻専門店 愛川",
      "url": "https://tabelog.com/tokyo/A1305/A130503/13029734/",
      "address": "東京都新宿区高田馬場1-17-22",
      "code": "hyakumeiten_unagi_2024_restaurant_13029734",
      "lat": "35.71140473",
      "lng": "139.70732578",
      "geocode_source": "yahoo",
      "coordinate_level": "city",
      "normalized_address": "東京都新宿区高田馬場1-17-22",
      "id": "unagi-26"
    },
    {
      "name": "炭火焼うなぎ 東山物産",
      "url": "https://tabelog.com/mie/A2403/A240303/24006418/",
      "address": "三重県志摩市阿児町鵜方4032",
      "code": "hyakumeiten_unagi_2024_restaurant_24006418",
      "lat": "34.329248369",
      "lng": "136.824235525",
      "geocode_source": "abr",
      "coordinate_level": "parcel",
      "normalized_address": "三重県志摩市阿児町鵜方4032",
      "id": "unagi-27"
    },
    {
      "name": "銀座 四代目 高橋屋 銀座店",
      "url": "https://tabelog.com/tokyo/A1301/A130101/13262334/",
      "address": "東京都中央区銀座4-12-1 ＶＯＲＴ銀座イーストⅡビル 4F",
      "code": "hyakumeiten_unagi_2024_restaurant_13262334",
      "lat": "35.66965",
      "lng": "139.767873",
      "geocode_source": "abr",
      "coordinate_level": "residential_block",
      "normalized_address": "東京都中央区銀座4丁目12-1 VORT銀座イーストⅡビル 4F",
      "id": "unagi-28"
    },
    {
      "name": "うな富士",
      "url": "https://tabelog.com/aichi/A2301/A230105/23000105/",
      "address": "愛知県名古屋市昭和区白金1-1-4 プレザント白金",
      "code": "hyakumeiten_unagi_2024_restaurant_23000105",
      "lat": "35.149814",
      "lng": "136.914411",
      "geocode_source": "abr",
      "coordinate_level": "residential_block",
      "normalized_address": "愛知県名古屋市昭和区白金一丁目1-4 プレザント白金",
      "id": "unagi-29"
    },
    {
      "name": "古久家",
      "url": "https://tabelog.com/gunma/A1001/A100101/10006048/",
      "address": "群馬県前橋市本町2-11-6",
      "code": "hyakumeiten_unagi_2024_restaurant_10006048",
      "lat": "36.388628194",
      "lng": "139.071552258",
      "geocode_source": "abr",
      "coordinate_level": "residential_detail",
      "normalized_address": "群馬県前橋市本町二丁目11-6",
      "id": "unagi-30"
    },
    {
      "name": "うなぎ 目白ぞろ芽",
      "url": "https://tabelog.com/tokyo/A1305/A130502/13224277/",
      "address": "東京都豊島区目白3-3-1 目白スクエアビルB1F",
      "code": "hyakumeiten_unagi_2024_restaurant_13224277",
      "lat": "35.720727",
      "lng": "139.706389",
      "geocode_source": "abr",
      "coordinate_level": "residential_block",
      "normalized_address": "東京都豊島区目白3丁目3-1 目白スクエアビルB1F",
      "id": "unagi-31"
    },
    {
      "name": "炭焼うなぎ あおいや",
      "url": "https://tabelog.com/shizuoka/A2202/A220201/22000099/",
      "address": "静岡県浜松市中央区飯田町616-2",
      "code": "hyakumeiten_unagi_2024_restaurant_22000099",
      "lat": "34.70704164",
      "lng": "137.77532517",
      "geocode_source": "yahoo",
      "coordinate_level": "city",
      "normalized_address": "静岡県浜松市中央区飯田町616-2",
      "id": "unagi-32"
    },
    {
      "name": "魚登久",
      "url": "https://tabelog.com/tochigi/A0903/A090302/9000136/",
      "address": "栃木県日光市今市467",
      "code": "hyakumeiten_unagi_2024_restaurant_9000136",
      "lat": "36.72435396",
      "lng": "139.68597162",
      "geocode_source": "yahoo",
      "coordinate_level": "city",
      "normalized_address": "栃木県日光市今市467",
      "id": "unagi-33"
    },
    {
      "name": "うなぎの末よし",
      "url": "https://tabelog.com/kagoshima/A4601/A460101/46000209/",
      "address": "鹿児島県鹿児島市東千石町14-10",
      "code": "hyakumeiten_unagi_2024_restaurant_46000209",
      "lat": "31.5910702",
      "lng": "130.55531007",
      "geocode_source": "yahoo",
      "coordinate_level": "city",
      "normalized_address": "鹿児島県鹿児島市東千石町14-10",
      "id": "unagi-34"
    },
    {
      "name": "川越 いちのや",
      "url": "https://tabelog.com/saitama/A1103/A110303/11000139/",
      "address": "埼玉県川越市松江町1-18-10",
      "code": "hyakumeiten_unagi_2024_restaurant_11000139",
      "lat": "35.9193651",
      "lng": "139.48548451",
      "geocode_source": "yahoo",
      "coordinate_level": "city",
      "normalized_address": "埼玉県川越市松江町1-18-10",
      "id": "unagi-35"
    },
    {
      "name": "紀文",
      "url": "https://tabelog.com/gifu/A2101/A210103/21001137/",
      "address": "岐阜県養老郡養老町飯田1350-9",
      "code": "hyakumeiten_unagi_2024_restaurant_21001137",
      "lat": "35.32793297",
      "lng": "136.57163102",
      "geocode_source": "yahoo",
      "coordinate_level": "city",
      "normalized_address": "岐阜県養老郡養老町飯田1350-9",
      "id": "unagi-36"
    },
    {
      "name": "うなぎ お㚙川 我孫子店",
      "url": "https://tabelog.com/chiba/A1203/A120304/12029065/",
      "address": "千葉県我孫子市本町1-1-11 青木ビル 1F",
      "code": "hyakumeiten_unagi_2024_restaurant_12029065",
      "lat": "35.87188753",
      "lng": "140.009984386",
      "geocode_source": "abr",
      "coordinate_level": "residential_detail",
      "normalized_address": "千葉県我孫子市本町1丁目1-11 青木ビル 1F",
      "id": "unagi-37"
    },
    {
      "name": "竹屋",
      "url": "https://tabelog.com/saga/A4102/A410201/41000183/",
      "address": "佐賀県唐津市中町1884-2",
      "code": "hyakumeiten_unagi_2024_restaurant_41000183",
      "lat": "33.44857955",
      "lng": "129.97032541",
      "geocode_source": "yahoo",
      "coordinate_level": "city",
      "normalized_address": "佐賀県唐津市中町1884-2",
      "id": "unagi-38"
    },
    {
      "name": "田代",
      "url": "https://tabelog.com/aichi/A2303/A230302/23003045/",
      "address": "愛知県瀬戸市深川町13",
      "code": "hyakumeiten_unagi_2024_restaurant_23003045",
      "lat": "35.22723816",
      "lng": "137.10255223",
      "geocode_source": "yahoo",
      "coordinate_level": "city",
      "normalized_address": "愛知県瀬戸市深川町13",
      "id": "unagi-39"
    },
    {
      "name": "うなぎ割烹山田",
      "url": "https://tabelog.com/chiba/A1204/A120404/12000489/",
      "address": "千葉県香取市佐原イ457",
      "code": "hyakumeiten_unagi_2024_restaurant_12000489",
      "lat": "35.89236088",
      "lng": "140.49737917",
      "geocode_source": "yahoo",
      "coordinate_level": "city",
      "normalized_address": "千葉県香取市佐原イ457",
      "id": "unagi-40"
    },
    {
      "name": "イチビキ",
      "url": "https://tabelog.com/aichi/A2301/A230101/23001379/",
      "address": "愛知県名古屋市中村区名駅南1-3-16",
      "code": "hyakumeiten_unagi_2024_restaurant_23001379",
      "lat": "35.16778",
      "lng": "136.890916",
      "geocode_source": "abr",
      "coordinate_level": "residential_block",
      "normalized_address": "愛知県名古屋市中村区名駅南一丁目3-16",
      "id": "unagi-41"
    },
    {
      "name": "かいだ屋",
      "url": "https://tabelog.com/kochi/A3901/A390102/39000043/",
      "address": "高知県南国市浜改田1330-3",
      "code": "hyakumeiten_unagi_2024_restaurant_39000043",
      "lat": "33.53456732",
      "lng": "133.64904543",
      "geocode_source": "yahoo",
      "coordinate_level": "city",
      "normalized_address": "高知県南国市浜改田1330-3",
      "id": "unagi-42"
    },
    {
      "name": "うなぎ 丸富",
      "url": "https://tabelog.com/tokyo/A1315/A131501/13026638/",
      "address": "東京都品川区南品川3-6-2",
      "code": "hyakumeiten_unagi_2024_restaurant_13026638",
      "lat": "35.60843",
      "lng": "139.744701",
      "geocode_source": "abr",
      "coordinate_level": "residential_block",
      "normalized_address": "東京都品川区南品川3丁目6-2",
      "id": "unagi-43"
    },
    {
      "name": "鰻禅",
      "url": "https://tabelog.com/tokyo/A1312/A131203/13058979/",
      "address": "東京都墨田区吾妻橋3-6-18",
      "code": "hyakumeiten_unagi_2024_restaurant_13058979",
      "lat": "35.70887679",
      "lng": "139.80571233",
      "geocode_source": "yahoo",
      "coordinate_level": "city",
      "normalized_address": "東京都墨田区吾妻橋3-6-18",
      "id": "unagi-44"
    },
    {
      "name": "小川菊",
      "url": "https://tabelog.com/saitama/A1103/A110303/11000040/",
      "address": "埼玉県川越市仲町3-22",
      "code": "hyakumeiten_unagi_2024_restaurant_11000040",
      "lat": "35.92065377",
      "lng": "139.48321797",
      "geocode_source": "yahoo",
      "coordinate_level": "city",
      "normalized_address": "埼玉県川越市仲町3-22",
      "id": "unagi-45"
    },
    {
      "name": "吉寅",
      "url": "https://tabelog.com/osaka/A2701/A270106/27001073/",
      "address": "大阪府大阪市中央区備後町1-6-6",
      "code": "hyakumeiten_unagi_2024_restaurant_27001073",
      "lat": "34.68528004",
      "lng": "135.50725668",
      "geocode_source": "yahoo",
      "coordinate_level": "city",
      "normalized_address": "大阪府大阪市中央区備後町1丁目6-6",
      "id": "unagi-46"
    },
    {
      "name": "うなぎ 桜家",
      "url": "https://tabelog.com/shizuoka/A2205/A220501/22000127/",
      "address": "静岡県三島市広小路町13-2",
      "code": "hyakumeiten_unagi_2024_restaurant_22000127",
      "lat": "35.11875249",
      "lng": "138.91193733",
      "geocode_source": "yahoo",
      "coordinate_level": "city",
      "normalized_address": "静岡県三島市広小路町13-2",
      "id": "unagi-47"
    },
    {
      "name": "あつた蓬莱軒 神宮店",
      "url": "https://tabelog.com/aichi/A2301/A230112/23000109/",
      "address": "愛知県名古屋市熱田区神宮2-10-26",
      "code": "hyakumeiten_unagi_2024_restaurant_23000109",
      "lat": "35.121988",
      "lng": "136.908731",
      "geocode_source": "abr",
      "coordinate_level": "residential_block",
      "normalized_address": "愛知県名古屋市熱田区神宮二丁目10-26",
      "id": "unagi-48"
    },
    {
      "name": "うなぎ屋 廣川",
      "url": "https://tabelog.com/kyoto/A2601/A260403/26000921/",
      "address": "京都府京都市右京区嵯峨天龍寺北造路町44-1",
      "code": "hyakumeiten_unagi_2024_restaurant_26000921",
      "lat": "35.01697071",
      "lng": "135.67729175",
      "geocode_source": "yahoo",
      "coordinate_level": "prefecture",
      "normalized_address": "京都府京都市右京区嵯峨天龍寺北造路町44-1",
      "id": "unagi-49"
    },
    {
      "name": "満寿家",
      "url": "https://tabelog.com/saitama/A1101/A110102/11000153/",
      "address": "埼玉県さいたま市浦和区岸町7-1-3",
      "code": "hyakumeiten_unagi_2024_restaurant_11000153",
      "lat": "35.85567",
      "lng": "139.654162",
      "geocode_source": "abr",
      "coordinate_level": "residential_block",
      "normalized_address": "埼玉県さいたま市浦和区岸町7丁目1-3",
      "id": "unagi-50"
    },
    {
      "name": "うなぎ秋本",
      "url": "https://tabelog.com/tokyo/A1308/A130803/13000415/",
      "address": "東京都千代田区麹町3-4-4",
      "code": "hyakumeiten_unagi_2024_restaurant_13000415",
      "lat": "35.68488343",
      "lng": "139.73754914",
      "geocode_source": "yahoo",
      "coordinate_level": "city",
      "normalized_address": "東京都千代田区麹町三丁目4-4",
      "id": "unagi-51"
    },
    {
      "name": "うな善",
      "url": "https://tabelog.com/fukuoka/A4001/A400104/40005813/",
      "address": "福岡県福岡市中央区高砂1-14-7-1",
      "code": "hyakumeiten_unagi_2024_restaurant_40005813",
      "lat": "34.68107502",
      "lng": "135.50978711",
      "geocode_source": "yahoo",
      "coordinate_level": "city",
      "normalized_address": "福岡県福岡市中央区高砂1丁目14-7-1",
      "id": "unagi-52"
    },
    {
      "name": "さくめ",
      "url": "https://tabelog.com/shizuoka/A2202/A220201/22011080/",
      "address": "静岡県浜松市浜名区三ケ日町佐久米724-1",
      "code": "hyakumeiten_unagi_2024_restaurant_22011080",
      "lat": "34.78960906",
      "lng": "137.59957101",
      "geocode_source": "yahoo",
      "coordinate_level": "city",
      "normalized_address": "静岡県浜松市浜名区三ヶ日町佐久米724-1",
      "id": "unagi-53"
    },
    {
      "name": "うじょう亭",
      "url": "https://tabelog.com/okayama/A3301/A330101/33001167/",
      "address": "岡山県岡山市北区内山下1-8-18",
      "code": "hyakumeiten_unagi_2024_restaurant_33001167",
      "lat": "34.66067018",
      "lng": "133.93136983",
      "geocode_source": "yahoo",
      "coordinate_level": "prefecture",
      "normalized_address": "岡山県岡山市北区内山下1-8-18",
      "id": "unagi-54"
    },
    {
      "name": "小島屋",
      "url": "https://tabelog.com/saitama/A1101/A110102/11019772/",
      "address": "埼玉県さいたま市南区太田窪2166",
      "code": "hyakumeiten_unagi_2024_restaurant_11019772",
      "lat": "35.85088038",
      "lng": "139.68083454",
      "geocode_source": "yahoo",
      "coordinate_level": "city",
      "normalized_address": "埼玉県さいたま市南区太田窪2166",
      "id": "unagi-55"
    },
    {
      "name": "わらじや",
      "url": "https://tabelog.com/kyoto/A2601/A260304/26000406/",
      "address": "京都府京都市東山区西之門町555",
      "code": "hyakumeiten_unagi_2024_restaurant_26000406",
      "lat": "34.98939898",
      "lng": "135.77054321",
      "geocode_source": "yahoo",
      "coordinate_level": "prefecture",
      "normalized_address": "京都府京都市東山区西之門町555",
      "id": "unagi-56"
    },
    {
      "name": "鰻家",
      "url": "https://tabelog.com/osaka/A2701/A270301/27080635/",
      "address": "大阪府大阪市淀川区西中島4-5-22 第3新大阪ビル 1F",
      "code": "hyakumeiten_unagi_2024_restaurant_27080635",
      "lat": "34.72726901",
      "lng": "135.49666204",
      "geocode_source": "yahoo",
      "coordinate_level": "city",
      "normalized_address": "大阪府大阪市淀川区西中島4丁目5-22 第3新大阪ビル 1F",
      "id": "unagi-57"
    },
    {
      "name": "うな豊",
      "url": "https://tabelog.com/aichi/A2301/A230112/23006249/",
      "address": "愛知県名古屋市瑞穂区豊岡通3-40",
      "code": "hyakumeiten_unagi_2024_restaurant_23006249",
      "lat": "35.12325498",
      "lng": "136.93856088",
      "geocode_source": "yahoo",
      "coordinate_level": "city",
      "normalized_address": "愛知県名古屋市瑞穂区豊岡通三丁目40",
      "id": "unagi-58"
    },
    {
      "name": "うなぎのまつ嘉",
      "url": "https://tabelog.com/nagano/A2002/A200201/20000103/",
      "address": "長野県松本市中央3-2-29",
      "code": "hyakumeiten_unagi_2024_restaurant_20000103",
      "lat": "36.23252456",
      "lng": "137.97188364",
      "geocode_source": "yahoo",
      "coordinate_level": "prefecture",
      "normalized_address": "長野県松本市中央3-2-29",
      "id": "unagi-59"
    },
    {
      "name": "うなぎ料理 あつみ",
      "url": "https://tabelog.com/shizuoka/A2202/A220201/22000096/",
      "address": "静岡県浜松市中央区千歳町70",
      "code": "hyakumeiten_unagi_2024_restaurant_22000096",
      "lat": "34.70447657",
      "lng": "137.73061759",
      "geocode_source": "yahoo",
      "coordinate_level": "city",
      "normalized_address": "静岡県浜松市中央区千歳町70",
      "id": "unagi-60"
    },
    {
      "name": "博多名代 吉塚うなぎ屋",
      "url": "https://tabelog.com/fukuoka/A4001/A400102/40000017/",
      "address": "福岡県福岡市博多区中洲2-8-27",
      "code": "hyakumeiten_unagi_2024_restaurant_40000017",
      "lat": "33.59254604",
      "lng": "130.40893132",
      "geocode_source": "yahoo",
      "coordinate_level": "city",
      "normalized_address": "福岡県福岡市博多区中洲2-8-27",
      "id": "unagi-61"
    },
    {
      "name": "うなぎ 魚政",
      "url": "https://tabelog.com/tokyo/A1324/A132403/13035339/",
      "address": "東京都葛飾区東四ツ木4-14-4",
      "code": "hyakumeiten_unagi_2024_restaurant_13035339",
      "lat": "35.732018",
      "lng": "139.835966",
      "geocode_source": "abr",
      "coordinate_level": "residential_block",
      "normalized_address": "東京都葛飾区東四つ木4丁目14-4",
      "id": "unagi-62"
    },
    {
      "name": "上村うなぎ屋",
      "url": "https://tabelog.com/kumamoto/A4304/A430403/43000195/",
      "address": "熊本県人吉市紺屋町129",
      "code": "hyakumeiten_unagi_2024_restaurant_43000195",
      "lat": "32.21537559",
      "lng": "130.75951519",
      "geocode_source": "yahoo",
      "coordinate_level": "prefecture",
      "normalized_address": "熊本県人吉市紺屋町129",
      "id": "unagi-63"
    },
    {
      "name": "小淵沢 井筒屋",
      "url": "https://tabelog.com/yamanashi/A1902/A190201/19000064/",
      "address": "山梨県北杜市小淵沢町1035",
      "code": "hyakumeiten_unagi_2024_restaurant_19000064",
      "lat": "35.86289905",
      "lng": "138.31712563",
      "geocode_source": "yahoo",
      "coordinate_level": "prefecture",
      "normalized_address": "山梨県北杜市小淵沢町1035",
      "id": "unagi-64"
    },
    {
      "name": "うなせん",
      "url": "https://tabelog.com/chiba/A1204/A120404/12001192/",
      "address": "千葉県香取市小見川5628",
      "code": "hyakumeiten_unagi_2024_restaurant_12001192",
      "lat": "35.86038355",
      "lng": "140.60582548",
      "geocode_source": "yahoo",
      "coordinate_level": "city",
      "normalized_address": "千葉県香取市小見川5628",
      "id": "unagi-65"
    },
    {
      "name": "わたべ",
      "url": "https://tabelog.com/tokyo/A1310/A131003/13042184/",
      "address": "東京都文京区小石川1-9-14 アトラスタワー小石川 1Ｆ",
      "code": "hyakumeiten_unagi_2024_restaurant_13042184",
      "lat": "35.711287",
      "lng": "139.752179",
      "geocode_source": "abr",
      "coordinate_level": "residential_block",
      "normalized_address": "東京都文京区小石川1丁目9-14 アトラスタワー小石川 1F",
      "id": "unagi-66"
    },
    {
      "name": "炭焼鰻 はじめ",
      "url": "https://tabelog.com/shizuoka/A2202/A220201/22030160/",
      "address": "静岡県浜松市中央区雄踏町宇布見9690",
      "code": "hyakumeiten_unagi_2024_restaurant_22030160",
      "lat": "34.69921946",
      "lng": "137.62271095",
      "geocode_source": "yahoo",
      "coordinate_level": "city",
      "normalized_address": "静岡県浜松市中央区雄踏町宇布見9690",
      "id": "unagi-67"
    },
    {
      "name": "國よし",
      "url": "https://tabelog.com/kanagawa/A1404/A140408/14000793/",
      "address": "神奈川県中郡大磯町大磯1085",
      "code": "hyakumeiten_unagi_2024_restaurant_14000793",
      "lat": "35.30819983",
      "lng": "139.31502705",
      "geocode_source": "yahoo",
      "coordinate_level": "city",
      "normalized_address": "神奈川県中郡大磯町大磯1085",
      "id": "unagi-68"
    },
    {
      "name": "うな貴",
      "url": "https://tabelog.com/miyagi/A0401/A040101/4000083/",
      "address": "宮城県仙台市青葉区国分町3-2-18",
      "code": "hyakumeiten_unagi_2024_restaurant_4000083",
      "lat": "38.266131",
      "lng": "140.869101",
      "geocode_source": "abr",
      "coordinate_level": "residential_block",
      "normalized_address": "宮城県仙台市青葉区国分町3丁目2-18",
      "id": "unagi-69"
    },
    {
      "name": "ぬりや 泉町大通り",
      "url": "https://tabelog.com/ibaraki/A0801/A080101/8001191/",
      "address": "茨城県水戸市泉町3-1-31",
      "code": "hyakumeiten_unagi_2024_restaurant_8001191",
      "lat": "36.37910655",
      "lng": "140.46197676",
      "geocode_source": "yahoo",
      "coordinate_level": "prefecture",
      "normalized_address": "茨城県水戸市泉町3-1-31",
      "id": "unagi-70"
    },
    {
      "name": "鰻う おか冨士",
      "url": "https://tabelog.com/aichi/A2301/A230102/23066002/",
      "address": "愛知県名古屋市中区栄1-6-15 御園座タワー 1F",
      "code": "hyakumeiten_unagi_2024_restaurant_23066002",
      "lat": "35.167271",
      "lng": "136.897026",
      "geocode_source": "abr",
      "coordinate_level": "residential_block",
      "normalized_address": "愛知県名古屋市中区栄一丁目6-15 御園座タワー 1F",
      "id": "unagi-71"
    },
    {
      "name": "入谷鬼子母神門前のだや",
      "url": "https://tabelog.com/tokyo/A1311/A131104/13152282/",
      "address": "東京都台東区下谷2-3-1",
      "code": "hyakumeiten_unagi_2024_restaurant_13152282",
      "lat": "35.720432",
      "lng": "139.782793",
      "geocode_source": "abr",
      "coordinate_level": "residential_block",
      "normalized_address": "東京都台東区下谷2丁目3-1",
      "id": "unagi-72"
    },
    {
      "name": "大國屋鰻兵衞",
      "url": "https://tabelog.com/kyoto/A2601/A260201/26030320/",
      "address": "京都府京都市中京区菊屋町534",
      "code": "hyakumeiten_unagi_2024_restaurant_26030320",
      "lat": "35.00516422",
      "lng": "135.76337401",
      "geocode_source": "yahoo",
      "coordinate_level": "prefecture",
      "normalized_address": "京都府京都市中京区菊屋町534",
      "id": "unagi-73"
    },
    {
      "name": "元祖 本吉屋 本店",
      "url": "https://tabelog.com/fukuoka/A4008/A400806/40001048/",
      "address": "福岡県柳川市旭町69",
      "code": "hyakumeiten_unagi_2024_restaurant_40001048",
      "lat": "33.1679606",
      "lng": "130.41106327",
      "geocode_source": "yahoo",
      "coordinate_level": "city",
      "normalized_address": "福岡県柳川市旭町69",
      "id": "unagi-74"
    },
    {
      "name": "明神下 神田川 本店",
      "url": "https://tabelog.com/tokyo/A1310/A131002/13000346/",
      "address": "東京都千代田区外神田2-5-11",
      "code": "hyakumeiten_unagi_2024_restaurant_13000346",
      "lat": "35.700459",
      "lng": "139.768947",
      "geocode_source": "abr",
      "coordinate_level": "residential_block",
      "normalized_address": "東京都千代田区外神田二丁目5-11",
      "id": "unagi-75"
    },
    {
      "name": "魚伊 本店",
      "url": "https://tabelog.com/osaka/A2701/A270304/27003671/",
      "address": "大阪府大阪市旭区高殿4-8-10",
      "code": "hyakumeiten_unagi_2024_restaurant_27003671",
      "lat": "34.71480786",
      "lng": "135.5425558",
      "geocode_source": "yahoo",
      "coordinate_level": "city",
      "normalized_address": "大阪府大阪市旭区高殿4丁目8-10",
      "id": "unagi-76"
    },
    {
      "name": "瞬",
      "url": "https://tabelog.com/shizuoka/A2201/A220101/22019273/",
      "address": "静岡県静岡市葵区有永町22-60",
      "code": "hyakumeiten_unagi_2024_restaurant_22019273",
      "lat": "35.03191626",
      "lng": "138.39086575",
      "geocode_source": "yahoo",
      "coordinate_level": "city",
      "normalized_address": "静岡県静岡市葵区有永町22-60",
      "id": "unagi-77"
    },
    {
      "name": "うなぎ 平八",
      "url": "https://tabelog.com/tokyo/A1317/A131704/13017676/",
      "address": "東京都大田区田園調布2-50-2",
      "code": "hyakumeiten_unagi_2024_restaurant_13017676",
      "lat": "35.597113",
      "lng": "139.668465",
      "geocode_source": "abr",
      "coordinate_level": "residential_block",
      "normalized_address": "東京都大田区田園調布二丁目50-2",
      "id": "unagi-78"
    },
    {
      "name": "石ばし",
      "url": "https://tabelog.com/tokyo/A1309/A130905/13003531/",
      "address": "東京都文京区水道2-4-29",
      "code": "hyakumeiten_unagi_2024_restaurant_13003531",
      "lat": "35.710016",
      "lng": "139.73824",
      "geocode_source": "abr",
      "coordinate_level": "residential_block",
      "normalized_address": "東京都文京区水道2丁目4-29",
      "id": "unagi-79"
    },
    {
      "name": "あつた蓬莱軒 本店",
      "url": "https://tabelog.com/aichi/A2301/A230112/23000063/",
      "address": "愛知県名古屋市熱田区神戸町503",
      "code": "hyakumeiten_unagi_2024_restaurant_23000063",
      "lat": "35.1201538",
      "lng": "136.90688331",
      "geocode_source": "yahoo",
      "coordinate_level": "city",
      "normalized_address": "愛知県名古屋市熱田区神戸町503",
      "id": "unagi-80"
    },
    {
      "name": "う嵐",
      "url": "https://tabelog.com/shiga/A2501/A250101/25004102/",
      "address": "滋賀県大津市浜大津3-3-2",
      "code": "hyakumeiten_unagi_2024_restaurant_25004102",
      "lat": "35.01160163",
      "lng": "135.85902902",
      "geocode_source": "yahoo",
      "coordinate_level": "city",
      "normalized_address": "滋賀県大津市浜大津三丁目3-2",
      "id": "unagi-81"
    },
    {
      "name": "うなぎ 浜名",
      "url": "https://tabelog.com/saitama/A1101/A110102/11003229/",
      "address": "埼玉県さいたま市浦和区仲町2-9-2 インフィニティうらわ １Ｆ",
      "code": "hyakumeiten_unagi_2024_restaurant_11003229",
      "lat": "35.861123",
      "lng": "139.651433",
      "geocode_source": "abr",
      "coordinate_level": "residential_block",
      "normalized_address": "埼玉県さいたま市浦和区仲町2丁目9-2 インフィニティうらわ 1F",
      "id": "unagi-82"
    },
    {
      "name": "辻屋",
      "url": "https://tabelog.com/gifu/A2102/A210204/21000002/",
      "address": "岐阜県関市本町5-14",
      "code": "hyakumeiten_unagi_2024_restaurant_21000002",
      "lat": "35.48614143",
      "lng": "136.91549012",
      "geocode_source": "yahoo",
      "coordinate_level": "city",
      "normalized_address": "岐阜県関市本町5丁目14",
      "id": "unagi-83"
    },
    {
      "name": "田舎庵 小倉本店",
      "url": "https://tabelog.com/fukuoka/A4004/A400401/40000419/",
      "address": "福岡県北九州市小倉北区鍛冶町1-1-13",
      "code": "hyakumeiten_unagi_2024_restaurant_40000419",
      "lat": "33.88354245",
      "lng": "130.88184555",
      "geocode_source": "yahoo",
      "coordinate_level": "city",
      "normalized_address": "福岡県北九州市小倉北区鍛冶町一丁目1-13",
      "id": "unagi-84"
    },
    {
      "name": "うなぎ　なか勝",
      "url": "https://tabelog.com/hiroshima/A3403/A340304/34003128/",
      "address": "広島県福山市沖野上町1-4-10",
      "code": "hyakumeiten_unagi_2024_restaurant_34003128",
      "lat": "34.47551368",
      "lng": "133.37672049",
      "geocode_source": "yahoo",
      "coordinate_level": "city",
      "normalized_address": "広島県福山市沖野上町一丁目4-10",
      "id": "unagi-85"
    },
    {
      "name": "麟",
      "url": "https://tabelog.com/shizuoka/A2202/A220201/22037448/",
      "address": "静岡県浜松市中央区千歳町42-2",
      "code": "hyakumeiten_unagi_2024_restaurant_22037448",
      "lat": "34.70320169",
      "lng": "137.72970381",
      "geocode_source": "yahoo",
      "coordinate_level": "city",
      "normalized_address": "静岡県浜松市中央区千歳町42-2",
      "id": "unagi-86"
    },
    {
      "name": "炭焼 うな富士 有楽町店",
      "url": "https://tabelog.com/tokyo/A1301/A130103/13250032/",
      "address": "東京都千代田区内幸町1-7-1 H12",
      "code": "hyakumeiten_unagi_2024_restaurant_13250032",
      "lat": "35.670837",
      "lng": "139.759478",
      "geocode_source": "abr",
      "coordinate_level": "residential_block",
      "normalized_address": "東京都千代田区内幸町一丁目7-1 H12",
      "id": "unagi-87"
    },
    {
      "name": "うなぎ屋酒坊・画荘 越後屋",
      "url": "https://tabelog.com/saitama/A1106/A110601/11002889/",
      "address": "埼玉県所沢市小手指町4-21-22",
      "code": "hyakumeiten_unagi_2024_restaurant_11002889",
      "lat": "35.79767358",
      "lng": "139.43637641",
      "geocode_source": "yahoo",
      "coordinate_level": "city",
      "normalized_address": "埼玉県所沢市小手指町4-21-22",
      "id": "unagi-88"
    },
    {
      "name": "うなふじ",
      "url": "https://tabelog.com/mie/A2401/A240101/24000800/",
      "address": "三重県津市高野尾町633-29",
      "code": "hyakumeiten_unagi_2024_restaurant_24000800",
      "lat": "34.78729538",
      "lng": "136.46866352",
      "geocode_source": "yahoo",
      "coordinate_level": "city",
      "normalized_address": "三重県津市高野尾町633-29",
      "id": "unagi-89"
    },
    {
      "name": "山の茶屋",
      "url": "https://tabelog.com/tokyo/A1308/A130802/13002739/",
      "address": "東京都千代田区永田町2-10-6",
      "code": "hyakumeiten_unagi_2024_restaurant_13002739",
      "lat": "35.67419",
      "lng": "139.740832",
      "geocode_source": "abr",
      "coordinate_level": "residential_block",
      "normalized_address": "東京都千代田区永田町二丁目10-6",
      "id": "unagi-90"
    },
    {
      "name": "小満津",
      "url": "https://tabelog.com/tokyo/A1319/A131904/13001079/",
      "address": "東京都杉並区和田3-62-3 １Ｆ",
      "code": "hyakumeiten_unagi_2024_restaurant_13001079",
      "lat": "35.697369",
      "lng": "139.661536",
      "geocode_source": "abr",
      "coordinate_level": "residential_block",
      "normalized_address": "東京都杉並区和田3丁目62-3 1F",
      "id": "unagi-91"
    },
    {
      "name": "うなぎ専門店 本多",
      "url": "https://tabelog.com/nagano/A2001/A200105/20001229/",
      "address": "長野県飯山市大字飯山福寿町1117",
      "code": "hyakumeiten_unagi_2024_restaurant_20001229",
      "lat": "34.68107502",
      "lng": "135.50978711",
      "geocode_source": "yahoo",
      "coordinate_level": "prefecture",
      "normalized_address": "長野県飯山市大字飯山福寿町1117",
      "id": "unagi-92"
    },
    {
      "name": "うなぎの豊川",
      "url": "https://tabelog.com/nara/A2901/A290102/29000217/",
      "address": "奈良県奈良市富雄元町3-3-12",
      "code": "hyakumeiten_unagi_2024_restaurant_29000217",
      "lat": "34.69249316",
      "lng": "135.73220882",
      "geocode_source": "yahoo",
      "coordinate_level": "prefecture",
      "normalized_address": "奈良県奈良市富雄元町3-3-12",
      "id": "unagi-93"
    },
    {
      "name": "鰻 小林",
      "url": "https://tabelog.com/nagano/A2004/A200404/20001043/",
      "address": "長野県諏訪市四賀赤沼1958-2",
      "code": "hyakumeiten_unagi_2024_restaurant_20001043",
      "lat": "34.68107502",
      "lng": "135.50978711",
      "geocode_source": "yahoo",
      "coordinate_level": "prefecture",
      "normalized_address": "長野県諏訪市四賀赤沼1958-2",
      "id": "unagi-94"
    },
    {
      "name": "神泉いちのや",
      "url": "https://tabelog.com/tokyo/A1303/A130301/13004659/",
      "address": "東京都渋谷区神泉町20-22 神泉ハイツ 1F",
      "code": "hyakumeiten_unagi_2024_restaurant_13004659",
      "lat": "35.656657",
      "lng": "139.691671",
      "geocode_source": "abr",
      "coordinate_level": "residential_block",
      "normalized_address": "東京都渋谷区神泉町20-22 神泉ハイツ 1F",
      "id": "unagi-95"
    },
    {
      "name": "活鰻の店 つぐみ庵",
      "url": "https://tabelog.com/tokyo/A1323/A132301/13080463/",
      "address": "東京都北区中里1-29-1",
      "code": "hyakumeiten_unagi_2024_restaurant_13080463",
      "lat": "35.738015",
      "lng": "139.752871",
      "geocode_source": "abr",
      "coordinate_level": "residential_block",
      "normalized_address": "東京都北区中里1丁目29-1",
      "id": "unagi-96"
    },
    {
      "name": "うな千",
      "url": "https://tabelog.com/gifu/A2103/A210301/21001486/",
      "address": "岐阜県多治見市青木町1",
      "code": "hyakumeiten_unagi_2024_restaurant_21001486",
      "lat": "35.33209663",
      "lng": "137.12637733",
      "geocode_source": "yahoo",
      "coordinate_level": "city",
      "normalized_address": "岐阜県多治見市青木町1",
      "id": "unagi-97"
    },
    {
      "name": "黒崎 田舎庵 日日屋",
      "url": "https://tabelog.com/fukuoka/A4004/A400404/40001099/",
      "address": "福岡県北九州市八幡西区黒崎4丁目1-22",
      "code": "hyakumeiten_unagi_2024_restaurant_40001099",
      "lat": "33.86420065",
      "lng": "130.76553678",
      "geocode_source": "yahoo",
      "coordinate_level": "city",
      "normalized_address": "福岡県北九州市八幡西区黒崎四丁目1-22",
      "id": "unagi-98"
    },
    {
      "name": "しげ吉",
      "url": "https://tabelog.com/gifu/A2102/A210204/21000054/",
      "address": "岐阜県関市山王通1-3-29",
      "code": "hyakumeiten_unagi_2024_restaurant_21000054",
      "lat": "35.48734368",
      "lng": "136.89871604",
      "geocode_source": "yahoo",
      "coordinate_level": "city",
      "normalized_address": "岐阜県関市山王通1丁目3-29",
      "id": "unagi-99"
    }
  ]
}
