{
  "shops": [{
    "name": "バックシュトゥーベ ツオップ",
    "url": "https://tabelog.com/chiba/A1203/A120302/12000514/",
    "address": "千葉県 松戸市 小金原 2-14-3 1Ｆ",
    "code": "hyakumeiten_bread_east_2020_restaurant_12000514",
    "lat": "35.824427",
    "lng": "139.94782",
    "id": "bread-0"
  }, {
    "name": "スーリープー",
    "url": "https://tabelog.com/aichi/A2301/A230105/23031040/",
    "address": "愛知県 名古屋市中区 千代田 2-16-20 安井ビル１０１",
    "code": "hyakumeiten_bread_east_2020_restaurant_23031040",
    "lat": "35.156404",
    "lng": "136.914767",
    "id": "bread-1"
  }, {
    "name": "ブラフベーカリー",
    "url": "https://tabelog.com/kanagawa/A1401/A140105/14038740/",
    "address": "神奈川県 横浜市中区 元町 2-80-9 ヒルクレストオグラ １Ｆ",
    "code": "hyakumeiten_bread_east_2020_restaurant_14038740",
    "lat": "35.438463",
    "lng": "139.649691",
    "id": "bread-2"
  }, {
    "name": "ブレッド＆サーカス",
    "url": "https://tabelog.com/kanagawa/A1410/A141002/14004024/",
    "address": "神奈川県 足柄下郡湯河原町 土肥 4-2-16",
    "code": "hyakumeiten_bread_east_2020_restaurant_14004024",
    "lat": "35.143394",
    "lng": "139.10368",
    "id": "bread-3"
  }, {
    "name": "トラン・ブルー",
    "url": "https://tabelog.com/gifu/A2104/A210401/21000586/",
    "address": "岐阜県 高山市 西之一色町 1-73-5",
    "code": "hyakumeiten_bread_east_2020_restaurant_21000586",
    "lat": "36.133379",
    "lng": "137.249695",
    "id": "bread-4"
  }, {
    "name": "キビヤベーカリー",
    "url": "https://tabelog.com/kanagawa/A1404/A140402/14014244/",
    "address": "神奈川県 鎌倉市 御成町 5-34",
    "code": "hyakumeiten_bread_east_2020_restaurant_14014244",
    "lat": "35.316488",
    "lng": "139.549137",
    "id": "bread-5"
  }, {
    "name": "ムール ア ラ ムール",
    "url": "https://tabelog.com/kanagawa/A1408/A140803/14035775/",
    "address": "神奈川県 伊勢原市 板戸 645-5",
    "code": "hyakumeiten_bread_east_2020_restaurant_14035775",
    "lat": "35.397979",
    "lng": "139.299097",
    "id": "bread-6"
  }, {
    "name": "ウチキパン",
    "url": "https://tabelog.com/kanagawa/A1401/A140105/14001139/",
    "address": "神奈川県 横浜市中区 元町 1-50",
    "code": "hyakumeiten_bread_east_2020_restaurant_14001139",
    "lat": "35.440598",
    "lng": "139.650877",
    "id": "bread-7"
  }, {
    "name": "Boulangerie Queue",
    "url": "https://tabelog.com/chiba/A1202/A120201/12021059/",
    "address": "千葉県 船橋市 坪井町 1380-4 （2010年より区画整理後、坪井東2－14－27となります）",
    "code": "hyakumeiten_bread_east_2020_restaurant_12021059",
    "lat": "35.730234",
    "lng": "140.060526",
    "id": "bread-8"
  }, {
    "name": "ベッカライ徳多朗 Yotsubako",
    "url": "https://tabelog.com/kanagawa/A1401/A140203/14043497/",
    "address": "神奈川県 横浜市都筑区 中川中央 1-1-5 Yotsubako 1Ｆ",
    "code": "hyakumeiten_bread_east_2020_restaurant_14043497",
    "lat": "35.553715",
    "lng": "139.579113",
    "id": "bread-9"
  }, {
    "name": "Le Supreme. 栄生本店",
    "url": "https://tabelog.com/aichi/A2301/A230113/23005960/",
    "address": "愛知県 名古屋市中村区 栄生町 7-8",
    "code": "hyakumeiten_bread_east_2020_restaurant_23005960",
    "lat": "35.182588",
    "lng": "136.872965",
    "id": "bread-10"
  }, {
    "name": "ドーレ",
    "url": "https://tabelog.com/kanagawa/A1401/A140101/14000421/",
    "address": "神奈川県 横浜市西区 北幸 1-3-23 横浜ベイシェラトン ホテル＆タワーズ B1F",
    "code": "hyakumeiten_bread_east_2020_restaurant_14000421",
    "lat": "35.466749",
    "lng": "139.620201",
    "id": "bread-11"
  }, {
    "name": "エコモ ベーカリー ヨコハマ モトマチ",
    "url": "https://tabelog.com/kanagawa/A1401/A140105/14059688/",
    "address": "神奈川県 横浜市中区 元町 1-13 元町プラザ 202",
    "code": "hyakumeiten_bread_east_2020_restaurant_14059688",
    "lat": "35.441505",
    "lng": "139.650943",
    "id": "bread-12"
  }, {
    "name": "ジャン・フランソワ 横浜ポルタ",
    "url": "https://tabelog.com/kanagawa/A1401/A140101/14043136/",
    "address": "神奈川県 横浜市西区 高島 2-16 横浜ポルタ",
    "code": "hyakumeiten_bread_east_2020_restaurant_14043136",
    "lat": "35.465228",
    "lng": "139.623477",
    "id": "bread-13"
  }, {
    "name": "エグ・ヴィヴ",
    "url": "https://tabelog.com/hokkaido/A0106/A010601/1004949/",
    "address": "北海道 小樽市 忍路 1-195",
    "code": "hyakumeiten_bread_east_2020_restaurant_1004949",
    "lat": "43.204985",
    "lng": "140.86946",
    "id": "bread-14"
  }, {
    "name": "ベッカライ 徳多朗 元石川本店",
    "url": "https://tabelog.com/kanagawa/A1401/A140201/14042306/",
    "address": "神奈川県 横浜市青葉区 元石川町 6300-7",
    "code": "hyakumeiten_bread_east_2020_restaurant_14042306",
    "lat": "35.584227",
    "lng": "139.543533",
    "id": "bread-15"
  }, {
    "name": "ベーグルショップ vivant",
    "url": "https://tabelog.com/saitama/A1101/A110102/11003565/",
    "address": "埼玉県 さいたま市南区 沼影 1-25-12",
    "code": "hyakumeiten_bread_east_2020_restaurant_11003565",
    "lat": "35.840864",
    "lng": "139.64236",
    "id": "bread-16"
  }, {
    "name": "穂の香 あざみ野",
    "url": "https://tabelog.com/kanagawa/A1401/A140201/14011303/",
    "address": "神奈川県 横浜市青葉区 新石川 1-22-1-102",
    "code": "hyakumeiten_bread_east_2020_restaurant_14011303",
    "lat": "35.570488",
    "lng": "139.557432",
    "id": "bread-17"
  }, {
    "name": "トツゼン ベーカーズ キッチン",
    "url": "https://tabelog.com/kanagawa/A1401/A140204/14004443/",
    "address": "神奈川県 横浜市港北区 大倉山 2-1-11",
    "code": "hyakumeiten_bread_east_2020_restaurant_14004443",
    "lat": "35.522192",
    "lng": "139.629547",
    "id": "bread-18"
  }, {
    "name": "ハルタ 軽井沢",
    "url": "https://tabelog.com/nagano/A2003/A200301/20011411/",
    "address": "長野県 北佐久郡軽井沢町 中軽井沢 3018-3",
    "code": "hyakumeiten_bread_east_2020_restaurant_20011411",
    "lat": "36.349663",
    "lng": "138.590665",
    "id": "bread-19"
  }, {
    "name": "セテュヌ ボンニデー",
    "url": "https://tabelog.com/kanagawa/A1405/A140506/14053039/",
    "address": "神奈川県 川崎市多摩区 登戸 1889 今野ビル 1F",
    "code": "hyakumeiten_bread_east_2020_restaurant_14053039",
    "lat": "35.618667",
    "lng": "139.562379",
    "id": "bread-20"
  }, {
    "name": "前田パン",
    "url": "https://tabelog.com/kanagawa/A1401/A140201/14041192/",
    "address": "神奈川県 横浜市青葉区 黒須田 33-5 タウンコートあざみ野 １F",
    "code": "hyakumeiten_bread_east_2020_restaurant_14041192",
    "lat": "35.569088",
    "lng": "139.534121",
    "id": "bread-21"
  }, {
    "name": "テーラ・テール",
    "url": "https://tabelog.com/aichi/A2301/A230104/23050735/",
    "address": "愛知県 名古屋市東区 泉 3-28-3",
    "code": "hyakumeiten_bread_east_2020_restaurant_23050735",
    "lat": "35.174843",
    "lng": "136.919163",
    "id": "bread-22"
  }, {
    "name": "ポンレヴェック",
    "url": "https://tabelog.com/aichi/A2302/A230202/23003662/",
    "address": "愛知県 海部郡蟹江町 学戸 2-38",
    "code": "hyakumeiten_bread_east_2020_restaurant_23003662",
    "lat": "35.136523",
    "lng": "136.786249",
    "id": "bread-23"
  }, {
    "name": "川越ベーカリー 楽楽",
    "url": "https://tabelog.com/saitama/A1103/A110303/11005320/",
    "address": "埼玉県 川越市 元町 2-10-13",
    "code": "hyakumeiten_bread_east_2020_restaurant_11005320",
    "lat": "35.924521",
    "lng": "139.481742",
    "id": "bread-24"
  }, {
    "name": "ブランジェリー ラ・フォンティヌ・ドゥ・ルルド",
    "url": "https://tabelog.com/hokkaido/A0101/A010105/1007040/",
    "address": "北海道 札幌市中央区 宮の森 4条12丁目10-1",
    "code": "hyakumeiten_bread_east_2020_restaurant_1007040",
    "lat": "43.054273",
    "lng": "141.29284",
    "id": "bread-25"
  }, {
    "name": "人舟",
    "url": "https://tabelog.com/chiba/A1205/A120504/12001352/",
    "address": "千葉県 長生郡長生村 入山津 803-2",
    "code": "hyakumeiten_bread_east_2020_restaurant_12001352",
    "lat": "35.418278",
    "lng": "140.392032",
    "id": "bread-26"
  }, {
    "name": "オープンオーブン",
    "url": "https://tabelog.com/chiba/A1202/A120202/12000978/",
    "address": "千葉県 市川市 市川 2-30-25",
    "code": "hyakumeiten_bread_east_2020_restaurant_12000978",
    "lat": "35.732621",
    "lng": "139.907011",
    "id": "bread-27"
  }, {
    "name": "cimai",
    "url": "https://tabelog.com/saitama/A1104/A110402/11012294/",
    "address": "埼玉県 幸手市 大字幸手2058-12",
    "code": "hyakumeiten_bread_east_2020_restaurant_11012294",
    "lat": "36.076619",
    "lng": "139.729976",
    "id": "bread-28"
  }, {
    "name": "Petit Riche",
    "url": "https://tabelog.com/saitama/A1101/A110102/11024415/",
    "address": "埼玉県 さいたま市南区 文蔵 2-1-4",
    "code": "hyakumeiten_bread_east_2020_restaurant_11024415",
    "lat": "35.84466",
    "lng": "139.669694",
    "id": "bread-29"
  }, {
    "name": "パンの店　ポルカ",
    "url": "https://tabelog.com/aichi/A2303/A230302/23008648/",
    "address": "愛知県 尾張旭市 東山町 1-2-5",
    "code": "hyakumeiten_bread_east_2020_restaurant_23008648",
    "lat": "35.199477",
    "lng": "137.018276",
    "id": "bread-30"
  }, {
    "name": "NAOZO",
    "url": "https://tabelog.com/tochigi/A0905/A090501/9002708/",
    "address": "栃木県 那須塩原市 西岩崎 232-454",
    "code": "hyakumeiten_bread_east_2020_restaurant_9002708",
    "lat": "37.028068",
    "lng": "139.981663",
    "id": "bread-31"
  }, {
    "name": "充麦",
    "url": "https://tabelog.com/kanagawa/A1406/A140603/14015303/",
    "address": "神奈川県 三浦市 初声町入江 54-2",
    "code": "hyakumeiten_bread_east_2020_restaurant_14015303",
    "lat": "35.188705",
    "lng": "139.62704",
    "id": "bread-32"
  }, {
    "name": "ブランジェリー ぱぴ・ぱん",
    "url": "https://tabelog.com/aichi/A2301/A230111/23004064/",
    "address": "愛知県 名古屋市天白区 植田 3-1209-1 サンテラスタカギ １Ｆ",
    "code": "hyakumeiten_bread_east_2020_restaurant_23004064",
    "lat": "35.128068",
    "lng": "136.988353",
    "id": "bread-33"
  }, {
    "name": "ブーランジェリー　ジン",
    "url": "https://tabelog.com/hokkaido/A0106/A010603/1004625/",
    "address": "北海道 虻田郡真狩村 桜川 45-8",
    "code": "hyakumeiten_bread_east_2020_restaurant_1004625",
    "lat": "42.753365",
    "lng": "140.776131",
    "id": "bread-34"
  }, {
    "name": "ル・プレジール・デュ・パン 東山本店",
    "url": "https://tabelog.com/aichi/A2301/A230107/23039677/",
    "address": "愛知県 名古屋市千種区 東山通 り4-17 黒川ビル1F",
    "code": "hyakumeiten_bread_east_2020_restaurant_23039677",
    "lat": "35.160907",
    "lng": "136.97089",
    "id": "bread-35"
  }, {
    "name": "zacro",
    "url": "https://tabelog.com/kanagawa/A1406/A140601/14012394/",
    "address": "神奈川県 横須賀市 ハイランド 1-5-2",
    "code": "hyakumeiten_bread_east_2020_restaurant_14012394",
    "lat": "35.221497",
    "lng": "139.693271",
    "id": "bread-36"
  }, {
    "name": "シャン ド ブレ",
    "url": "https://tabelog.com/kanagawa/A1401/A140206/14004229/",
    "address": "神奈川県 横浜市港北区 大豆戸町 1149",
    "code": "hyakumeiten_bread_east_2020_restaurant_14004229",
    "lat": "35.510585",
    "lng": "139.622916",
    "id": "bread-37"
  }, {
    "name": "マダムルージュ",
    "url": "https://tabelog.com/kanagawa/A1404/A140404/14046435/",
    "address": "神奈川県 藤沢市 朝日町 12-1 1F",
    "code": "hyakumeiten_bread_east_2020_restaurant_14046435",
    "lat": "35.3404",
    "lng": "139.490824",
    "id": "bread-38"
  }, {
    "name": "アーブル",
    "url": "https://tabelog.com/saitama/A1103/A110301/11022163/",
    "address": "埼玉県 朝霞市 根岸台 1-1-73 ｓｋ根岸台101",
    "code": "hyakumeiten_bread_east_2020_restaurant_11022163",
    "lat": "35.798521",
    "lng": "139.601986",
    "id": "bread-39"
  }, {
    "name": "ぱん吉",
    "url": "https://tabelog.com/hokkaido/A0101/A010101/1001468/",
    "address": "北海道 札幌市北区 北八条西 4-18",
    "code": "hyakumeiten_bread_east_2020_restaurant_1001468",
    "lat": "43.071065",
    "lng": "141.34863",
    "id": "bread-40"
  }, {
    "name": "ブーランジェリー コロン 本店",
    "url": "https://tabelog.com/hokkaido/A0101/A010102/1040487/",
    "address": "北海道 札幌市中央区 北2条東3丁目2-4 prod23 1F",
    "code": "hyakumeiten_bread_east_2020_restaurant_1040487",
    "lat": "43.064615",
    "lng": "141.359959",
    "id": "bread-41"
  }, {
    "name": "ルヴァン 信州上田店",
    "url": "https://tabelog.com/nagano/A2004/A200401/20000537/",
    "address": "長野県 上田市 中央 4-7-31",
    "code": "hyakumeiten_bread_east_2020_restaurant_20000537",
    "lat": "36.405834",
    "lng": "138.252912",
    "id": "bread-42"
  }, {
    "name": "のり蔵",
    "url": "https://tabelog.com/kanagawa/A1401/A140105/14057349/",
    "address": "神奈川県 横浜市中区 山下町 81 1F",
    "code": "hyakumeiten_bread_east_2020_restaurant_14057349",
    "lat": "35.443136",
    "lng": "139.648185",
    "id": "bread-43"
  }, {
    "name": "ベッカライ・ブロートツァイト",
    "url": "https://tabelog.com/ibaraki/A0802/A080201/8001938/",
    "address": "茨城県 つくば市 天久保 2丁目10-20",
    "code": "hyakumeiten_bread_east_2020_restaurant_8001938",
    "lat": "36.097067",
    "lng": "140.109005",
    "id": "bread-44"
  }, {
    "name": "アサカベーカリー 朝霞台店",
    "url": "https://tabelog.com/saitama/A1103/A110301/11003063/",
    "address": "埼玉県 朝霞市 西弁財 1-7-35",
    "code": "hyakumeiten_bread_east_2020_restaurant_11003063",
    "lat": "35.814731",
    "lng": "139.584007",
    "id": "bread-45"
  }, {
    "name": "白楽ベーグル",
    "url": "https://tabelog.com/kanagawa/A1401/A140205/14034186/",
    "address": "神奈川県 横浜市神奈川区 六角橋 3-3-15",
    "code": "hyakumeiten_bread_east_2020_restaurant_14034186",
    "lat": "35.486568",
    "lng": "139.622764",
    "id": "bread-46"
  }, {
    "name": "ブーランジェリー エス",
    "url": "https://tabelog.com/kanagawa/A1406/A140602/14008269/",
    "address": "神奈川県 逗子市 逗子 7-6-31",
    "code": "hyakumeiten_bread_east_2020_restaurant_14008269",
    "lat": "35.296524",
    "lng": "139.575717",
    "id": "bread-47"
  }, {
    "name": "クーネルベーカリー",
    "url": "https://tabelog.com/saitama/A1101/A110102/11028957/",
    "address": "埼玉県 さいたま市浦和区 東高砂町 9号20番 岸ビル1F",
    "code": "hyakumeiten_bread_east_2020_restaurant_11028957",
    "lat": "35.857382",
    "lng": "139.658898",
    "id": "bread-48"
  }, {
    "name": "ブレドール",
    "url": "https://tabelog.com/kanagawa/A1406/A140602/14002514/",
    "address": "神奈川県 三浦郡葉山町 一色 657-1",
    "code": "hyakumeiten_bread_east_2020_restaurant_14002514",
    "lat": "35.265097",
    "lng": "139.592209",
    "id": "bread-49"
  }, {
    "name": "テトラ コンタ",
    "url": "https://tabelog.com/aichi/A2301/A230104/23037293/",
    "address": "愛知県 名古屋市東区 白壁 3-24-58 日興コーポラス 1F",
    "code": "hyakumeiten_bread_east_2020_restaurant_23037293",
    "lat": "35.18486",
    "lng": "136.918919",
    "id": "bread-50"
  }, {
    "name": "ベッカライサカツジ",
    "url": "https://tabelog.com/saitama/A1102/A110205/11034449/",
    "address": "埼玉県 三郷市 彦成 3-392-2",
    "code": "hyakumeiten_bread_east_2020_restaurant_11034449",
    "lat": "35.855537",
    "lng": "139.857664",
    "id": "bread-51"
  }, {
    "name": "アサカベーカリー 本町店",
    "url": "https://tabelog.com/saitama/A1103/A110301/11006122/",
    "address": "埼玉県 朝霞市 本町 2-21-36",
    "code": "hyakumeiten_bread_east_2020_restaurant_11006122",
    "lat": "35.798809",
    "lng": "139.599367",
    "id": "bread-52"
  }, {
    "name": "ブーランジェリー パティスリー トレトゥール アダチ",
    "url": "https://tabelog.com/kanagawa/A1401/A140203/14070721/",
    "address": "神奈川県 横浜市都筑区 茅ケ崎中央 22-15 ルーナレガーロ 1F",
    "code": "hyakumeiten_bread_east_2020_restaurant_14070721",
    "lat": "35.543036",
    "lng": "139.571371",
    "id": "bread-53"
  }, {
    "name": "ブーランジェリー 14区",
    "url": "https://tabelog.com/kanagawa/A1401/A140205/14049332/",
    "address": "神奈川県 横浜市港北区 菊名 1-4-2",
    "code": "hyakumeiten_bread_east_2020_restaurant_14049332",
    "lat": "35.498311",
    "lng": "139.632608",
    "id": "bread-54"
  }, {
    "name": "守谷製パン店",
    "url": "https://tabelog.com/kanagawa/A1409/A140901/14003916/",
    "address": "神奈川県 小田原市 栄町 2-2-2",
    "code": "hyakumeiten_bread_east_2020_restaurant_14003916",
    "lat": "35.256488",
    "lng": "139.157333",
    "id": "bread-55"
  }, {
    "name": "VANITOY BAGEL 蔵づくり本店",
    "url": "https://tabelog.com/saitama/A1103/A110303/11003096/",
    "address": "埼玉県 川越市 幸町 10-3",
    "code": "hyakumeiten_bread_east_2020_restaurant_11003096",
    "lat": "35.924254",
    "lng": "139.483302",
    "id": "bread-56"
  }, {
    "name": "エスプラン",
    "url": "https://tabelog.com/kanagawa/A1401/A140210/14012214/",
    "address": "神奈川県 横浜市鶴見区 鶴見中央 4-1-7",
    "code": "hyakumeiten_bread_east_2020_restaurant_14012214",
    "lat": "35.506895",
    "lng": "139.678021",
    "id": "bread-57"
  }, {
    "name": "バゲット ラビット",
    "url": "https://tabelog.com/aichi/A2301/A230111/23058942/",
    "address": "愛知県 名古屋市名東区 社口 1-916",
    "code": "hyakumeiten_bread_east_2020_restaurant_23058942",
    "lat": "35.17643",
    "lng": "136.998125",
    "id": "bread-58"
  }, {
    "name": "boulangerie Matsuoka",
    "url": "https://tabelog.com/saitama/A1105/A110501/11003805/",
    "address": "埼玉県 熊谷市 宮町 2-180",
    "code": "hyakumeiten_bread_east_2020_restaurant_11003805",
    "lat": "36.145117",
    "lng": "139.388272",
    "id": "bread-59"
  }, {
    "name": "パリゼット",
    "url": "https://tabelog.com/saitama/A1104/A110401/11028894/",
    "address": "埼玉県 上尾市大字小泉8-22",
    "code": "hyakumeiten_bread_east_2020_restaurant_11028894",
    "lat": "35.967368",
    "lng": "139.564019",
    "id": "bread-60"
  }, {
    "name": "小春日和",
    "url": "https://tabelog.com/saitama/A1101/A110101/11004747/",
    "address": "埼玉県 さいたま市大宮区 堀の内町 3-39-1",
    "code": "hyakumeiten_bread_east_2020_restaurant_11004747",
    "lat": "35.913296",
    "lng": "139.634301",
    "id": "bread-61"
  }, {
    "name": "オンザディッシュ",
    "url": "https://tabelog.com/kanagawa/A1401/A140106/14041169/",
    "address": "神奈川県 横浜市中区 仲尾台 40",
    "code": "hyakumeiten_bread_east_2020_restaurant_14041169",
    "lat": "35.425157",
    "lng": "139.644034",
    "id": "bread-62"
  }, {
    "name": "ル シュプレーム ジェイアール名古屋高島屋店",
    "url": "https://tabelog.com/aichi/A2301/A230101/23052895/",
    "address": "愛知県 名古屋市中村区 名駅 1-1-4 ジェイアール名古屋タカシマヤ B2F",
    "code": "hyakumeiten_bread_east_2020_restaurant_23052895",
    "lat": "35.170967",
    "lng": "136.882739",
    "id": "bread-63"
  }, {
    "name": "ラパン ノワール くろうさぎ",
    "url": "https://tabelog.com/saitama/A1107/A110701/11003478/",
    "address": "埼玉県 秩父市 野坂町 1-18-12",
    "code": "hyakumeiten_bread_east_2020_restaurant_11003478",
    "lat": "35.98797",
    "lng": "139.083192",
    "id": "bread-64"
  }, {
    "name": "鎌倉 利々庵",
    "url": "https://tabelog.com/kanagawa/A1404/A140402/14046895/",
    "address": "神奈川県 鎌倉市 御成町 10-19",
    "code": "hyakumeiten_bread_east_2020_restaurant_14046895",
    "lat": "35.31825",
    "lng": "139.548834",
    "id": "bread-65"
  }, {
    "name": "ブーランジェリー オンニ",
    "url": "https://tabelog.com/kanagawa/A1401/A140307/14060669/",
    "address": "神奈川県 横浜市港南区 上大岡西 3-10-1",
    "code": "hyakumeiten_bread_east_2020_restaurant_14060669",
    "lat": "35.403382",
    "lng": "139.597796",
    "id": "bread-66"
  }, {
    "name": "mbs 46.7",
    "url": "https://tabelog.com/kanagawa/A1404/A140402/14042523/",
    "address": "神奈川県 鎌倉市 大町 1-1-13 Walk大町",
    "code": "hyakumeiten_bread_east_2020_restaurant_14042523",
    "lat": "35.315723",
    "lng": "139.551451",
    "id": "bread-67"
  }, {
    "name": "みやび亭",
    "url": "https://tabelog.com/saitama/A1104/A110403/11035931/",
    "address": "埼玉県 羽生市 東7-11-6",
    "code": "hyakumeiten_bread_east_2020_restaurant_11035931",
    "lat": "36.171429",
    "lng": "139.548427",
    "id": "bread-68"
  }, {
    "name": "芦名ベーカリー 芦兵衛",
    "url": "https://tabelog.com/kanagawa/A1406/A140601/14052229/",
    "address": "神奈川県 横須賀市 芦名 1-31-3",
    "code": "hyakumeiten_bread_east_2020_restaurant_14052229",
    "lat": "35.234972",
    "lng": "139.608646",
    "id": "bread-69"
  }, {
    "name": "ラフォレ・エ・ラターブル",
    "url": "https://tabelog.com/kanagawa/A1404/A140402/14050307/",
    "address": "神奈川県 鎌倉市 由比ヶ浜1-3-16 コンフォート由比ヶ浜1-A 1階",
    "code": "hyakumeiten_bread_east_2020_restaurant_14050307",
    "lat": "35.315672",
    "lng": "139.546676",
    "id": "bread-70"
  }, {
    "name": "トースト ネイバーフッド ベイカリー",
    "url": "https://tabelog.com/kanagawa/A1401/A140106/14037517/",
    "address": "神奈川県 横浜市中区 本郷町 1-25",
    "code": "hyakumeiten_bread_east_2020_restaurant_14037517",
    "lat": "35.432537",
    "lng": "139.654386",
    "id": "bread-71"
  }, {
    "name": "プーフレカンテ",
    "url": "https://tabelog.com/aichi/A2301/A230112/23002593/",
    "address": "愛知県 名古屋市瑞穂区 豊岡通 1-25 シャンボール近藤 １Ｆ",
    "code": "hyakumeiten_bread_east_2020_restaurant_23002593",
    "lat": "35.126431",
    "lng": "136.930554",
    "id": "bread-72"
  }, {
    "name": "天然酵母パン工房 KIBIYAベーカリー 段葛店",
    "url": "https://tabelog.com/kanagawa/A1404/A140402/14004671/",
    "address": "神奈川県 鎌倉市 小町 2丁目13-1",
    "code": "hyakumeiten_bread_east_2020_restaurant_14004671",
    "lat": "35.321324",
    "lng": "139.553759",
    "id": "bread-73"
  }, {
    "name": "Boulanger ペイザン",
    "url": "https://tabelog.com/gifu/A2102/A210204/21000884/",
    "address": "岐阜県 関市 池田町 66",
    "code": "hyakumeiten_bread_east_2020_restaurant_21000884",
    "lat": "35.495993",
    "lng": "136.898044",
    "id": "bread-74"
  }, {
    "name": "アドゥマン",
    "url": "https://tabelog.com/miyagi/A0401/A040104/4012831/",
    "address": "宮城県 仙台市泉区 泉中央 1-9-4 レジュイール泉 1F",
    "code": "hyakumeiten_bread_east_2020_restaurant_4012831",
    "lat": "38.321297",
    "lng": "140.880366",
    "id": "bread-75"
  }, {
    "name": "ラ ベルコリーヌ",
    "url": "https://tabelog.com/kanagawa/A1401/A140201/14000431/",
    "address": "神奈川県 横浜市青葉区 美しが丘 1-9-1",
    "code": "hyakumeiten_bread_east_2020_restaurant_14000431",
    "lat": "35.579158",
    "lng": "139.556397",
    "id": "bread-76"
  }, {
    "name": "ベルテコ",
    "url": "https://tabelog.com/saitama/A1106/A110601/11003447/",
    "address": "埼玉県 所沢市 東所沢和田 2-3-14",
    "code": "hyakumeiten_bread_east_2020_restaurant_11003447",
    "lat": "35.795976",
    "lng": "139.510522",
    "id": "bread-77"
  }, {
    "name": "パンヤコット",
    "url": "https://tabelog.com/kanagawa/A1406/A140602/14009181/",
    "address": "神奈川県 逗子市 新宿 4-13-7",
    "code": "hyakumeiten_bread_east_2020_restaurant_14009181",
    "lat": "35.300374",
    "lng": "139.566573",
    "id": "bread-78"
  }, {
    "name": "カマクラ 24セッキ",
    "url": "https://tabelog.com/kanagawa/A1404/A140402/14040510/",
    "address": "神奈川県 鎌倉市 常盤 923-8",
    "code": "hyakumeiten_bread_east_2020_restaurant_14040510",
    "lat": "35.321636",
    "lng": "139.534344",
    "id": "bread-79"
  }, {
    "name": "ペニー・レイン 那須店",
    "url": "https://tabelog.com/tochigi/A0905/A090501/9000301/",
    "address": "栃木県 那須郡那須町 大字湯本656-2",
    "code": "hyakumeiten_bread_east_2020_restaurant_9000301",
    "lat": "37.068861",
    "lng": "140.000052",
    "id": "bread-80"
  }, {
    "name": "福田パン 長田町本店",
    "url": "https://tabelog.com/iwate/A0301/A030101/3001022/",
    "address": "岩手県 盛岡市 長田町 12-11",
    "code": "hyakumeiten_bread_east_2020_restaurant_3001022",
    "lat": "39.70823",
    "lng": "141.142113",
    "id": "bread-81"
  }, {
    "name": "美瑛選果 新千歳空港店",
    "url": "https://tabelog.com/hokkaido/A0107/A010701/1034722/",
    "address": "北海道 千歳市 美々 新千歳空港ターミナルビル ナルビル 2F",
    "code": "hyakumeiten_bread_east_2020_restaurant_1034722",
    "lat": "42.787033",
    "lng": "141.681907",
    "id": "bread-82"
  }, {
    "name": "ベーカリー＆テーブル 東府や",
    "url": "https://tabelog.com/shizuoka/A2205/A220504/22021103/",
    "address": "静岡県 伊豆市 吉奈 98 東府や Resort&Spa-Izu",
    "code": "hyakumeiten_bread_east_2020_restaurant_22021103",
    "lat": "34.905027",
    "lng": "138.913558",
    "id": "bread-83"
  }, {
    "name": "サカエパン",
    "url": "https://tabelog.com/gifu/A2101/A210101/21000648/",
    "address": "岐阜県 岐阜市 加納栄町通 1-9",
    "code": "hyakumeiten_bread_east_2020_restaurant_21000648",
    "lat": "35.40808",
    "lng": "136.756455",
    "id": "bread-84"
  }, {
    "name": "ココペライ",
    "url": "https://tabelog.com/hokkaido/A0101/A010102/1008888/",
    "address": "北海道 札幌市中央区 北7条西18丁目4-10",
    "code": "hyakumeiten_bread_east_2020_restaurant_1008888",
    "lat": "43.066296",
    "lng": "141.32669",
    "id": "bread-85"
  }, {
    "name": "プルクワ",
    "url": "https://tabelog.com/kanagawa/A1404/A140404/14004623/",
    "address": "神奈川県 藤沢市 辻堂元町 4-17-11",
    "code": "hyakumeiten_bread_east_2020_restaurant_14004623",
    "lat": "35.33129",
    "lng": "139.459333",
    "id": "bread-86"
  }, {
    "name": "ダヴィッド パン",
    "url": "https://tabelog.com/ibaraki/A0803/A080302/8000928/",
    "address": "茨城県 つくば市 牧園 7-11",
    "code": "hyakumeiten_bread_east_2020_restaurant_8000928",
    "lat": "36.020761",
    "lng": "140.128671",
    "id": "bread-87"
  }, {
    "name": "nico",
    "url": "https://tabelog.com/kanagawa/A1404/A140407/14054459/",
    "address": "神奈川県 平塚市 宮松町 7-2 落合ビル 1F",
    "code": "hyakumeiten_bread_east_2020_restaurant_14054459",
    "lat": "35.333959",
    "lng": "139.350858",
    "id": "bread-88"
  }, {
    "name": "nichinichi",
    "url": "https://tabelog.com/kanagawa/A1405/A140508/14065922/",
    "address": "神奈川県 川崎市麻生区 万福寺 4-8-4 ペルナ 101号",
    "code": "hyakumeiten_bread_east_2020_restaurant_14065922",
    "lat": "35.608384",
    "lng": "139.508763",
    "id": "bread-89"
  }, {
    "name": "ブーランジェリー メチエ パークシティ武蔵小杉ザ・ガーデン",
    "url": "https://tabelog.com/kanagawa/A1405/A140504/14071269/",
    "address": "神奈川県 川崎市中原区 小杉町 2-276-1 パークシティ武蔵小杉ザ・ガーデン 1F",
    "code": "hyakumeiten_bread_east_2020_restaurant_14071269",
    "lat": "35.577618",
    "lng": "139.656826",
    "id": "bread-90"
  }, {
    "name": "渡邊ベーカリー",
    "url": "https://tabelog.com/kanagawa/A1410/A141001/14003548/",
    "address": "神奈川県 足柄下郡箱根町 宮ノ下 343-3",
    "code": "hyakumeiten_bread_east_2020_restaurant_14003548",
    "lat": "35.244587",
    "lng": "139.058392",
    "id": "bread-91"
  }, {
    "name": "ピコット 本店",
    "url": "https://tabelog.com/kanagawa/A1410/A141001/14007490/",
    "address": "神奈川県 足柄下郡箱根町 宮ノ下 359 富士屋ホテル",
    "code": "hyakumeiten_bread_east_2020_restaurant_14007490",
    "lat": "35.244175",
    "lng": "139.058996",
    "id": "bread-92"
  }, {
    "name": "大須ベーカリー",
    "url": "https://tabelog.com/aichi/A2301/A230105/23005844/",
    "address": "愛知県 名古屋市中区 大須 3-27-18",
    "code": "hyakumeiten_bread_east_2020_restaurant_23005844",
    "lat": "35.15902",
    "lng": "136.90397",
    "id": "bread-93"
  }, {
    "name": "フランスベ－カリー",
    "url": "https://tabelog.com/nagano/A2003/A200301/20000200/",
    "address": "長野県 北佐久郡軽井沢町 大字軽井沢旧軽井沢618",
    "code": "hyakumeiten_bread_east_2020_restaurant_20000200",
    "lat": "36.357825",
    "lng": "138.634874",
    "id": "bread-94"
  }, {
    "name": "麦音",
    "url": "https://tabelog.com/hokkaido/A0111/A011101/1021428/",
    "address": "北海道 帯広市 稲田町南 8線西16-43",
    "code": "hyakumeiten_bread_east_2020_restaurant_1021428",
    "lat": "42.890524",
    "lng": "143.191681",
    "id": "bread-95"
  }, {
    "name": "中屋パン",
    "url": "https://tabelog.com/aichi/A2301/A230106/23004452/",
    "address": "愛知県 名古屋市千種区 今池 1-9-16",
    "code": "hyakumeiten_bread_east_2020_restaurant_23004452",
    "lat": "35.168409",
    "lng": "136.936534",
    "id": "bread-96"
  }, {
    "name": "ル・フィヤージュ",
    "url": "https://tabelog.com/shizuoka/A2205/A220503/22003252/",
    "address": "静岡県 伊東市 八幡野 1305-75",
    "code": "hyakumeiten_bread_east_2020_restaurant_22003252",
    "lat": "34.88441",
    "lng": "139.10372",
    "id": "bread-97"
  }, {
    "name": "モン・ペシェ・ミニョン",
    "url": "https://tabelog.com/kanagawa/A1404/A140402/14041555/",
    "address": "神奈川県 鎌倉市 雪ノ下 4-3-17",
    "code": "hyakumeiten_bread_east_2020_restaurant_14041555",
    "lat": "35.323302",
    "lng": "139.561608",
    "id": "bread-98"
  }, {
    "name": "おかめや 工場直販店",
    "url": "https://tabelog.com/hokkaido/A0101/A010204/1025633/",
    "address": "北海道 札幌市西区 発寒16条4丁目5-1",
    "code": "hyakumeiten_bread_east_2020_restaurant_1025633",
    "lat": "43.108303",
    "lng": "141.291621",
    "id": "bread-99"
  }, {
    "name": "ラトリエ ドゥ プレジール",
    "url": "https://tabelog.com/tokyo/A1318/A131814/13050412/",
    "address": "東京都 世田谷区 砧 8-13-8 ジベ成城 １Ｆ",
    "code": "hyakumeiten_bread_tokyo_2020_restaurant_13050412",
    "lat": "35.641603",
    "lng": "139.605792",
    "id": "bread-100"
  }, {
    "name": "セントル ザ・ベーカリー",
    "url": "https://tabelog.com/tokyo/A1301/A130101/13157424/",
    "address": "東京都 中央区 銀座 1-2-1 東京高速道路紺屋ビル 1F",
    "code": "hyakumeiten_bread_tokyo_2020_restaurant_13157424",
    "lat": "35.675182",
    "lng": "139.767881",
    "id": "bread-101"
  }, {
    "name": "シニフィアン シニフィエ 世田谷本店",
    "url": "https://tabelog.com/tokyo/A1317/A131706/13030788/",
    "address": "東京都 世田谷区 下馬 2-43-11 1F",
    "code": "hyakumeiten_bread_tokyo_2020_restaurant_13030788",
    "lat": "35.643389",
    "lng": "139.679623",
    "id": "bread-102"
  }, {
    "name": "シニフィアン シニフィエ 日本橋タカシマヤ店",
    "url": "https://tabelog.com/tokyo/A1302/A130202/13054419/",
    "address": "東京都 中央区 日本橋 2-4-1 日本橋タカシマヤ B1F",
    "code": "hyakumeiten_bread_tokyo_2020_restaurant_13054419",
    "lat": "35.680801",
    "lng": "139.773511",
    "id": "bread-103"
  }, {
    "name": "ブーランジェリー セイジアサクラ",
    "url": "https://tabelog.com/tokyo/A1316/A131603/13055881/",
    "address": "東京都 港区 高輪 2-6-20 朝日高輪マンション104号",
    "code": "hyakumeiten_bread_tokyo_2020_restaurant_13055881",
    "lat": "35.635984",
    "lng": "139.733316",
    "id": "bread-104"
  }, {
    "name": "VIRON 渋谷店",
    "url": "https://tabelog.com/tokyo/A1303/A130301/13004626/",
    "address": "東京都 渋谷区 宇田川町 33-8 塚田ビル 1F",
    "code": "hyakumeiten_bread_tokyo_2020_restaurant_13004626",
    "lat": "35.66091",
    "lng": "139.69681",
    "id": "bread-105"
  }, {
    "name": "ブーランジェリー スドウ",
    "url": "https://tabelog.com/tokyo/A1317/A131709/13098861/",
    "address": "東京都 世田谷区 世田谷 4-3-14",
    "code": "hyakumeiten_bread_tokyo_2020_restaurant_13098861",
    "lat": "35.643743",
    "lng": "139.654899",
    "id": "bread-106"
  }, {
    "name": "VIRON",
    "url": "https://tabelog.com/tokyo/A1302/A130201/13043904/",
    "address": "東京都 千代田区 丸の内 2-7-3 東京ビルTOKIA 1F",
    "code": "hyakumeiten_bread_tokyo_2020_restaurant_13043904",
    "lat": "35.678495",
    "lng": "139.764977",
    "id": "bread-107"
  }, {
    "name": "ル・ルソール",
    "url": "https://tabelog.com/tokyo/A1318/A131801/13026653/",
    "address": "東京都 目黒区 駒場 3-11-14 明和ビル １Ｆ",
    "code": "hyakumeiten_bread_tokyo_2020_restaurant_13026653",
    "lat": "35.659519",
    "lng": "139.681519",
    "id": "bread-108"
  }, {
    "name": "まちのパーラー",
    "url": "https://tabelog.com/tokyo/A1321/A132101/13126515/",
    "address": "東京都 練馬区 小竹町 2-40-4 1階",
    "code": "hyakumeiten_bread_tokyo_2020_restaurant_13126515",
    "lat": "35.74325",
    "lng": "139.677993",
    "id": "bread-109"
  }, {
    "name": "マルイチベーグル",
    "url": "https://tabelog.com/tokyo/A1316/A131602/13010793/",
    "address": "東京都 港区 白金 1-15-22",
    "code": "hyakumeiten_bread_tokyo_2020_restaurant_13010793",
    "lat": "35.645451",
    "lng": "139.73303",
    "id": "bread-110"
  }, {
    "name": "SONKA",
    "url": "https://tabelog.com/tokyo/A1319/A131905/13174215/",
    "address": "東京都 杉並区 成田東 2-33-9",
    "code": "hyakumeiten_bread_tokyo_2020_restaurant_13174215",
    "lat": "35.692011",
    "lng": "139.636413",
    "id": "bread-111"
  }, {
    "name": "パンのペリカン",
    "url": "https://tabelog.com/tokyo/A1311/A131102/13003662/",
    "address": "東京都 台東区 寿 4-7-4",
    "code": "hyakumeiten_bread_tokyo_2020_restaurant_13003662",
    "lat": "35.708519",
    "lng": "139.79146",
    "id": "bread-112"
  }, {
    "name": "ポワンエリーニュ",
    "url": "https://tabelog.com/tokyo/A1302/A130201/13038468/",
    "address": "東京都 千代田区 丸の内 1-5-1 新丸の内ビルディング B1F",
    "code": "hyakumeiten_bread_tokyo_2020_restaurant_13038468",
    "lat": "35.682621",
    "lng": "139.764244",
    "id": "bread-113"
  }, {
    "name": "ユヌクレ",
    "url": "https://tabelog.com/tokyo/A1318/A131813/13132250/",
    "address": "東京都 世田谷区 松原 6-43-6 A101",
    "code": "hyakumeiten_bread_tokyo_2020_restaurant_13132250",
    "lat": "35.65606",
    "lng": "139.6487",
    "id": "bread-114"
  }, {
    "name": "パンとエスプレッソと",
    "url": "https://tabelog.com/tokyo/A1306/A130602/13090477/",
    "address": "東京都 渋谷区 神宮前 3-4-9",
    "code": "hyakumeiten_bread_tokyo_2020_restaurant_13090477",
    "lat": "35.668893",
    "lng": "139.712677",
    "id": "bread-115"
  }, {
    "name": "墨繪パン 新宿店",
    "url": "https://tabelog.com/tokyo/A1304/A130401/13000762/",
    "address": "東京都 新宿区 西新宿 1-1-2 新宿メトロ食堂街 B1F",
    "code": "hyakumeiten_bread_tokyo_2020_restaurant_13000762",
    "lat": "35.690911",
    "lng": "139.699195",
    "id": "bread-116"
  }, {
    "name": "ポワンタージュ",
    "url": "https://tabelog.com/tokyo/A1307/A130702/13004566/",
    "address": "東京都 港区 麻布十番 3-3-10",
    "code": "hyakumeiten_bread_tokyo_2020_restaurant_13004566",
    "lat": "35.653634",
    "lng": "139.735626",
    "id": "bread-117"
  }, {
    "name": "ダンディゾン",
    "url": "https://tabelog.com/tokyo/A1320/A132001/13005834/",
    "address": "東京都 武蔵野市 吉祥寺本町 2-28-2 B1F",
    "code": "hyakumeiten_bread_tokyo_2020_restaurant_13005834",
    "lat": "35.706475",
    "lng": "139.576089",
    "id": "bread-118"
  }, {
    "name": "365日",
    "url": "https://tabelog.com/tokyo/A1318/A131810/13164031/",
    "address": "東京都 渋谷区 富ヶ谷 1-6-12",
    "code": "hyakumeiten_bread_tokyo_2020_restaurant_13164031",
    "lat": "35.669212",
    "lng": "139.689612",
    "id": "bread-119"
  }, {
    "name": "パネッテリア・アリエッタ 五反田本店",
    "url": "https://tabelog.com/tokyo/A1316/A131603/13019888/",
    "address": "東京都 品川区 東五反田 2-5-1 ルネッサンスビル １Ｆ",
    "code": "hyakumeiten_bread_tokyo_2020_restaurant_13019888",
    "lat": "35.625429",
    "lng": "139.727945",
    "id": "bread-120"
  }, {
    "name": "ラ ブティック ドゥ ジョエル・ロブション 丸の内ブリックスクエア店",
    "url": "https://tabelog.com/tokyo/A1302/A130201/13096409/",
    "address": "東京都 千代田区 丸の内 二丁目6番1号 丸の内ブリックスクエア1階",
    "code": "hyakumeiten_bread_tokyo_2020_restaurant_13096409",
    "lat": "35.678881",
    "lng": "139.76272",
    "id": "bread-121"
  }, {
    "name": "ル パン ドゥ ジョエル・ロブション 渋谷ヒカリエShinQs店",
    "url": "https://tabelog.com/tokyo/A1303/A130301/13140263/",
    "address": "東京都 渋谷区 渋谷 2-21-1 渋谷ヒカリエ B2F",
    "code": "hyakumeiten_bread_tokyo_2020_restaurant_13140263",
    "lat": "35.659124",
    "lng": "139.70373",
    "id": "bread-122"
  }, {
    "name": "ラ ブティック ドゥ ジョエル・ロブション 六本木ヒルズ店",
    "url": "https://tabelog.com/tokyo/A1307/A130701/13020237/",
    "address": "東京都 港区 六本木 6-10-1 六本木ヒルズ ヒルサイド 2F",
    "code": "hyakumeiten_bread_tokyo_2020_restaurant_13020237",
    "lat": "35.660339",
    "lng": "139.730022",
    "id": "bread-123"
  }, {
    "name": "ラ ブティック ドゥ ジョエル・ロブション 恵比寿ガーデンプレイス店",
    "url": "https://tabelog.com/tokyo/A1303/A130302/13014064/",
    "address": "東京都 目黒区 三田 1-13-1 恵比寿ガーデンプレイス シャトーレストラン ジョエル・ロブション Ｂ１Ｆ",
    "code": "hyakumeiten_bread_tokyo_2020_restaurant_13014064",
    "lat": "35.641932",
    "lng": "139.714583",
    "id": "bread-124"
  }, {
    "name": "ルヴァン 富ヶ谷店",
    "url": "https://tabelog.com/tokyo/A1318/A131810/13001841/",
    "address": "東京都 渋谷区 富ケ谷2-43-13",
    "code": "hyakumeiten_bread_tokyo_2020_restaurant_13001841",
    "lat": "35.667636",
    "lng": "139.685837",
    "id": "bread-125"
  }, {
    "name": "AOSAN",
    "url": "https://tabelog.com/tokyo/A1326/A132601/13047751/",
    "address": "東京都 調布市 仙川町 1-3-5",
    "code": "hyakumeiten_bread_tokyo_2020_restaurant_13047751",
    "lat": "35.660585",
    "lng": "139.582991",
    "id": "bread-126"
  }, {
    "name": "アルチザン・ブーランジェ・クピド",
    "url": "https://tabelog.com/tokyo/A1317/A131711/13035704/",
    "address": "東京都 世田谷区 奥沢 3-45-2 1F",
    "code": "hyakumeiten_bread_tokyo_2020_restaurant_13035704",
    "lat": "35.603513",
    "lng": "139.673884",
    "id": "bread-127"
  }, {
    "name": "ビゴの店",
    "url": "https://tabelog.com/tokyo/A1301/A130101/13002489/",
    "address": "東京都 中央区 銀座 3-2-1 マロニエゲート銀座2 B2F",
    "code": "hyakumeiten_bread_tokyo_2020_restaurant_13002489",
    "lat": "35.673705",
    "lng": "139.765152",
    "id": "bread-128"
  }, {
    "name": "カタネベーカリー",
    "url": "https://tabelog.com/tokyo/A1318/A131811/13020931/",
    "address": "東京都 渋谷区 西原 1-7-5",
    "code": "hyakumeiten_bread_tokyo_2020_restaurant_13020931",
    "lat": "35.673708",
    "lng": "139.682224",
    "id": "bread-129"
  }, {
    "name": "パーラー江古田",
    "url": "https://tabelog.com/tokyo/A1321/A132101/13185945/",
    "address": "東京都 練馬区 栄町 41-7",
    "code": "hyakumeiten_bread_tokyo_2020_restaurant_13185945",
    "lat": "35.739853",
    "lng": "139.671099",
    "id": "bread-130"
  }, {
    "name": "テコナ　ベーグルワークス",
    "url": "https://tabelog.com/tokyo/A1318/A131810/13061492/",
    "address": "東京都 渋谷区 富ヶ谷 1-51-12 代々木公園ハウス B1F",
    "code": "hyakumeiten_bread_tokyo_2020_restaurant_13061492",
    "lat": "35.668738",
    "lng": "139.689123",
    "id": "bread-131"
  }, {
    "name": "ラトリエ･デュ･パン",
    "url": "https://tabelog.com/tokyo/A1307/A130701/13147689/",
    "address": "東京都 港区 六本木 6-1-12 21六本木ビル 1F",
    "code": "hyakumeiten_bread_tokyo_2020_restaurant_13147689",
    "lat": "35.662319",
    "lng": "139.731545",
    "id": "bread-132"
  }, {
    "name": "ベッカライ・ブロートハイム",
    "url": "https://tabelog.com/tokyo/A1317/A131707/13001529/",
    "address": "東京都 世田谷区 弦巻 4-1-17",
    "code": "hyakumeiten_bread_tokyo_2020_restaurant_13001529",
    "lat": "35.634894",
    "lng": "139.644753",
    "id": "bread-133"
  }, {
    "name": "ブーランジェリーレカン",
    "url": "https://tabelog.com/tokyo/A1301/A130101/13175684/",
    "address": "東京都 中央区 銀座 5-11-1 ロテスリーレカン",
    "code": "hyakumeiten_bread_tokyo_2020_restaurant_13175684",
    "lat": "35.669799",
    "lng": "139.766177",
    "id": "bread-134"
  }, {
    "name": "イトキト",
    "url": "https://tabelog.com/tokyo/A1317/A131711/13048404/",
    "address": "東京都 大田区 北千束 1-54-10 佐野ビル １Ｆ",
    "code": "hyakumeiten_bread_tokyo_2020_restaurant_13048404",
    "lat": "35.610116",
    "lng": "139.68504",
    "id": "bread-135"
  }, {
    "name": "メゾン・ランドゥメンヌ 麻布台",
    "url": "https://tabelog.com/tokyo/A1307/A130701/13180316/",
    "address": "東京都 港区 麻布台 3-1-5",
    "code": "hyakumeiten_bread_tokyo_2020_restaurant_13180316",
    "lat": "35.660815",
    "lng": "139.738354",
    "id": "bread-136"
  }, {
    "name": "ファクトリー",
    "url": "https://tabelog.com/tokyo/A1309/A130904/13093265/",
    "address": "東京都 千代田区 九段南 3-7-10 アーバンキューブ九段南 1F",
    "code": "hyakumeiten_bread_tokyo_2020_restaurant_13093265",
    "lat": "35.69313",
    "lng": "139.74355",
    "id": "bread-137"
  }, {
    "name": "空と麦と",
    "url": "https://tabelog.com/tokyo/A1303/A130302/13164057/",
    "address": "東京都 渋谷区 恵比寿西 2-10-7 YKビル 1F",
    "code": "hyakumeiten_bread_tokyo_2020_restaurant_13164057",
    "lat": "35.648991",
    "lng": "139.706506",
    "id": "bread-138"
  }, {
    "name": "ブーランジェリー・イアナック",
    "url": "https://tabelog.com/tokyo/A1311/A131105/13048516/",
    "address": "東京都 荒川区 西日暮里 4-22-11",
    "code": "hyakumeiten_bread_tokyo_2020_restaurant_13048516",
    "lat": "35.731525",
    "lng": "139.764523",
    "id": "bread-139"
  }, {
    "name": "レフェクトワール",
    "url": "https://tabelog.com/tokyo/A1306/A130601/13149666/",
    "address": "東京都 渋谷区 神宮前 6-25-10 タケオキクチビル 3F",
    "code": "hyakumeiten_bread_tokyo_2020_restaurant_13149666",
    "lat": "35.665973",
    "lng": "139.703318",
    "id": "bread-140"
  }, {
    "name": "ブーランジェリー&カフェ マンマーノ",
    "url": "https://tabelog.com/tokyo/A1318/A131811/13059417/",
    "address": "東京都 渋谷区 西原 3-6-5 MH代々木上原 1F",
    "code": "hyakumeiten_bread_tokyo_2020_restaurant_13059417",
    "lat": "35.670173",
    "lng": "139.681353",
    "id": "bread-141"
  }, {
    "name": "ル・グルニエ・ア・パン",
    "url": "https://tabelog.com/tokyo/A1308/A130803/13011374/",
    "address": "東京都 千代田区 麹町 1-8-8 グランドメゾン麹町 1Ｆ",
    "code": "hyakumeiten_bread_tokyo_2020_restaurant_13011374",
    "lat": "35.68546",
    "lng": "139.741859",
    "id": "bread-142"
  }, {
    "name": "ピエール・ガニェール パン・エ・ガトー",
    "url": "https://tabelog.com/tokyo/A1308/A130802/13114277/",
    "address": "東京都 港区 赤坂 1-12-33 ANAインターコンチネンタルホテル東京 2F",
    "code": "hyakumeiten_bread_tokyo_2020_restaurant_13114277",
    "lat": "35.66829",
    "lng": "139.740831",
    "id": "bread-143"
  }, {
    "name": "ブランジュリー パリの空の下",
    "url": "https://tabelog.com/tokyo/A1317/A131709/13100024/",
    "address": "東京都 世田谷区 上馬 5-40-13",
    "code": "hyakumeiten_bread_tokyo_2020_restaurant_13100024",
    "lat": "35.642133",
    "lng": "139.659974",
    "id": "bread-144"
  }, {
    "name": "小麦と酵母 満 ecute品川店",
    "url": "https://tabelog.com/tokyo/A1314/A131403/13022775/",
    "address": "東京都 港区 高輪 3-26-27 エキュート品川 1F",
    "code": "hyakumeiten_bread_tokyo_2020_restaurant_13022775",
    "lat": "35.62858",
    "lng": "139.739412",
    "id": "bread-145"
  }, {
    "name": "小麦と酵母 濱田家 三軒茶屋本店",
    "url": "https://tabelog.com/tokyo/A1317/A131706/13005398/",
    "address": "東京都 世田谷区 三軒茶屋 2-17-11 グレイス三軒茶屋 1F",
    "code": "hyakumeiten_bread_tokyo_2020_restaurant_13005398",
    "lat": "35.642875",
    "lng": "139.666768",
    "id": "bread-146"
  }, {
    "name": "パン工房 ブランジェリーケン",
    "url": "https://tabelog.com/tokyo/A1322/A132204/13046260/",
    "address": "東京都 板橋区 赤塚 2-2-17 東永地産ビル １Ｆ",
    "code": "hyakumeiten_bread_tokyo_2020_restaurant_13046260",
    "lat": "35.771197",
    "lng": "139.645558",
    "id": "bread-147"
  }, {
    "name": "パン家のどん助",
    "url": "https://tabelog.com/tokyo/A1304/A130401/13020179/",
    "address": "東京都 新宿区 新宿 7-13-3",
    "code": "hyakumeiten_bread_tokyo_2020_restaurant_13020179",
    "lat": "35.698425",
    "lng": "139.711049",
    "id": "bread-148"
  }, {
    "name": "ショーマッカー",
    "url": "https://tabelog.com/tokyo/A1317/A131711/13045113/",
    "address": "東京都 大田区 北千束 1-59-10",
    "code": "hyakumeiten_bread_tokyo_2020_restaurant_13045113",
    "lat": "35.611081",
    "lng": "139.684599",
    "id": "bread-149"
  }, {
    "name": "ジャン・フランソワ Echika表参道",
    "url": "https://tabelog.com/tokyo/A1306/A130602/13020396/",
    "address": "東京都 港区 北青山 3-6-12 Echika表参道 B1F MARCHÉ DE METRO",
    "code": "hyakumeiten_bread_tokyo_2020_restaurant_13020396",
    "lat": "35.665441",
    "lng": "139.71205",
    "id": "bread-150"
  }, {
    "name": "メゾン・イチ 代官山",
    "url": "https://tabelog.com/tokyo/A1303/A130303/13099140/",
    "address": "東京都 渋谷区 猿楽町 28-10 モードコスモスビルB1F",
    "code": "hyakumeiten_bread_tokyo_2020_restaurant_13099140",
    "lat": "35.647806",
    "lng": "139.701728",
    "id": "bread-151"
  }, {
    "name": "ブティック・トロワグロ 小田急百貨店　新宿店",
    "url": "https://tabelog.com/tokyo/A1304/A130401/13004211/",
    "address": "東京都 新宿区 西新宿 1-1-3 小田急百貨店新宿店 本館 B2F",
    "code": "hyakumeiten_bread_tokyo_2020_restaurant_13004211",
    "lat": "35.692539",
    "lng": "139.698629",
    "id": "bread-152"
  }, {
    "name": "ぶーる・ぶーる・ぶらんじぇり",
    "url": "https://tabelog.com/tokyo/A1329/A132904/13048885/",
    "address": "東京都 八王子市 横山町 16-5",
    "code": "hyakumeiten_bread_tokyo_2020_restaurant_13048885",
    "lat": "35.660557",
    "lng": "139.333841",
    "id": "bread-153"
  }, {
    "name": "ヒルサイドパントリー 代官山",
    "url": "https://tabelog.com/tokyo/A1303/A130303/13002071/",
    "address": "東京都 渋谷区 猿楽町 18-12 ヒルサイドテラスＧ棟 Ｂ１Ｆ",
    "code": "hyakumeiten_bread_tokyo_2020_restaurant_13002071",
    "lat": "35.648717",
    "lng": "139.700112",
    "id": "bread-154"
  }, {
    "name": "パサージュ ア ニヴォ",
    "url": "https://tabelog.com/tokyo/A1320/A132003/13056438/",
    "address": "東京都 武蔵野市 境南町 1-1-20 タイコービル",
    "code": "hyakumeiten_bread_tokyo_2020_restaurant_13056438",
    "lat": "35.701982",
    "lng": "139.546587",
    "id": "bread-155"
  }, {
    "name": "パン・デ・フィロゾフ",
    "url": "https://tabelog.com/tokyo/A1309/A130905/13213156/",
    "address": "東京都 新宿区 東五軒町 1-8",
    "code": "hyakumeiten_bread_tokyo_2020_restaurant_13213156",
    "lat": "35.705081",
    "lng": "139.73795",
    "id": "bread-156"
  }, {
    "name": "亀井堂",
    "url": "https://tabelog.com/tokyo/A1309/A130905/13000473/",
    "address": "東京都 新宿区 神楽坂 6-39 亀井堂ビル 1F",
    "code": "hyakumeiten_bread_tokyo_2020_restaurant_13000473",
    "lat": "35.704151",
    "lng": "139.73557",
    "id": "bread-157"
  }, {
    "name": "ブレッド&タパス 沢村 広尾",
    "url": "https://tabelog.com/tokyo/A1307/A130703/13128350/",
    "address": "東京都 港区 南麻布 5-1-6 ラ・サッカイア南麻布1・2F",
    "code": "hyakumeiten_bread_tokyo_2020_restaurant_13128350",
    "lat": "35.655479",
    "lng": "139.7231",
    "id": "bread-158"
  }, {
    "name": "ジャン・フランソワ 渋谷マークシティ",
    "url": "https://tabelog.com/tokyo/A1303/A130301/13099225/",
    "address": "東京都 渋谷区 道玄坂 1-12-1 渋谷マークシティ ４Ｆ レストランアベニュー",
    "code": "hyakumeiten_bread_tokyo_2020_restaurant_13099225",
    "lat": "35.657953",
    "lng": "139.698393",
    "id": "bread-159"
  }, {
    "name": "ル パン ドゥ ジョエル･ロブション ニュウマン新宿店",
    "url": "https://tabelog.com/tokyo/A1304/A130401/13193559/",
    "address": "東京都 新宿区 新宿 4-1-6 NEWoMan SHINJUKU 1F",
    "code": "hyakumeiten_bread_tokyo_2020_restaurant_13193559",
    "lat": "35.688793",
    "lng": "139.702115",
    "id": "bread-160"
  }, {
    "name": "TOLO PAN TOKYO",
    "url": "https://tabelog.com/tokyo/A1317/A131705/13093803/",
    "address": "東京都 目黒区 東山 3-14-3 中里ビル 1F",
    "code": "hyakumeiten_bread_tokyo_2020_restaurant_13093803",
    "lat": "35.650071",
    "lng": "139.685505",
    "id": "bread-161"
  }, {
    "name": "プルクル",
    "url": "https://tabelog.com/tokyo/A1304/A130403/13133746/",
    "address": "東京都 渋谷区 代々木 1-28-9 代々木VILLAGE",
    "code": "hyakumeiten_bread_tokyo_2020_restaurant_13133746",
    "lat": "35.681758",
    "lng": "139.701126",
    "id": "bread-162"
  }, {
    "name": "ヴァン ドゥ リュド 尾山台店",
    "url": "https://tabelog.com/tokyo/A1317/A131715/13140110/",
    "address": "東京都 世田谷区 等々力 2-19-15 プレジール 1F",
    "code": "hyakumeiten_bread_tokyo_2020_restaurant_13140110",
    "lat": "35.606865",
    "lng": "139.652986",
    "id": "bread-163"
  }, {
    "name": "とらやベーカリー",
    "url": "https://tabelog.com/tokyo/A1324/A132403/13050971/",
    "address": "東京都 葛飾区 東金町 3-17-4",
    "code": "hyakumeiten_bread_tokyo_2020_restaurant_13050971",
    "lat": "35.770685",
    "lng": "139.872751",
    "id": "bread-164"
  }, {
    "name": "粉花",
    "url": "https://tabelog.com/tokyo/A1311/A131102/13057726/",
    "address": "東京都 台東区 浅草 3-25-6 1F",
    "code": "hyakumeiten_bread_tokyo_2020_restaurant_13057726",
    "lat": "35.716883",
    "lng": "139.797784",
    "id": "bread-165"
  }, {
    "name": "カイソ",
    "url": "https://tabelog.com/tokyo/A1318/A131812/13129587/",
    "address": "東京都 世田谷区 代沢 5-6-15",
    "code": "hyakumeiten_bread_tokyo_2020_restaurant_13129587",
    "lat": "35.655736",
    "lng": "139.667079",
    "id": "bread-166"
  }, {
    "name": "エムサイズ",
    "url": "https://tabelog.com/tokyo/A1317/A131702/13024601/",
    "address": "東京都 目黒区 鷹番 2-5-17",
    "code": "hyakumeiten_bread_tokyo_2020_restaurant_13024601",
    "lat": "35.62844",
    "lng": "139.688793",
    "id": "bread-167"
  }, {
    "name": "モンシェール 東陽町工場",
    "url": "https://tabelog.com/tokyo/A1313/A131303/13024396/",
    "address": "東京都 江東区 東陽 5-24-10",
    "code": "hyakumeiten_bread_tokyo_2020_restaurant_13024396",
    "lat": "35.671522",
    "lng": "139.813882",
    "id": "bread-168"
  }, {
    "name": "ベーカリー&レストラン 沢村 新宿",
    "url": "https://tabelog.com/tokyo/A1304/A130403/13193553/",
    "address": "東京都 渋谷区 千駄ヶ谷 5-24-55 NEWoMan SHINJUKU 2F",
    "code": "hyakumeiten_bread_tokyo_2020_restaurant_13193553",
    "lat": "35.688537",
    "lng": "139.701033",
    "id": "bread-169"
  }, {
    "name": "ル・プチメック 日比谷店",
    "url": "https://tabelog.com/tokyo/A1301/A130102/13219670/",
    "address": "東京都 千代田区 有楽町 1-2-2 日比谷シャンテ 1F",
    "code": "hyakumeiten_bread_tokyo_2020_restaurant_13219670",
    "lat": "35.673128",
    "lng": "139.759877",
    "id": "bread-170"
  }, {
    "name": "カーラ・アウレリア 大丸東京店",
    "url": "https://tabelog.com/tokyo/A1302/A130201/13044993/",
    "address": "東京都 千代田区 丸の内 1-9-1 大丸東京店 B1F",
    "code": "hyakumeiten_bread_tokyo_2020_restaurant_13044993",
    "lat": "35.681553",
    "lng": "139.76894",
    "id": "bread-171"
  }, {
    "name": "オリミネベーカーズ 築地七丁目店",
    "url": "https://tabelog.com/tokyo/A1313/A131301/13124863/",
    "address": "東京都 中央区 築地 7-10-11",
    "code": "hyakumeiten_bread_tokyo_2020_restaurant_13124863",
    "lat": "35.666007",
    "lng": "139.775092",
    "id": "bread-172"
  }, {
    "name": "ポム・ド・テール",
    "url": "https://tabelog.com/tokyo/A1319/A131907/13009237/",
    "address": "東京都 杉並区 西荻北 4-8-2 ベイハイム西荻第三 １０１",
    "code": "hyakumeiten_bread_tokyo_2020_restaurant_13009237",
    "lat": "35.707342",
    "lng": "139.595613",
    "id": "bread-173"
  }, {
    "name": "ル・グルニエ・ア・パン アトレ恵比寿店",
    "url": "https://tabelog.com/tokyo/A1303/A130302/13194633/",
    "address": "東京都 渋谷区 恵比寿南 1-6-1 アトレ恵比寿 西館 4F",
    "code": "hyakumeiten_bread_tokyo_2020_restaurant_13194633",
    "lat": "35.646568",
    "lng": "139.709646",
    "id": "bread-174"
  }, {
    "name": "エディアールベーカリー 新宿本店",
    "url": "https://tabelog.com/tokyo/A1304/A130401/13012061/",
    "address": "東京都 新宿区 新宿 3-14-1 伊勢丹新宿店 B1F",
    "code": "hyakumeiten_bread_tokyo_2020_restaurant_13012061",
    "lat": "35.691574",
    "lng": "139.704647",
    "id": "bread-175"
  }, {
    "name": "ジャン フランコ",
    "url": "https://tabelog.com/tokyo/A1317/A131707/13169306/",
    "address": "東京都 世田谷区 用賀 4-14-21",
    "code": "hyakumeiten_bread_tokyo_2020_restaurant_13169306",
    "lat": "35.62874",
    "lng": "139.63483",
    "id": "bread-176"
  }, {
    "name": "ザ・シティ・ベーカリー 品川",
    "url": "https://tabelog.com/tokyo/A1314/A131403/13162267/",
    "address": "東京都 港区 港南 2-18-1 アトレ品川 2F",
    "code": "hyakumeiten_bread_tokyo_2020_restaurant_13162267",
    "lat": "35.629023",
    "lng": "139.740704",
    "id": "bread-177"
  }, {
    "name": "俺のBakery&Cafe 恵比寿",
    "url": "https://tabelog.com/tokyo/A1303/A130302/13201307/",
    "address": "東京都 渋谷区 恵比寿 4-20-6 恵比寿ガーデンプレイス 時計広場",
    "code": "hyakumeiten_bread_tokyo_2020_restaurant_13201307",
    "lat": "35.643033",
    "lng": "139.712489",
    "id": "bread-178"
  }, {
    "name": "リンデ 吉祥寺本店",
    "url": "https://tabelog.com/tokyo/A1320/A132001/13005831/",
    "address": "東京都 武蔵野市 吉祥寺本町 1-11-27",
    "code": "hyakumeiten_bread_tokyo_2020_restaurant_13005831",
    "lat": "35.705505",
    "lng": "139.580614",
    "id": "bread-179"
  }, {
    "name": "ネモ・ベーカリー＆カフェ 武蔵小山 本店",
    "url": "https://tabelog.com/tokyo/A1317/A131710/13045550/",
    "address": "東京都 品川区 小山 4-3-12 ＴＫ武蔵小山ビル １Ｆ",
    "code": "hyakumeiten_bread_tokyo_2020_restaurant_13045550",
    "lat": "35.61918",
    "lng": "139.702857",
    "id": "bread-180"
  }, {
    "name": "エスプリ・ド・ビゴ",
    "url": "https://tabelog.com/tokyo/A1317/A131703/13003252/",
    "address": "東京都 世田谷区 玉川田園調布 2-13-19",
    "code": "hyakumeiten_bread_tokyo_2020_restaurant_13003252",
    "lat": "35.602093",
    "lng": "139.66472",
    "id": "bread-181"
  }, {
    "name": "ヒンメル",
    "url": "https://tabelog.com/tokyo/A1317/A131711/13048813/",
    "address": "東京都 大田区 北千束 3-28-4 アンシャンテ岡山 １Ｆ",
    "code": "hyakumeiten_bread_tokyo_2020_restaurant_13048813",
    "lat": "35.606709",
    "lng": "139.686078",
    "id": "bread-182"
  }, {
    "name": "ジャンティーユ",
    "url": "https://tabelog.com/tokyo/A1316/A131601/13044382/",
    "address": "東京都 目黒区 目黒 3-1-1",
    "code": "hyakumeiten_bread_tokyo_2020_restaurant_13044382",
    "lat": "35.635866",
    "lng": "139.706046",
    "id": "bread-183"
  }, {
    "name": "パン オ フゥ",
    "url": "https://tabelog.com/tokyo/A1316/A131603/13120288/",
    "address": "東京都 品川区 東五反田 3-20-14 高輪パークタワービル 1F",
    "code": "hyakumeiten_bread_tokyo_2020_restaurant_13120288",
    "lat": "35.625306",
    "lng": "139.730553",
    "id": "bread-184"
  }, {
    "name": "トロ コーヒーアンドベーカリー",
    "url": "https://tabelog.com/tokyo/A1318/A131812/13118819/",
    "address": "東京都 世田谷区 代田 5-3-1",
    "code": "hyakumeiten_bread_tokyo_2020_restaurant_13118819",
    "lat": "35.65895",
    "lng": "139.662727",
    "id": "bread-185"
  }, {
    "name": "ザ・シティ・ベーカリー 東急プラザ銀座店",
    "url": "https://tabelog.com/tokyo/A1301/A130101/13193897/",
    "address": "東京都 中央区 銀座 5-2-1 東急プラザ銀座 B2F",
    "code": "hyakumeiten_bread_tokyo_2020_restaurant_13193897",
    "lat": "35.672245",
    "lng": "139.762413",
    "id": "bread-186"
  }, {
    "name": "ブーランジェリーブルディガラ 広尾店",
    "url": "https://tabelog.com/tokyo/A1307/A130703/13000523/",
    "address": "東京都 港区 南麻布 4-5-66",
    "code": "hyakumeiten_bread_tokyo_2020_restaurant_13000523",
    "lat": "35.651129",
    "lng": "139.723741",
    "id": "bread-187"
  }, {
    "name": "カフェむぎわらい",
    "url": "https://tabelog.com/tokyo/A1311/A131104/13056511/",
    "address": "東京都 荒川区 東日暮里 1-5-6",
    "code": "hyakumeiten_bread_tokyo_2020_restaurant_13056511",
    "lat": "35.730974",
    "lng": "139.790621",
    "id": "bread-188"
  }, {
    "name": "トラスパレンテ 学芸大学",
    "url": "https://tabelog.com/tokyo/A1317/A131702/13129736/",
    "address": "東京都 目黒区 鷹番 3-8-11 ベルドミール・レナ1F",
    "code": "hyakumeiten_bread_tokyo_2020_restaurant_13129736",
    "lat": "35.629788",
    "lng": "139.685172",
    "id": "bread-189"
  }, {
    "name": "パン・オ・スリール",
    "url": "https://tabelog.com/tokyo/A1306/A130602/13147336/",
    "address": "東京都 渋谷区 渋谷 1-4-6",
    "code": "hyakumeiten_bread_tokyo_2020_restaurant_13147336",
    "lat": "35.661427",
    "lng": "139.70546",
    "id": "bread-190"
  }, {
    "name": "えんツコ堂 製パン",
    "url": "https://tabelog.com/tokyo/A1319/A131907/13060088/",
    "address": "東京都 杉並区 西荻北 4-3-4",
    "code": "hyakumeiten_bread_tokyo_2020_restaurant_13060088",
    "lat": "35.706357",
    "lng": "139.596086",
    "id": "bread-191"
  }, {
    "name": "BAGEL STANDARD",
    "url": "https://tabelog.com/tokyo/A1317/A131701/13108159/",
    "address": "東京都 目黒区 中目黒 2-8-19 宮島ビル 1F",
    "code": "hyakumeiten_bread_tokyo_2020_restaurant_13108159",
    "lat": "35.638798",
    "lng": "139.704191",
    "id": "bread-192"
  }, {
    "name": "ブーランジェリー ボネダンヌ",
    "url": "https://tabelog.com/tokyo/A1317/A131705/13158722/",
    "address": "東京都 世田谷区 三宿 1-28-1 Sofi三宿 1F",
    "code": "hyakumeiten_bread_tokyo_2020_restaurant_13158722",
    "lat": "35.650109",
    "lng": "139.674396",
    "id": "bread-193"
  }, {
    "name": "breadworks エキュート品川",
    "url": "https://tabelog.com/tokyo/A1314/A131403/13155677/",
    "address": "東京都 港区 高輪 3-26-27 エキュート品川 1F",
    "code": "hyakumeiten_bread_tokyo_2020_restaurant_13155677",
    "lat": "35.62858",
    "lng": "139.739412",
    "id": "bread-194"
  }, {
    "name": "イエンセン",
    "url": "https://tabelog.com/tokyo/A1318/A131810/13007309/",
    "address": "東京都 渋谷区 元代々木町 4-3",
    "code": "hyakumeiten_bread_tokyo_2020_restaurant_13007309",
    "lat": "35.669836",
    "lng": "139.687344",
    "id": "bread-195"
  }, {
    "name": "セル・オ・ブレ",
    "url": "https://tabelog.com/tokyo/A1317/A131710/13044661/",
    "address": "東京都 品川区 小山 3-22-21",
    "code": "hyakumeiten_bread_tokyo_2020_restaurant_13044661",
    "lat": "35.619149",
    "lng": "139.705328",
    "id": "bread-196"
  }, {
    "name": "チクテベーカリー",
    "url": "https://tabelog.com/tokyo/A1329/A132904/13153557/",
    "address": "東京都 八王子市 南大沢 3-9-5 101",
    "code": "hyakumeiten_bread_tokyo_2020_restaurant_13153557",
    "lat": "35.607291",
    "lng": "139.378867",
    "id": "bread-197"
  }, {
    "name": "金麦",
    "url": "https://tabelog.com/tokyo/A1316/A131602/13005477/",
    "address": "東京都 港区 白金台 5-11-4",
    "code": "hyakumeiten_bread_tokyo_2020_restaurant_13005477",
    "lat": "35.641294",
    "lng": "139.719717",
    "id": "bread-198"
  }, {
    "name": "メゾン・イチ 西馬込店",
    "url": "https://tabelog.com/tokyo/A1317/A131713/13048505/",
    "address": "東京都 大田区 西馬込 2-2-1 小沢ハウス １Ｆ",
    "code": "hyakumeiten_bread_tokyo_2020_restaurant_13048505",
    "lat": "35.586802",
    "lng": "139.705654",
    "id": "bread-199"
  }, {
    "name": "パリアッシュ",
    "url": "https://tabelog.com/osaka/A2701/A270108/27074010/",
    "address": "大阪府 大阪市北区 中之島 3-6-32 ダイビル本館 1F",
    "code": "hyakumeiten_bread_west_2020_restaurant_27074010",
    "lat": "34.693227",
    "lng": "135.492834",
    "id": "bread-200"
  }, {
    "name": "ル・シュクレクール 岸部",
    "url": "https://tabelog.com/osaka/A2706/A270602/27003426/",
    "address": "大阪府 吹田市 岸部北 5-20-3",
    "code": "hyakumeiten_bread_west_2020_restaurant_27003426",
    "lat": "34.785806",
    "lng": "135.534585",
    "id": "bread-201"
  }, {
    "name": "ル・シュクレクール",
    "url": "https://tabelog.com/osaka/A2701/A270101/27092018/",
    "address": "大阪府 大阪市北区 堂島浜 1-2-1 新ダイビル 1F",
    "code": "hyakumeiten_bread_west_2020_restaurant_27092018",
    "lat": "34.695685",
    "lng": "135.499274",
    "id": "bread-202"
  }, {
    "name": "ベッカライ ビオブロート",
    "url": "https://tabelog.com/hyogo/A2803/A280302/28001945/",
    "address": "兵庫県 芦屋市 宮塚町 14-14 1F",
    "code": "hyakumeiten_bread_west_2020_restaurant_28001945",
    "lat": "34.730364",
    "lng": "135.309474",
    "id": "bread-203"
  }, {
    "name": "パンデュース",
    "url": "https://tabelog.com/osaka/A2701/A270106/27003262/",
    "address": "大阪府 大阪市中央区 淡路町 4-3-1 FOBOSビル 1F",
    "code": "hyakumeiten_bread_west_2020_restaurant_27003262",
    "lat": "34.68673",
    "lng": "135.499188",
    "id": "bread-204"
  }, {
    "name": "ル・プチメック 今出川店",
    "url": "https://tabelog.com/kyoto/A2601/A260202/26000210/",
    "address": "京都府 京都市上京区 今出川通大宮西入ル元北小路町159 大晋メゾネ西陣今出川 1F",
    "code": "hyakumeiten_bread_west_2020_restaurant_26000210",
    "lat": "35.029896",
    "lng": "135.748019",
    "id": "bread-205"
  }, {
    "name": "ル・プチメック 御池店",
    "url": "https://tabelog.com/kyoto/A2601/A260202/26005029/",
    "address": "京都府 京都市中京区 衣棚通御池上ル下妙覚寺186 ビスカリア光樹 1F",
    "code": "hyakumeiten_bread_west_2020_restaurant_26005029",
    "lat": "35.011298",
    "lng": "135.757057",
    "id": "bread-206"
  }, {
    "name": "サ・マーシュ",
    "url": "https://tabelog.com/hyogo/A2801/A280101/28027356/",
    "address": "兵庫県 神戸市中央区 山本通 3-1-3",
    "code": "hyakumeiten_bread_west_2020_restaurant_28027356",
    "lat": "34.696779",
    "lng": "135.188334",
    "id": "bread-207"
  }, {
    "name": "コム・シノワ",
    "url": "https://tabelog.com/hyogo/A2801/A280101/28004087/",
    "address": "兵庫県 神戸市中央区 御幸通 7-1-16 三宮ビル南館 B1F",
    "code": "hyakumeiten_bread_west_2020_restaurant_28004087",
    "lat": "34.692461",
    "lng": "135.196625",
    "id": "bread-208"
  }, {
    "name": "たま木亭",
    "url": "https://tabelog.com/kyoto/A2607/A260701/26025957/",
    "address": "京都府 宇治市 五ケ庄 平野57-14",
    "code": "hyakumeiten_bread_west_2020_restaurant_26025957",
    "lat": "34.910099",
    "lng": "135.803453",
    "id": "bread-209"
  }, {
    "name": "ブーランジェリー ブルディガラ 大阪店",
    "url": "https://tabelog.com/osaka/A2701/A270101/27009000/",
    "address": "大阪府 大阪市北区 梅田 2-5-25 ハービスプラザ B2F",
    "code": "hyakumeiten_bread_west_2020_restaurant_27009000",
    "lat": "34.698529",
    "lng": "135.4929",
    "id": "bread-210"
  }, {
    "name": "ブランジェリー タカギ",
    "url": "https://tabelog.com/osaka/A2701/A270102/27002376/",
    "address": "大阪府 大阪市西区 江戸堀 1-5-1",
    "code": "hyakumeiten_bread_west_2020_restaurant_27002376",
    "lat": "34.690647",
    "lng": "135.497127",
    "id": "bread-211"
  }, {
    "name": "フリップアップ",
    "url": "https://tabelog.com/kyoto/A2601/A260202/26004579/",
    "address": "京都府 京都市中京区 押小路通室町東入ル蛸薬師町292-2",
    "code": "hyakumeiten_bread_west_2020_restaurant_26004579",
    "lat": "35.012348",
    "lng": "135.758265",
    "id": "bread-212"
  }, {
    "name": "クロア",
    "url": "https://tabelog.com/kyoto/A2601/A260503/26002694/",
    "address": "京都府 京都市北区 鷹峯藤林町 6 長八館 １Ｆ",
    "code": "hyakumeiten_bread_west_2020_restaurant_26002694",
    "lat": "35.048606",
    "lng": "135.736046",
    "id": "bread-213"
  }, {
    "name": "パネ・ポルチーニ",
    "url": "https://tabelog.com/osaka/A2701/A270108/27049674/",
    "address": "大阪府 大阪市福島区 福島 5-10-22",
    "code": "hyakumeiten_bread_west_2020_restaurant_27049674",
    "lat": "34.695865",
    "lng": "135.486858",
    "id": "bread-214"
  }, {
    "name": "ROUTE271 梅田本店",
    "url": "https://tabelog.com/osaka/A2701/A270101/27087157/",
    "address": "大阪府 大阪市北区 芝田 2-3-2 1F",
    "code": "hyakumeiten_bread_west_2020_restaurant_27087157",
    "lat": "34.705193",
    "lng": "135.495581",
    "id": "bread-215"
  }, {
    "name": "コンセントマーケット",
    "url": "https://tabelog.com/hyogo/A2803/A280301/28025424/",
    "address": "兵庫県 西宮市 寿町 5-15",
    "code": "hyakumeiten_bread_west_2020_restaurant_28025424",
    "lat": "34.741398",
    "lng": "135.328782",
    "id": "bread-216"
  }, {
    "name": "ブランジュリ P&B",
    "url": "https://tabelog.com/osaka/A2701/A270105/27010111/",
    "address": "大阪府 大阪市西区 北堀江 2-6-15 winビル 1F",
    "code": "hyakumeiten_bread_west_2020_restaurant_27010111",
    "lat": "34.673858",
    "lng": "135.491505",
    "id": "bread-217"
  }, {
    "name": "グランディール 下鴨店",
    "url": "https://tabelog.com/kyoto/A2601/A260503/26002312/",
    "address": "京都府 京都市左京区 下鴨梅ノ木町 44 ロジェ下鴨 1F",
    "code": "hyakumeiten_bread_west_2020_restaurant_26002312",
    "lat": "35.046485",
    "lng": "135.77062",
    "id": "bread-218"
  }, {
    "name": "まるき製パン所",
    "url": "https://tabelog.com/kyoto/A2601/A260203/26003237/",
    "address": "京都府 京都市下京区 松原通堀川西入ル",
    "code": "hyakumeiten_bread_west_2020_restaurant_26003237",
    "lat": "34.998722",
    "lng": "135.750304",
    "id": "bread-219"
  }, {
    "name": "ブーランジェ エス・カガワ",
    "url": "https://tabelog.com/osaka/A2701/A270101/27059555/",
    "address": "大阪府 大阪市北区 中崎 1-10-10 ソレイユ中崎 1F",
    "code": "hyakumeiten_bread_west_2020_restaurant_27059555",
    "lat": "34.707754",
    "lng": "135.506791",
    "id": "bread-220"
  }, {
    "name": "プレザン",
    "url": "https://tabelog.com/osaka/A2706/A270604/27017741/",
    "address": "大阪府 高槻市 上田辺町 4-25-102",
    "code": "hyakumeiten_bread_west_2020_restaurant_27017741",
    "lat": "34.850273",
    "lng": "135.61767",
    "id": "bread-221"
  }, {
    "name": "レディオベーグル",
    "url": "https://tabelog.com/kyoto/A2601/A260503/26007367/",
    "address": "京都府 京都市北区 上賀茂池端町 9 久世ハイツ 1F",
    "code": "hyakumeiten_bread_west_2020_restaurant_26007367",
    "lat": "35.056786",
    "lng": "135.767283",
    "id": "bread-222"
  }, {
    "name": "ブーランジュリー グウ",
    "url": "https://tabelog.com/osaka/A2701/A270204/27014650/",
    "address": "大阪府 大阪市中央区 安堂寺町 1-3-5 キャピトル安堂寺 1F",
    "code": "hyakumeiten_bread_west_2020_restaurant_27014650",
    "lat": "34.676178",
    "lng": "135.519251",
    "id": "bread-223"
  }, {
    "name": "ビゴの店 本店",
    "url": "https://tabelog.com/hyogo/A2803/A280302/28001784/",
    "address": "兵庫県 芦屋市 業平町 6-16",
    "code": "hyakumeiten_bread_west_2020_restaurant_28001784",
    "lat": "34.73216",
    "lng": "135.304795",
    "id": "bread-224"
  }, {
    "name": "ファイブラン",
    "url": "https://tabelog.com/kyoto/A2601/A260202/26026337/",
    "address": "京都府 京都市中京区 役行者町 377",
    "code": "hyakumeiten_bread_west_2020_restaurant_26026337",
    "lat": "35.008984",
    "lng": "135.757832",
    "id": "bread-225"
  }, {
    "name": "レガル",
    "url": "https://tabelog.com/kyoto/A2607/A260705/26005980/",
    "address": "京都府 木津川市 梅谷 荊谷55-1",
    "code": "hyakumeiten_bread_west_2020_restaurant_26005980",
    "lat": "34.7215",
    "lng": "135.840897",
    "id": "bread-226"
  }, {
    "name": "ナカガワ小麦店",
    "url": "https://tabelog.com/kyoto/A2601/A260302/26019004/",
    "address": "京都府 京都市左京区 下鴨松ノ木町 52-1",
    "code": "hyakumeiten_bread_west_2020_restaurant_26019004",
    "lat": "35.039619",
    "lng": "135.77111",
    "id": "bread-227"
  }, {
    "name": "フロイン堂",
    "url": "https://tabelog.com/hyogo/A2801/A280105/28001078/",
    "address": "兵庫県 神戸市東灘区 岡本 1-11-23",
    "code": "hyakumeiten_bread_west_2020_restaurant_28001078",
    "lat": "34.728666",
    "lng": "135.275185",
    "id": "bread-228"
  }, {
    "name": "ワルダー",
    "url": "https://tabelog.com/kyoto/A2601/A260201/26004637/",
    "address": "京都府 京都市中京区 麩屋町六角下ル坂井町452 ハイマート・ふや町 1F",
    "code": "hyakumeiten_bread_west_2020_restaurant_26004637",
    "lat": "35.007018",
    "lng": "135.765759",
    "id": "bread-229"
  }, {
    "name": "パンストック",
    "url": "https://tabelog.com/fukuoka/A4001/A400201/40024379/",
    "address": "福岡県 福岡市東区 箱崎 6-7-6",
    "code": "hyakumeiten_bread_west_2020_restaurant_40024379",
    "lat": "33.625243",
    "lng": "130.427339",
    "id": "bread-230"
  }, {
    "name": "パン・ドゥ・マルシェ",
    "url": "https://tabelog.com/shiga/A2502/A250201/25001153/",
    "address": "滋賀県 草津市 追分南 6-19-8",
    "code": "hyakumeiten_bread_west_2020_restaurant_25001153",
    "lat": "34.992483",
    "lng": "135.964651",
    "id": "bread-231"
  }, {
    "name": "リョウイチヤマウチ",
    "url": "https://tabelog.com/hyogo/A2803/A280301/28006731/",
    "address": "兵庫県 西宮市 南越木岩町 15 ルーブルコート苦楽園1F",
    "code": "hyakumeiten_bread_west_2020_restaurant_28006731",
    "lat": "34.751025",
    "lng": "135.324931",
    "id": "bread-232"
  }, {
    "name": "ザ シティ ベーカリー UMEDA",
    "url": "https://tabelog.com/osaka/A2701/A270101/27072545/",
    "address": "大阪府 大阪市北区 大深町 4-1 グランフロント大阪 うめきた広場 B1F",
    "code": "hyakumeiten_bread_west_2020_restaurant_27072545",
    "lat": "34.703383",
    "lng": "135.4945",
    "id": "bread-233"
  }, {
    "name": "デ・トゥット・パンデュース エキマルシェ大阪店",
    "url": "https://tabelog.com/osaka/A2701/A270101/27068845/",
    "address": "大阪府 大阪市北区 梅田 3-1-1 エキマルシェ大阪 1F",
    "code": "hyakumeiten_bread_west_2020_restaurant_27068845",
    "lat": "34.701937",
    "lng": "135.49508",
    "id": "bread-234"
  }, {
    "name": "パンやきどころ RIKI",
    "url": "https://tabelog.com/hyogo/A2801/A280102/28038627/",
    "address": "兵庫県 神戸市中央区 栄町通 2-7-4 佐野達ビル 1F",
    "code": "hyakumeiten_bread_west_2020_restaurant_28038627",
    "lat": "34.687357",
    "lng": "135.186966",
    "id": "bread-235"
  }, {
    "name": "ameen’s oven",
    "url": "https://tabelog.com/hyogo/A2803/A280301/28006379/",
    "address": "兵庫県 西宮市 若松町 6-18 ヴィラドコアン １Ｆ",
    "code": "hyakumeiten_bread_west_2020_restaurant_28006379",
    "lat": "34.743617",
    "lng": "135.331606",
    "id": "bread-236"
  }, {
    "name": "エズ ブルー",
    "url": "https://tabelog.com/kyoto/A2601/A260302/26002639/",
    "address": "京都府 京都市上京区 今出川通寺町西入大原口町212 カーサビアンカビル 1F",
    "code": "hyakumeiten_bread_west_2020_restaurant_26002639",
    "lat": "35.029093",
    "lng": "135.76721",
    "id": "bread-237"
  }, {
    "name": "ジュエ ボワット",
    "url": "https://tabelog.com/osaka/A2706/A270604/27012984/",
    "address": "大阪府 高槻市 大手町 3-6",
    "code": "hyakumeiten_bread_west_2020_restaurant_27012984",
    "lat": "34.846545",
    "lng": "135.622451",
    "id": "bread-238"
  }, {
    "name": "ROUTE271 高槻店",
    "url": "https://tabelog.com/osaka/A2706/A270604/27056279/",
    "address": "大阪府 高槻市 上田辺町 18-5",
    "code": "hyakumeiten_bread_west_2020_restaurant_27056279",
    "lat": "34.847752",
    "lng": "135.617705",
    "id": "bread-239"
  }, {
    "name": "エス・ブーランジュリー",
    "url": "https://tabelog.com/hyogo/A2807/A280703/28009524/",
    "address": "兵庫県 三田市 ゆりのき台 5-32-1 SANDA WOODY TOWN内 FRAME",
    "code": "hyakumeiten_bread_west_2020_restaurant_28009524",
    "lat": "34.917788",
    "lng": "135.18292",
    "id": "bread-240"
  }, {
    "name": "コム・シノワ 高島屋大阪店",
    "url": "https://tabelog.com/osaka/A2701/A270202/27014893/",
    "address": "大阪府 大阪市中央区 難波 5-1-5 大阪タカシマヤ B1F",
    "code": "hyakumeiten_bread_west_2020_restaurant_27014893",
    "lat": "34.664917",
    "lng": "135.50148",
    "id": "bread-241"
  }, {
    "name": "アルチザナル",
    "url": "https://tabelog.com/kyoto/A2601/A260302/26020779/",
    "address": "京都府 京都市上京区 今出川通寺町東入ル一真町89",
    "code": "hyakumeiten_bread_west_2020_restaurant_26020779",
    "lat": "35.029298",
    "lng": "135.768432",
    "id": "bread-242"
  }, {
    "name": "トロワ",
    "url": "https://tabelog.com/osaka/A2701/A270405/27054996/",
    "address": "大阪府 大阪市平野区 平野本町 3-5-3",
    "code": "hyakumeiten_bread_west_2020_restaurant_27054996",
    "lat": "34.625033",
    "lng": "135.554193",
    "id": "bread-243"
  }, {
    "name": "クラブハリエ ジュブリルタン",
    "url": "https://tabelog.com/shiga/A2503/A250303/25004738/",
    "address": "滋賀県 彦根市 松原町 1435-83",
    "code": "hyakumeiten_bread_west_2020_restaurant_25004738",
    "lat": "35.295957",
    "lng": "136.257201",
    "id": "bread-244"
  }, {
    "name": "グランディール 御池店",
    "url": "https://tabelog.com/kyoto/A2601/A260201/26023110/",
    "address": "京都府 京都市中京区 寺町御池上ル上本能寺前町480-2 1F",
    "code": "hyakumeiten_bread_west_2020_restaurant_26023110",
    "lat": "35.011568",
    "lng": "135.767158",
    "id": "bread-245"
  }, {
    "name": "ラ・フルネ",
    "url": "https://tabelog.com/osaka/A2701/A270102/27081942/",
    "address": "大阪府 大阪市西区 土佐堀 1-4-2 西田ビル 1F",
    "code": "hyakumeiten_bread_west_2020_restaurant_27081942",
    "lat": "34.690455",
    "lng": "135.493174",
    "id": "bread-246"
  }, {
    "name": "Croix-Rousse",
    "url": "https://tabelog.com/kyoto/A2601/A260201/26007737/",
    "address": "京都府 京都市中京区 西洞院通四条上ル蟷螂山町468-4 シティファースト １Ｆ",
    "code": "hyakumeiten_bread_west_2020_restaurant_26007737",
    "lat": "35.004476",
    "lng": "135.755395",
    "id": "bread-247"
  }, {
    "name": "eight",
    "url": "https://tabelog.com/kyoto/A2601/A260601/26018675/",
    "address": "京都府 京都市伏見区 深草直違橋 3-400",
    "code": "hyakumeiten_bread_west_2020_restaurant_26018675",
    "lat": "34.956434",
    "lng": "135.77106",
    "id": "bread-248"
  }, {
    "name": "グリム",
    "url": "https://tabelog.com/hyogo/A2803/A280306/28005935/",
    "address": "兵庫県 伊丹市 西台 3-7-27",
    "code": "hyakumeiten_bread_west_2020_restaurant_28005935",
    "lat": "34.778122",
    "lng": "135.413608",
    "id": "bread-249"
  }, {
    "name": "泉北堂 本店",
    "url": "https://tabelog.com/osaka/A2705/A270501/27014335/",
    "address": "大阪府 堺市南区 和田東 329-2",
    "code": "hyakumeiten_bread_west_2020_restaurant_27014335",
    "lat": "34.503457",
    "lng": "135.505572",
    "id": "bread-250"
  }, {
    "name": "ル・ディマンシュ トアロード店",
    "url": "https://tabelog.com/hyogo/A2801/A280102/28002012/",
    "address": "兵庫県 神戸市中央区 北長狭通 3-12-16 Ｔ＆Ｋビル 1F",
    "code": "hyakumeiten_bread_west_2020_restaurant_28002012",
    "lat": "34.691905",
    "lng": "135.189405",
    "id": "bread-251"
  }, {
    "name": "ブーランジェリー パリゴ",
    "url": "https://tabelog.com/osaka/A2701/A270205/27007052/",
    "address": "大阪府 大阪市天王寺区 上本町 9-3-4 CITY SPIRE 上町台 1F",
    "code": "hyakumeiten_bread_west_2020_restaurant_27007052",
    "lat": "34.657926",
    "lng": "135.517698",
    "id": "bread-252"
  }, {
    "name": "ブーランジュリー&カフェ グウ",
    "url": "https://tabelog.com/osaka/A2701/A270104/27075014/",
    "address": "大阪府 大阪市中央区 内本町 1-1-10 リンサンビル 1F",
    "code": "hyakumeiten_bread_west_2020_restaurant_27075014",
    "lat": "34.683617",
    "lng": "135.516154",
    "id": "bread-253"
  }, {
    "name": "アド・パンデュース",
    "url": "https://tabelog.com/osaka/A2701/A270102/27015191/",
    "address": "大阪府 大阪市中央区 北浜 4-3-1 淀屋橋odona 2F",
    "code": "hyakumeiten_bread_west_2020_restaurant_27015191",
    "lat": "34.691138",
    "lng": "135.500268",
    "id": "bread-254"
  }, {
    "name": "ブーランジェリエ デ ラ リベルテ",
    "url": "https://tabelog.com/kyoto/A2601/A260201/26014258/",
    "address": "京都府 京都市中京区 寺町二条上る常盤木町65-2 1F",
    "code": "hyakumeiten_bread_west_2020_restaurant_26014258",
    "lat": "35.013621",
    "lng": "135.767409",
    "id": "bread-255"
  }, {
    "name": "ラ バゲット ド パリ ヨシカワ",
    "url": "https://tabelog.com/hyogo/A2803/A280301/28018035/",
    "address": "兵庫県 西宮市 樋之池町 3-6",
    "code": "hyakumeiten_bread_west_2020_restaurant_28018035",
    "lat": "34.752254",
    "lng": "135.322142",
    "id": "bread-256"
  }, {
    "name": "ブーランジェリー ミヤナガ",
    "url": "https://tabelog.com/hyogo/A2803/A280301/28026569/",
    "address": "兵庫県 西宮市 相生町 7-3 夙川第一ビル 1F",
    "code": "hyakumeiten_bread_west_2020_restaurant_28026569",
    "lat": "34.742591",
    "lng": "135.327641",
    "id": "bread-257"
  }, {
    "name": "めるころ",
    "url": "https://tabelog.com/kumamoto/A4302/A430202/43001344/",
    "address": "熊本県 阿蘇郡南阿蘇村 河陽 3765",
    "code": "hyakumeiten_bread_west_2020_restaurant_43001344",
    "lat": "32.858404",
    "lng": "131.00637",
    "id": "bread-258"
  }, {
    "name": "ル・プチメック 大丸京都店",
    "url": "https://tabelog.com/kyoto/A2601/A260201/26023941/",
    "address": "京都府 京都市下京区 四条通高倉西入立売西町79 大丸京都店 B1F",
    "code": "hyakumeiten_bread_west_2020_restaurant_26023941",
    "lat": "35.003821",
    "lng": "135.762148",
    "id": "bread-259"
  }, {
    "name": "アップルの発音",
    "url": "https://tabelog.com/osaka/A2701/A270405/27044053/",
    "address": "大阪府 大阪市平野区 流町 1-9-14",
    "code": "hyakumeiten_bread_west_2020_restaurant_27044053",
    "lat": "34.61998",
    "lng": "135.55187",
    "id": "bread-260"
  }, {
    "name": "サイラー",
    "url": "https://tabelog.com/fukuoka/A4001/A400202/40000552/",
    "address": "福岡県 福岡市南区 長丘 2-1-5 西村ビル １Ｆ",
    "code": "hyakumeiten_bread_west_2020_restaurant_40000552",
    "lat": "33.556449",
    "lng": "130.400286",
    "id": "bread-261"
  }, {
    "name": "ビゴの店 神戸国際会館店",
    "url": "https://tabelog.com/hyogo/A2801/A280101/28003325/",
    "address": "兵庫県 神戸市中央区 御幸通 8-1-6神戸国際会館B2F",
    "code": "hyakumeiten_bread_west_2020_restaurant_28003325",
    "lat": "34.692136",
    "lng": "135.195912",
    "id": "bread-262"
  }, {
    "name": "ゴジュウニチョウメベーカリー",
    "url": "https://tabelog.com/osaka/A2701/A270104/27059169/",
    "address": "大阪府 大阪市中央区 農人橋 2-1-6 レジデンス中央1A",
    "code": "hyakumeiten_bread_west_2020_restaurant_27059169",
    "lat": "34.68075",
    "lng": "135.513705",
    "id": "bread-263"
  }, {
    "name": "キルシュブリューテ",
    "url": "https://tabelog.com/osaka/A2701/A270105/27059403/",
    "address": "大阪府 大阪市西区 南堀江 3-11-6-101",
    "code": "hyakumeiten_bread_west_2020_restaurant_27059403",
    "lat": "34.672516",
    "lng": "135.488941",
    "id": "bread-264"
  }, {
    "name": "マッシュキョウト",
    "url": "https://tabelog.com/kyoto/A2601/A260201/26006051/",
    "address": "京都府 京都市下京区 東洞院通高辻下る燈籠町568",
    "code": "hyakumeiten_bread_west_2020_restaurant_26006051",
    "lat": "34.999819",
    "lng": "135.760991",
    "id": "bread-265"
  }, {
    "name": "ココロ",
    "url": "https://tabelog.com/osaka/A2701/A270205/27015189/",
    "address": "大阪府 大阪市天王寺区 東高津町 8-1",
    "code": "hyakumeiten_bread_west_2020_restaurant_27015189",
    "lat": "34.667526",
    "lng": "135.522522",
    "id": "bread-266"
  }, {
    "name": "食パン工房　ラミ 福島本店",
    "url": "https://tabelog.com/osaka/A2701/A270108/27017967/",
    "address": "大阪府 大阪市福島区 鷺洲 1-5-17",
    "code": "hyakumeiten_bread_west_2020_restaurant_27017967",
    "lat": "34.696",
    "lng": "135.48192",
    "id": "bread-267"
  }, {
    "name": "ボン・ボランテ",
    "url": "https://tabelog.com/kyoto/A2601/A260302/26002684/",
    "address": "京都府 京都市上京区 河原町通荒神口下ル上生洲町229-1",
    "code": "hyakumeiten_bread_west_2020_restaurant_26002684",
    "lat": "35.020162",
    "lng": "135.769568",
    "id": "bread-268"
  }, {
    "name": "カンテ・グランデ ベーカリー",
    "url": "https://tabelog.com/osaka/A2701/A270101/27005149/",
    "address": "大阪府 大阪市北区 中津 1-12-11 メロディーハイム中津二番館 1F",
    "code": "hyakumeiten_bread_west_2020_restaurant_27005149",
    "lat": "34.711655",
    "lng": "135.497048",
    "id": "bread-269"
  }, {
    "name": "パン工房　フルニエ",
    "url": "https://tabelog.com/osaka/A2705/A270502/27016975/",
    "address": "大阪府 和泉市 のぞみ野 3-11-24",
    "code": "hyakumeiten_bread_west_2020_restaurant_27016975",
    "lat": "34.451775",
    "lng": "135.457587",
    "id": "bread-270"
  }, {
    "name": "まん福ベーカリー",
    "url": "https://tabelog.com/osaka/A2701/A270102/27060424/",
    "address": "大阪府 大阪市中央区 北浜東 5-1",
    "code": "hyakumeiten_bread_west_2020_restaurant_27060424",
    "lat": "34.690015",
    "lng": "135.510031",
    "id": "bread-271"
  }, {
    "name": "プラス ドゥ パスト",
    "url": "https://tabelog.com/hyogo/A2801/A280102/28002212/",
    "address": "兵庫県 神戸市中央区 橘通 3-1-1 西門ビル 1F",
    "code": "hyakumeiten_bread_west_2020_restaurant_28002212",
    "lat": "34.680882",
    "lng": "135.175022",
    "id": "bread-272"
  }, {
    "name": "ル・プチメック OMAKE",
    "url": "https://tabelog.com/kyoto/A2601/A260201/26025036/",
    "address": "京都府 京都市中京区 池須町 418-1 キョーワビル 1F",
    "code": "hyakumeiten_bread_west_2020_restaurant_26025036",
    "lat": "35.006537",
    "lng": "135.755263",
    "id": "bread-273"
  }, {
    "name": "ルルット",
    "url": "https://tabelog.com/osaka/A2701/A270102/27075939/",
    "address": "大阪府 大阪市西区 江戸堀 2-3-17 1F",
    "code": "hyakumeiten_bread_west_2020_restaurant_27075939",
    "lat": "34.686954",
    "lng": "135.491108",
    "id": "bread-274"
  }, {
    "name": "生瀬ヒュッテ",
    "url": "https://tabelog.com/hyogo/A2803/A280303/28045372/",
    "address": "兵庫県 西宮市 塩瀬町生瀬 1285-221",
    "code": "hyakumeiten_bread_west_2020_restaurant_28045372",
    "lat": "34.811732",
    "lng": "135.31112",
    "id": "bread-275"
  }, {
    "name": "ブリアン 北山本店",
    "url": "https://tabelog.com/kyoto/A2601/A260503/26004348/",
    "address": "京都府 京都市北区 上賀茂岩ヶ垣内町33-39",
    "code": "hyakumeiten_bread_west_2020_restaurant_26004348",
    "lat": "35.051319",
    "lng": "135.764017",
    "id": "bread-276"
  }, {
    "name": "ル・ブーランジェ・ドゥ・モンジュ うめだ阪急店",
    "url": "https://tabelog.com/osaka/A2701/A270101/27068669/",
    "address": "大阪府 大阪市北区 角田町 8-7 阪急うめだ本店 B2F",
    "code": "hyakumeiten_bread_west_2020_restaurant_27068669",
    "lat": "34.702819",
    "lng": "135.498532",
    "id": "bread-277"
  }, {
    "name": "モグモグベーカリー",
    "url": "https://tabelog.com/kyoto/A2607/A260701/26006153/",
    "address": "京都府 宇治市 宇治 妙楽26-1",
    "code": "hyakumeiten_bread_west_2020_restaurant_26006153",
    "lat": "34.890601",
    "lng": "135.803499",
    "id": "bread-278"
  }, {
    "name": "ベッカライ・ペルケオ・アルト・ハイデルベルク",
    "url": "https://tabelog.com/kyoto/A2601/A260301/26014599/",
    "address": "京都府 京都市左京区 岡崎天王町 54-1 クリヨン岡崎１階",
    "code": "hyakumeiten_bread_west_2020_restaurant_26014599",
    "lat": "35.016439",
    "lng": "135.787149",
    "id": "bread-279"
  }, {
    "name": "トリコ",
    "url": "https://tabelog.com/hyogo/A2803/A280301/28031160/",
    "address": "兵庫県 西宮市 大井手町 3-6 ヴァンベール夙川 B1F",
    "code": "hyakumeiten_bread_west_2020_restaurant_28031160",
    "lat": "34.742537",
    "lng": "135.329111",
    "id": "bread-280"
  }, {
    "name": "ハナカゴ",
    "url": "https://tabelog.com/kyoto/A2601/A260202/26025406/",
    "address": "京都府 京都市中京区 室町通六角下ル鯉山町516-4",
    "code": "hyakumeiten_bread_west_2020_restaurant_26025406",
    "lat": "35.006847",
    "lng": "135.757979",
    "id": "bread-281"
  }, {
    "name": "オーガニックパン工房　それいゆ",
    "url": "https://tabelog.com/osaka/A2701/A270203/27062806/",
    "address": "大阪府 大阪市阿倍野区 帝塚山 1-7-4",
    "code": "hyakumeiten_bread_west_2020_restaurant_27062806",
    "lat": "34.6252",
    "lng": "135.503812",
    "id": "bread-282"
  }, {
    "name": "グラン マーブル ファクトリー店",
    "url": "https://tabelog.com/kyoto/A2601/A260604/26006683/",
    "address": "京都府 京都市南区 上鳥羽北島田町 93番",
    "code": "hyakumeiten_bread_west_2020_restaurant_26006683",
    "lat": "34.965989",
    "lng": "135.744428",
    "id": "bread-283"
  }, {
    "name": "パン屋航路",
    "url": "https://tabelog.com/hiroshima/A3406/A340302/34014537/",
    "address": "広島県 尾道市 土堂 1-3-31",
    "code": "hyakumeiten_bread_west_2020_restaurant_34014537",
    "lat": "34.406447",
    "lng": "133.197349",
    "id": "bread-284"
  }, {
    "name": "ハッピーキャンパーベーグル",
    "url": "https://tabelog.com/osaka/A2701/A270103/27071749/",
    "address": "大阪府 大阪市北区 天神橋 3-7-24",
    "code": "hyakumeiten_bread_west_2020_restaurant_27071749",
    "lat": "34.70141",
    "lng": "135.511219",
    "id": "bread-285"
  }, {
    "name": "イシノウエ",
    "url": "https://tabelog.com/osaka/A2705/A270501/27046308/",
    "address": "大阪府 堺市北区 百舌鳥梅町 3-10-8 ハイツ中百舌鳥 1F",
    "code": "hyakumeiten_bread_west_2020_restaurant_27046308",
    "lat": "34.552113",
    "lng": "135.50263",
    "id": "bread-286"
  }, {
    "name": "un peu de",
    "url": "https://tabelog.com/hyogo/A2801/A280105/28025630/",
    "address": "兵庫県 神戸市東灘区 森南町 1-11-11",
    "code": "hyakumeiten_bread_west_2020_restaurant_28025630",
    "lat": "34.729321",
    "lng": "135.292002",
    "id": "bread-287"
  }, {
    "name": "wada",
    "url": "https://tabelog.com/hyogo/A2803/A280302/28028120/",
    "address": "兵庫県 芦屋市 松ノ内町 4-5 アーベイン芦屋川 1F",
    "code": "hyakumeiten_bread_west_2020_restaurant_28028120",
    "lat": "34.734717",
    "lng": "135.301936",
    "id": "bread-288"
  }, {
    "name": "しろはとベーカリー",
    "url": "https://tabelog.com/kyoto/A2601/A260202/26021765/",
    "address": "京都府 京都市中京区 西押小路町 102-2 ヴィラート押小路 1F",
    "code": "hyakumeiten_bread_west_2020_restaurant_26021765",
    "lat": "35.012372",
    "lng": "135.760035",
    "id": "bread-289"
  }, {
    "name": "ミシェルズベーグル",
    "url": "https://tabelog.com/kyoto/A2601/A260503/26007648/",
    "address": "京都府 京都市左京区 下鴨下川原町 1-1",
    "code": "hyakumeiten_bread_west_2020_restaurant_26007648",
    "lat": "35.041042",
    "lng": "135.768856",
    "id": "bread-290"
  }, {
    "name": "グランディール  堀川店",
    "url": "https://tabelog.com/kyoto/A2601/A260503/26005570/",
    "address": "京都府 京都市北区 紫竹東高縄町 23-2",
    "code": "hyakumeiten_bread_west_2020_restaurant_26005570",
    "lat": "35.046544",
    "lng": "135.751387",
    "id": "bread-291"
  }, {
    "name": "マンハッタン",
    "url": "https://tabelog.com/kyoto/A2601/A260203/26014268/",
    "address": "京都府 京都市中京区 壬生辻町 18",
    "code": "hyakumeiten_bread_west_2020_restaurant_26014268",
    "lat": "35.00035",
    "lng": "135.743186",
    "id": "bread-292"
  }, {
    "name": "フォション 京都高島屋店",
    "url": "https://tabelog.com/kyoto/A2601/A260201/26005569/",
    "address": "京都府 京都市下京区 四条通河原町西入ル真町52 京都タカシマヤ B1F",
    "code": "hyakumeiten_bread_west_2020_restaurant_26005569",
    "lat": "35.003564",
    "lng": "135.76907",
    "id": "bread-293"
  }, {
    "name": "トミーズ 三宮店",
    "url": "https://tabelog.com/hyogo/A2801/A280101/28002135/",
    "address": "兵庫県 神戸市中央区 北長狭通 1-31高架下35",
    "code": "hyakumeiten_bread_west_2020_restaurant_28002135",
    "lat": "34.692361",
    "lng": "135.191906",
    "id": "bread-294"
  }, {
    "name": "オレノ パン オクムラ 京都駅店",
    "url": "https://tabelog.com/kyoto/A2601/A260101/26014187/",
    "address": "京都府 京都市下京区 東塩小路釜殿町 31-1 近鉄名店街みやこみち",
    "code": "hyakumeiten_bread_west_2020_restaurant_26014187",
    "lat": "34.984592",
    "lng": "135.757284",
    "id": "bread-295"
  }, {
    "name": "ベーカリー柳月堂",
    "url": "https://tabelog.com/kyoto/A2601/A260302/26001108/",
    "address": "京都府 京都市左京区 田中下柳町 5-1 柳月堂ビル 1F",
    "code": "hyakumeiten_bread_west_2020_restaurant_26001108",
    "lat": "35.03009",
    "lng": "135.773636",
    "id": "bread-296"
  }, {
    "name": "手作りパン工房 コネルヤ",
    "url": "https://tabelog.com/kyoto/A2601/A260203/26002695/",
    "address": "京都府 京都市中京区 聚楽廻西町 71-2",
    "code": "hyakumeiten_bread_west_2020_restaurant_26002695",
    "lat": "35.018532",
    "lng": "135.740347",
    "id": "bread-297"
  }, {
    "name": "マリーフランス 北山店",
    "url": "https://tabelog.com/kyoto/A2601/A260503/26004491/",
    "address": "京都府 京都市左京区 下鴨南芝町 44 比叡荘ビル１Ｆ",
    "code": "hyakumeiten_bread_west_2020_restaurant_26004491",
    "lat": "35.051649",
    "lng": "135.768876",
    "id": "bread-298"
  }, {
    "name": "パンスケープ 二条駅前店",
    "url": "https://tabelog.com/kyoto/A2601/A260203/26017091/",
    "address": "京都府 京都市中京区 西ノ京職司町 19-3",
    "code": "hyakumeiten_bread_west_2020_restaurant_26017091",
    "lat": "35.010408",
    "lng": "135.742819",
    "id": "bread-299"
  }]
}
