{
  "shops": [{
    "name": "フォリオリーナ・デッラ・ポルタ・フォルトゥーナ",
    "url": "https://tabelog.com/nagano/A2003/A200301/20011920/",
    "address": "長野県 北佐久郡軽井沢町 長倉 2147-689",
    "code": "hyakumeiten_italian_east_2021_restaurant_20011920",
    "lat": "36.365976",
    "lng": "138.587242",
    "id": "italian-0"
  }, {
    "name": "イル アオヤマ",
    "url": "https://tabelog.com/aichi/A2301/A230104/23054325/",
    "address": "愛知県 名古屋市東区 泉 2-8-7",
    "code": "hyakumeiten_italian_east_2021_restaurant_23054325",
    "lat": "35.17741",
    "lng": "136.917714",
    "id": "italian-1"
  }, {
    "name": "ウシマル",
    "url": "https://tabelog.com/chiba/A1205/A120502/12000598/",
    "address": "千葉県 山武市 松尾町木刀 1307-2",
    "code": "hyakumeiten_italian_east_2021_restaurant_12000598",
    "lat": "35.618755",
    "lng": "140.475103",
    "id": "italian-2"
  }, {
    "name": "クッチーナ イタリアーナ ガッルーラ",
    "url": "https://tabelog.com/aichi/A2301/A230108/23000441/",
    "address": "愛知県 名古屋市昭和区 山里町 70-2 山手アベニュー ２F",
    "code": "hyakumeiten_italian_east_2021_restaurant_23000441",
    "lat": "35.14618",
    "lng": "136.962883",
    "id": "italian-3"
  }, {
    "name": "プレゼンテ スギ",
    "url": "https://tabelog.com/chiba/A1204/A120402/12038574/",
    "address": "千葉県 佐倉市 白銀 2-3-6",
    "code": "hyakumeiten_italian_east_2021_restaurant_12038574",
    "lat": "35.712712",
    "lng": "140.242206",
    "id": "italian-4"
  }, {
    "name": "ジュエーメ",
    "url": "https://tabelog.com/akita/A0504/A050402/5006765/",
    "address": "秋田県 大仙市 戸蒔 字谷地添100-1",
    "code": "hyakumeiten_italian_east_2021_restaurant_5006765",
    "lat": "39.450984",
    "lng": "140.502338",
    "id": "italian-5"
  }, {
    "name": "コルツ",
    "url": "https://tabelog.com/hokkaido/A0105/A010501/1021441/",
    "address": "北海道 函館市 本町 4-10",
    "code": "hyakumeiten_italian_east_2021_restaurant_1021441",
    "lat": "41.788543",
    "lng": "140.750801",
    "id": "italian-6"
  }, {
    "name": "余市SAGRA",
    "url": "https://tabelog.com/hokkaido/A0106/A010602/1057186/",
    "address": "北海道 余市郡余市町 登町 987-2",
    "code": "hyakumeiten_italian_east_2021_restaurant_1057186",
    "lat": "43.165667",
    "lng": "140.82117",
    "id": "italian-7"
  }, {
    "name": "アドゥエパッシ",
    "url": "https://tabelog.com/gifu/A2101/A210104/21014394/",
    "address": "岐阜県 大垣市 墨俣町二ツ木 214-1",
    "code": "hyakumeiten_italian_east_2021_restaurant_21014394",
    "lat": "35.361477",
    "lng": "136.677752",
    "id": "italian-8"
  }, {
    "name": "RISTORANTE IL NODO",
    "url": "https://tabelog.com/kanagawa/A1404/A140402/14072960/",
    "address": "神奈川県 鎌倉市 小町 2-6-12 くすの木443 2F3号",
    "code": "hyakumeiten_italian_east_2021_restaurant_14072960",
    "lat": "35.321507",
    "lng": "139.551518",
    "id": "italian-9"
  }, {
    "name": "ヴィチーノ",
    "url": "https://tabelog.com/aichi/A2301/A230106/23039432/",
    "address": "愛知県 名古屋市千種区 春岡通 7-58",
    "code": "hyakumeiten_italian_east_2021_restaurant_23039432",
    "lat": "35.156391",
    "lng": "136.939452",
    "id": "italian-10"
  }, {
    "name": "カーサ・デル・チーボ",
    "url": "https://tabelog.com/aomori/A0203/A020301/2006500/",
    "address": "青森県 八戸市 湊高台 1-19-6",
    "code": "hyakumeiten_italian_east_2021_restaurant_2006500",
    "lat": "40.507677",
    "lng": "141.536142",
    "id": "italian-11"
  }, {
    "name": "シクラメンテ",
    "url": "https://tabelog.com/aichi/A2301/A230105/23044667/",
    "address": "愛知県 名古屋市中区 千代田 2-3-6",
    "code": "hyakumeiten_italian_east_2021_restaurant_23044667",
    "lat": "35.15932",
    "lng": "136.911657",
    "id": "italian-12"
  }, {
    "name": "SALONE 2007",
    "url": "https://tabelog.com/kanagawa/A1401/A140105/14010542/",
    "address": "神奈川県 横浜市中区 山下町 36-1 B1F",
    "code": "hyakumeiten_italian_east_2021_restaurant_14010542",
    "lat": "35.443191",
    "lng": "139.650819",
    "id": "italian-13"
  }, {
    "name": "ラ ヴィオレッタ",
    "url": "https://tabelog.com/aichi/A2301/A230110/23060503/",
    "address": "愛知県 名古屋市東区 白壁 4-63-3",
    "code": "hyakumeiten_italian_east_2021_restaurant_23060503",
    "lat": "35.182358",
    "lng": "136.916482",
    "id": "italian-14"
  }, {
    "name": "アンティカ オステリア バーチョ",
    "url": "https://tabelog.com/aichi/A2301/A230106/23030549/",
    "address": "愛知県 名古屋市東区 筒井 3-33-1",
    "code": "hyakumeiten_italian_east_2021_restaurant_23030549",
    "lat": "35.174232",
    "lng": "136.932001",
    "id": "italian-15"
  }, {
    "name": "OTTO SETTE 星野リゾート リゾナーレ八ヶ岳",
    "url": "https://tabelog.com/yamanashi/A1902/A190201/19000325/",
    "address": "山梨県 北杜市 小淵沢町 129-1 リゾナーレ八ヶ岳内",
    "code": "hyakumeiten_italian_east_2021_restaurant_19000325",
    "lat": "35.869311",
    "lng": "138.327204",
    "id": "italian-16"
  }, {
    "name": "cucina Wada",
    "url": "https://tabelog.com/aichi/A2301/A230102/23038494/",
    "address": "愛知県 名古屋市中区 栄 2-1-20",
    "code": "hyakumeiten_italian_east_2021_restaurant_23038494",
    "lat": "35.167291",
    "lng": "136.898584",
    "id": "italian-17"
  }, {
    "name": "ソリス アグリトゥーリズモ",
    "url": "https://tabelog.com/kanagawa/A1406/A140602/14059426/",
    "address": "神奈川県 横須賀市 湘南国際村 1-2-8",
    "code": "hyakumeiten_italian_east_2021_restaurant_14059426",
    "lat": "35.255212",
    "lng": "139.605151",
    "id": "italian-18"
  }, {
    "name": "セミーナ",
    "url": "https://tabelog.com/hokkaido/A0101/A010102/1055732/",
    "address": "北海道 札幌市中央区 南1条西8-20-1 ライオンズマンション小六ビル 1F",
    "code": "hyakumeiten_italian_east_2021_restaurant_1055732",
    "lat": "43.05828",
    "lng": "141.34482",
    "id": "italian-19"
  }, {
    "name": "カンブーザ",
    "url": "https://tabelog.com/kanagawa/A1401/A140101/14035347/",
    "address": "神奈川県 横浜市神奈川区 鶴屋町 2-11-2",
    "code": "hyakumeiten_italian_east_2021_restaurant_14035347",
    "lat": "35.469183",
    "lng": "139.623137",
    "id": "italian-20"
  }, {
    "name": "オ・プレチェネッラ",
    "url": "https://tabelog.com/kanagawa/A1401/A140101/14000055/",
    "address": "神奈川県 横浜市西区 北幸 2-13-1",
    "code": "hyakumeiten_italian_east_2021_restaurant_14000055",
    "lat": "35.464672",
    "lng": "139.614687",
    "id": "italian-21"
  }, {
    "name": "ラ・テンダ・ロッサ",
    "url": "https://tabelog.com/kanagawa/A1401/A140104/14002613/",
    "address": "神奈川県 横浜市中区 太田町 6-75",
    "code": "hyakumeiten_italian_east_2021_restaurant_14002613",
    "lat": "35.449284",
    "lng": "139.634784",
    "id": "italian-22"
  }, {
    "name": "バローレ",
    "url": "https://tabelog.com/hokkaido/A0104/A010403/1005335/",
    "address": "北海道 上川郡美瑛町 美沢 共生",
    "code": "hyakumeiten_italian_east_2021_restaurant_1005335",
    "lat": "43.550212",
    "lng": "142.524295",
    "id": "italian-23"
  }, {
    "name": "アロマフレスカ 名古屋",
    "url": "https://tabelog.com/aichi/A2301/A230103/23005178/",
    "address": "愛知県 名古屋市中区 栄 3-16-1 松坂屋名古屋店 本館 10F",
    "code": "hyakumeiten_italian_east_2021_restaurant_23005178",
    "lat": "35.165301",
    "lng": "136.907917",
    "id": "italian-24"
  }, {
    "name": "トラットリアビコローレヨコハマ",
    "url": "https://tabelog.com/kanagawa/A1401/A140101/14051360/",
    "address": "神奈川県 横浜市西区 平沼 1-40-17 モンテベルデ横浜 101",
    "code": "hyakumeiten_italian_east_2021_restaurant_14051360",
    "lat": "35.461977",
    "lng": "139.619749",
    "id": "italian-25"
  }, {
    "name": "トラットリア フラテッリ ガッルーラ 大名古屋ビルヂング店",
    "url": "https://tabelog.com/aichi/A2301/A230101/23059313/",
    "address": "愛知県 名古屋市中村区 名駅 3-28-12 大名古屋ビルヂング 3F",
    "code": "hyakumeiten_italian_east_2021_restaurant_23059313",
    "lat": "35.172078",
    "lng": "136.884486",
    "id": "italian-26"
  }, {
    "name": "osteria LIU",
    "url": "https://tabelog.com/aichi/A2301/A230106/23009279/",
    "address": "愛知県 名古屋市千種区 向陽 1-11-14 池下ホームズ １Ｆ",
    "code": "hyakumeiten_italian_east_2021_restaurant_23009279",
    "lat": "35.169315",
    "lng": "136.946715",
    "id": "italian-27"
  }, {
    "name": "クラリタ ダ マリッティマ",
    "url": "https://tabelog.com/kanagawa/A1404/A140403/14015527/",
    "address": "神奈川県 藤沢市 片瀬海岸 1-6-11 １Ｆ",
    "code": "hyakumeiten_italian_east_2021_restaurant_14015527",
    "lat": "35.310445",
    "lng": "139.489577",
    "id": "italian-28"
  }, {
    "name": "ラ・ベットラ・ダ・オチアイ ナゴヤ",
    "url": "https://tabelog.com/aichi/A2301/A230106/23006693/",
    "address": "愛知県 名古屋市千種区 高見 2-9-17",
    "code": "hyakumeiten_italian_east_2021_restaurant_23006693",
    "lat": "35.169994",
    "lng": "136.943912",
    "id": "italian-29"
  }, {
    "name": "アル・ケッチァーノ",
    "url": "https://tabelog.com/yamagata/A0603/A060302/6000022/",
    "address": "山形県 鶴岡市 下山添 一里塚83",
    "code": "hyakumeiten_italian_east_2021_restaurant_6000022",
    "lat": "38.697925",
    "lng": "139.833796",
    "id": "italian-30"
  }, {
    "name": "タケル クインディチ",
    "url": "https://tabelog.com/kanagawa/A1404/A140401/14043143/",
    "address": "神奈川県 鎌倉市 山ノ内 1384 北鎌倉 東慶寺 門前",
    "code": "hyakumeiten_italian_east_2021_restaurant_14043143",
    "lat": "35.335141",
    "lng": "139.54562",
    "id": "italian-31"
  }, {
    "name": "エノテーカ ピンキオーリ 名古屋",
    "url": "https://tabelog.com/aichi/A2301/A230101/23004080/",
    "address": "愛知県 名古屋市中村区 名駅 4-7-1 ミッドランドスクエア 42F",
    "code": "hyakumeiten_italian_east_2021_restaurant_23004080",
    "lat": "35.170009",
    "lng": "136.885186",
    "id": "italian-32"
  }, {
    "name": "zoe's",
    "url": "https://tabelog.com/chiba/A1203/A120301/12000870/",
    "address": "千葉県 柏市 柏 4-6-23 ＡＫビル 1F",
    "code": "hyakumeiten_italian_east_2021_restaurant_12000870",
    "lat": "35.863849",
    "lng": "139.974246",
    "id": "italian-33"
  }, {
    "name": "RISTORANTE REGA",
    "url": "https://tabelog.com/kanagawa/A1401/A140105/14012330/",
    "address": "神奈川県 横浜市中区 石川町 2-66-3 ルフェニックス 1Ｆ",
    "code": "hyakumeiten_italian_east_2021_restaurant_14012330",
    "lat": "35.437714",
    "lng": "139.641988",
    "id": "italian-34"
  }, {
    "name": "トラットリア フランコ",
    "url": "https://tabelog.com/kanagawa/A1401/A140101/14035233/",
    "address": "神奈川県 横浜市西区 北幸 2-4-10 大明ビル 1F",
    "code": "hyakumeiten_italian_east_2021_restaurant_14035233",
    "lat": "35.466766",
    "lng": "139.617589",
    "id": "italian-35"
  }, {
    "name": "ヴィーニ デル ボッテゴン",
    "url": "https://tabelog.com/aichi/A2301/A230104/23047233/",
    "address": "愛知県 名古屋市東区 泉 2-21-3 司ビル 1F",
    "code": "hyakumeiten_italian_east_2021_restaurant_23047233",
    "lat": "35.175866",
    "lng": "136.914757",
    "id": "italian-36"
  }, {
    "name": "トラットリア・アルベロ",
    "url": "https://tabelog.com/chiba/A1201/A120105/12001819/",
    "address": "千葉県 千葉市若葉区 東寺山町 345-4",
    "code": "hyakumeiten_italian_east_2021_restaurant_12001819",
    "lat": "35.631688",
    "lng": "140.1327",
    "id": "italian-37"
  }, {
    "name": "トラットリア トペ",
    "url": "https://tabelog.com/aichi/A2301/A230104/23005803/",
    "address": "愛知県 名古屋市東区 葵 1-19-30 マザックアートプラザ Ｂ２Ｆ",
    "code": "hyakumeiten_italian_east_2021_restaurant_23005803",
    "lat": "35.171046",
    "lng": "136.919936",
    "id": "italian-38"
  }, {
    "name": "リオス ボングスタイオ",
    "url": "https://tabelog.com/kanagawa/A1401/A140105/14055323/",
    "address": "神奈川県 横浜市中区 元町 1-23-1 リバーサイド元町 1F",
    "code": "hyakumeiten_italian_east_2021_restaurant_14055323",
    "lat": "35.441302",
    "lng": "139.649665",
    "id": "italian-39"
  }, {
    "name": "イルマーレ",
    "url": "https://tabelog.com/kanagawa/A1409/A140901/14000188/",
    "address": "神奈川県 小田原市 早川 1-11-6",
    "code": "hyakumeiten_italian_east_2021_restaurant_14000188",
    "lat": "35.240906",
    "lng": "139.147195",
    "id": "italian-40"
  }, {
    "name": "リストランテ シーヴァ",
    "url": "https://tabelog.com/kanagawa/A1404/A140402/14062451/",
    "address": "神奈川県 鎌倉市 七里ガ浜東 3-1-14",
    "code": "hyakumeiten_italian_east_2021_restaurant_14062451",
    "lat": "35.309977",
    "lng": "139.517162",
    "id": "italian-41"
  }, {
    "name": "トラットリア ダ・テレーサ",
    "url": "https://tabelog.com/kanagawa/A1401/A140207/14042586/",
    "address": "神奈川県 横浜市緑区 中山4-26-19",
    "code": "hyakumeiten_italian_east_2021_restaurant_14042586",
    "lat": "35.511582",
    "lng": "139.542479",
    "id": "italian-42"
  }, {
    "name": "リストランテ　ウミリア",
    "url": "https://tabelog.com/kanagawa/A1401/A140103/14045913/",
    "address": "神奈川県 横浜市西区 みなとみらい 4-6-2 みなとみらいグランドセントラルテラス",
    "code": "hyakumeiten_italian_east_2021_restaurant_14045913",
    "lat": "35.458947",
    "lng": "139.629592",
    "id": "italian-43"
  }, {
    "name": "オステリア・エノテカ・ダ・サスィーノ",
    "url": "https://tabelog.com/aomori/A0202/A020201/2000293/",
    "address": "青森県 弘前市 本町 56-8 グレイス本町 ２Ｆ",
    "code": "hyakumeiten_italian_east_2021_restaurant_2000293",
    "lat": "40.600972",
    "lng": "140.467008",
    "id": "italian-44"
  }, {
    "name": "ドルチェ ファール ニエンテ",
    "url": "https://tabelog.com/kanagawa/A1404/A140402/14001043/",
    "address": "神奈川県 鎌倉市 雪ノ下 1-5-34 ２Ｆ",
    "code": "hyakumeiten_italian_east_2021_restaurant_14001043",
    "lat": "35.322827",
    "lng": "139.552838",
    "id": "italian-45"
  }, {
    "name": "オステリア パーチェ",
    "url": "https://tabelog.com/kanagawa/A1401/A140201/14030876/",
    "address": "神奈川県 横浜市青葉区 荏田町 1476-1 カーサビラ 3F",
    "code": "hyakumeiten_italian_east_2021_restaurant_14030876",
    "lat": "35.562526",
    "lng": "139.557503",
    "id": "italian-46"
  }, {
    "name": "リストランテ カノフィーロ",
    "url": "https://tabelog.com/hokkaido/A0101/A010102/1000030/",
    "address": "北海道 札幌市中央区 南2条西1丁目8 アスカビル ２Ｆ",
    "code": "hyakumeiten_italian_east_2021_restaurant_1000030",
    "lat": "43.058233",
    "lng": "141.356903",
    "id": "italian-47"
  }, {
    "name": "ファイ",
    "url": "https://tabelog.com/hokkaido/A0101/A010103/1003075/",
    "address": "北海道 札幌市中央区 南2条西5-30-1",
    "code": "hyakumeiten_italian_east_2021_restaurant_1003075",
    "lat": "43.057848",
    "lng": "141.349926",
    "id": "italian-48"
  }, {
    "name": "イタリアン オット",
    "url": "https://tabelog.com/saitama/A1106/A110601/11026106/",
    "address": "埼玉県 所沢市 日吉町 10-18 2F",
    "code": "hyakumeiten_italian_east_2021_restaurant_11026106",
    "lat": "35.787993",
    "lng": "139.471956",
    "id": "italian-49"
  }, {
    "name": "横浜馬車道 旬の肉料理イタリアン オステリア・アウストロ",
    "url": "https://tabelog.com/kanagawa/A1401/A140104/14006096/",
    "address": "神奈川県 横浜市中区 北仲通 3-34-2 １Ｆ",
    "code": "hyakumeiten_italian_east_2021_restaurant_14006096",
    "lat": "35.449459",
    "lng": "139.638794",
    "id": "italian-50"
  }, {
    "name": "カステッロ",
    "url": "https://tabelog.com/chiba/A1204/A120402/12000104/",
    "address": "千葉県 佐倉市 臼井 1567-2",
    "code": "hyakumeiten_italian_east_2021_restaurant_12000104",
    "lat": "35.730558",
    "lng": "140.18858",
    "id": "italian-51"
  }, {
    "name": "クロッキオ",
    "url": "https://tabelog.com/hokkaido/A0101/A010103/1033822/",
    "address": "北海道 札幌市中央区 南三条西 8丁目7-4 遠藤ビル1F",
    "code": "hyakumeiten_italian_east_2021_restaurant_1033822",
    "lat": "43.056291",
    "lng": "141.346477",
    "id": "italian-52"
  }, {
    "name": "トラットリア・リョウゴク",
    "url": "https://tabelog.com/aichi/A2301/A230104/23029616/",
    "address": "愛知県 名古屋市東区 東桜 2-17-10",
    "code": "hyakumeiten_italian_east_2021_restaurant_23029616",
    "lat": "35.172016",
    "lng": "136.919092",
    "id": "italian-53"
  }, {
    "name": "ドディチ・マッジョ",
    "url": "https://tabelog.com/aichi/A2301/A230103/23000399/",
    "address": "愛知県 名古屋市東区 泉 1-22-7 IZUMI １ ビル １F",
    "code": "hyakumeiten_italian_east_2021_restaurant_23000399",
    "lat": "35.17466",
    "lng": "136.910996",
    "id": "italian-54"
  }, {
    "name": "オステリア　オルカドーロ",
    "url": "https://tabelog.com/aichi/A2301/A230109/23051301/",
    "address": "愛知県 名古屋市西区 花の木 2-17-9",
    "code": "hyakumeiten_italian_east_2021_restaurant_23051301",
    "lat": "35.189682",
    "lng": "136.890724",
    "id": "italian-55"
  }, {
    "name": "サンタキアラ",
    "url": "https://tabelog.com/aichi/A2301/A230110/23032635/",
    "address": "愛知県 名古屋市東区 徳川町 1904 シャロームＫ １Ｆ",
    "code": "hyakumeiten_italian_east_2021_restaurant_23032635",
    "lat": "35.185738",
    "lng": "136.930902",
    "id": "italian-56"
  }, {
    "name": "キートス",
    "url": "https://tabelog.com/aichi/A2301/A230104/23043215/",
    "address": "愛知県 名古屋市中区 新栄 2-4-15 新栄サンハイツ1F",
    "code": "hyakumeiten_italian_east_2021_restaurant_23043215",
    "lat": "35.169361",
    "lng": "136.923318",
    "id": "italian-57"
  }, {
    "name": "テルツィーナ",
    "url": "https://tabelog.com/hokkaido/A0101/A010102/1002157/",
    "address": "北海道 札幌市中央区 北2条東4丁目 サッポロファクトリーレンガ館1階",
    "code": "hyakumeiten_italian_east_2021_restaurant_1002157",
    "lat": "43.065246",
    "lng": "141.361889",
    "id": "italian-58"
  }, {
    "name": "シャトン",
    "url": "https://tabelog.com/iwate/A0301/A030101/3000029/",
    "address": "岩手県 盛岡市 内丸 16-16",
    "code": "hyakumeiten_italian_east_2021_restaurant_3000029",
    "lat": "39.7045",
    "lng": "141.154342",
    "id": "italian-59"
  }, {
    "name": "タボラ カルダ ミヤケ",
    "url": "https://tabelog.com/aichi/A2301/A230104/23037773/",
    "address": "愛知県 名古屋市東区 代官町 27-12 北條ビルA",
    "code": "hyakumeiten_italian_east_2021_restaurant_23037773",
    "lat": "35.17599",
    "lng": "136.924766",
    "id": "italian-60"
  }, {
    "name": "クオーレ・フォルテ",
    "url": "https://tabelog.com/kanagawa/A1401/A140101/14010823/",
    "address": "神奈川県 横浜市神奈川区 鶴屋町 2-19-2 井上ビル １Ｆ",
    "code": "hyakumeiten_italian_east_2021_restaurant_14010823",
    "lat": "35.469176",
    "lng": "139.622287",
    "id": "italian-61"
  }, {
    "name": "イル・パチョッコーネ・ディ・キャンティ",
    "url": "https://tabelog.com/kanagawa/A1405/A140501/14013395/",
    "address": "神奈川県 川崎市川崎区 小川町 4-1 ラチッタデッラ F",
    "code": "hyakumeiten_italian_east_2021_restaurant_14013395",
    "lat": "35.528044",
    "lng": "139.697916",
    "id": "italian-62"
  }, {
    "name": "エスト! プロッシモ",
    "url": "https://tabelog.com/chiba/A1201/A120101/12000120/",
    "address": "千葉県 千葉市中央区 新町 22-3",
    "code": "hyakumeiten_italian_east_2021_restaurant_12000120",
    "lat": "35.609745",
    "lng": "140.112483",
    "id": "italian-63"
  }, {
    "name": "リストランテ アルベロベッロ",
    "url": "https://tabelog.com/kanagawa/A1408/A140803/14000879/",
    "address": "神奈川県 伊勢原市 上粕屋 298-1 アネーロ １Ｆ",
    "code": "hyakumeiten_italian_east_2021_restaurant_14000879",
    "lat": "35.408566",
    "lng": "139.304326",
    "id": "italian-64"
  }, {
    "name": "リストランテ パドリーノ・デル・ショーザン",
    "url": "https://tabelog.com/miyagi/A0401/A040101/4008730/",
    "address": "宮城県 仙台市青葉区 上杉 2-1-50 勝山館 １Ｆ",
    "code": "hyakumeiten_italian_east_2021_restaurant_4008730",
    "lat": "38.27387",
    "lng": "140.872931",
    "id": "italian-65"
  }, {
    "name": "モデスト",
    "url": "https://tabelog.com/nagano/A2003/A200301/20003459/",
    "address": "長野県 北佐久郡軽井沢町 長倉 3430-5",
    "code": "hyakumeiten_italian_east_2021_restaurant_20003459",
    "lat": "36.349332",
    "lng": "138.582992",
    "id": "italian-66"
  }, {
    "name": "エッセルンガ",
    "url": "https://tabelog.com/kanagawa/A1404/A140402/14029106/",
    "address": "神奈川県 鎌倉市 長谷 1-14-26",
    "code": "hyakumeiten_italian_east_2021_restaurant_14029106",
    "lat": "35.313611",
    "lng": "139.535656",
    "id": "italian-67"
  }, {
    "name": "ヴィノテカサクラ",
    "url": "https://tabelog.com/kanagawa/A1401/A140104/14002095/",
    "address": "神奈川県 横浜市中区 太田町 4-47 コーワ太田町ビル １Ｆ",
    "code": "hyakumeiten_italian_east_2021_restaurant_14002095",
    "lat": "35.448048",
    "lng": "139.637056",
    "id": "italian-68"
  }, {
    "name": "Vv.lab",
    "url": "https://tabelog.com/chiba/A1201/A120102/12026385/",
    "address": "千葉県 千葉市花見川区 幕張町 5-417-18",
    "code": "hyakumeiten_italian_east_2021_restaurant_12026385",
    "lat": "35.653901",
    "lng": "140.051625",
    "id": "italian-69"
  }, {
    "name": "フラテッロ・ディ・ミクニ",
    "url": "https://tabelog.com/hokkaido/A0104/A010405/1041992/",
    "address": "北海道 上川郡上川町 菊水 旭ヶ丘",
    "code": "hyakumeiten_italian_east_2021_restaurant_1041992",
    "lat": "43.798013",
    "lng": "142.821498",
    "id": "italian-70"
  }, {
    "name": "ガストロノミーソール ヤナギヤ",
    "url": "https://tabelog.com/aichi/A2301/A230103/23066535/",
    "address": "愛知県 名古屋市中区 錦 3-19-30 第三錦ビル 2F",
    "code": "hyakumeiten_italian_east_2021_restaurant_23066535",
    "lat": "35.170279",
    "lng": "136.903499",
    "id": "italian-71"
  }, {
    "name": "OSTERIA il FUOCO",
    "url": "https://tabelog.com/kanagawa/A1401/A140102/14051993/",
    "address": "神奈川県 横浜市西区 岡野 1-16-14",
    "code": "hyakumeiten_italian_east_2021_restaurant_14051993",
    "lat": "35.463259",
    "lng": "139.615061",
    "id": "italian-72"
  }, {
    "name": "パスタプール ディ ヴォラント",
    "url": "https://tabelog.com/aichi/A2301/A230106/23058455/",
    "address": "愛知県 名古屋市千種区 若水 3-30-3 小川マンション 1F",
    "code": "hyakumeiten_italian_east_2021_restaurant_23058455",
    "lat": "35.17351",
    "lng": "136.948821",
    "id": "italian-73"
  }, {
    "name": "レオーネ・マルチアーノ",
    "url": "https://tabelog.com/kanagawa/A1401/A140103/14045408/",
    "address": "神奈川県 横浜市西区 みなとみらい 4-6-2 みなとみらいグランドセントラルテラス 1F",
    "code": "hyakumeiten_italian_east_2021_restaurant_14045408",
    "lat": "35.459066",
    "lng": "139.629404",
    "id": "italian-74"
  }, {
    "name": "ラ タベルネッタ アッラ チヴィテッリーナ",
    "url": "https://tabelog.com/chiba/A1201/A120101/12001180/",
    "address": "千葉県 千葉市中央区 中央 2-8-14",
    "code": "hyakumeiten_italian_east_2021_restaurant_12001180",
    "lat": "35.609447",
    "lng": "140.12294",
    "id": "italian-75"
  }, {
    "name": "CANTINETTA SALUS",
    "url": "https://tabelog.com/hokkaido/A0101/A010103/1009929/",
    "address": "北海道 札幌市中央区 南3条西3丁目2-2 G DINING SAPPORO 1F",
    "code": "hyakumeiten_italian_east_2021_restaurant_1009929",
    "lat": "43.056588",
    "lng": "141.354326",
    "id": "italian-76"
  }, {
    "name": "MANNA",
    "url": "https://tabelog.com/kanagawa/A1404/A140402/14031732/",
    "address": "神奈川県 鎌倉市 長谷 2-4-7",
    "code": "hyakumeiten_italian_east_2021_restaurant_14031732",
    "lat": "35.312995",
    "lng": "139.539396",
    "id": "italian-77"
  }, {
    "name": "THE KAWABUN NAGOYA",
    "url": "https://tabelog.com/aichi/A2301/A230102/23007484/",
    "address": "愛知県 名古屋市中区 丸の内 2-12-30",
    "code": "hyakumeiten_italian_east_2021_restaurant_23007484",
    "lat": "35.175611",
    "lng": "136.90045",
    "id": "italian-78"
  }, {
    "name": "オステリア ラ・マンテ 本店",
    "url": "https://tabelog.com/aichi/A2301/A230101/23038406/",
    "address": "愛知県 名古屋市中村区 那古野 1-39-3 さくらＨｉｌｌｓリバーサイドＷＥＳＴ １Ｆ",
    "code": "hyakumeiten_italian_east_2021_restaurant_23038406",
    "lat": "35.173474",
    "lng": "136.892392",
    "id": "italian-79"
  }, {
    "name": "ゴッチャポント",
    "url": "https://tabelog.com/aichi/A2302/A230201/23013536/",
    "address": "愛知県 一宮市 森本 2-15-6",
    "code": "hyakumeiten_italian_east_2021_restaurant_23013536",
    "lat": "35.291713",
    "lng": "136.813347",
    "id": "italian-80"
  }, {
    "name": "エノテカ・オルモ・デル・カウカソ",
    "url": "https://tabelog.com/akita/A0501/A050101/5003951/",
    "address": "秋田県 秋田市 山王 1-6-20 1F",
    "code": "hyakumeiten_italian_east_2021_restaurant_5003951",
    "lat": "39.722112",
    "lng": "140.101298",
    "id": "italian-81"
  }, {
    "name": "イル・リフージョ・ハヤマ",
    "url": "https://tabelog.com/kanagawa/A1406/A140602/14036164/",
    "address": "神奈川県 三浦郡葉山町 一色 2179",
    "code": "hyakumeiten_italian_east_2021_restaurant_14036164",
    "lat": "35.26484",
    "lng": "139.578394",
    "id": "italian-82"
  }, {
    "name": "セッタンタ",
    "url": "https://tabelog.com/aichi/A2301/A230103/23057680/",
    "address": "愛知県 名古屋市東区 泉 1-15-23 1F",
    "code": "hyakumeiten_italian_east_2021_restaurant_23057680",
    "lat": "35.175095",
    "lng": "136.908852",
    "id": "italian-83"
  }, {
    "name": "PRIMO",
    "url": "https://tabelog.com/kanagawa/A1401/A140104/14068940/",
    "address": "神奈川県 横浜市中区 常盤町 5-72-1 GM横浜馬車道ビル 1F",
    "code": "hyakumeiten_italian_east_2021_restaurant_14068940",
    "lat": "35.447319",
    "lng": "139.634372",
    "id": "italian-84"
  }, {
    "name": "イノウエ グリリア",
    "url": "https://tabelog.com/kanagawa/A1401/A140102/14010249/",
    "address": "神奈川県 横浜市西区 平沼 1-13-26",
    "code": "hyakumeiten_italian_east_2021_restaurant_14010249",
    "lat": "35.458516",
    "lng": "139.619567",
    "id": "italian-85"
  }, {
    "name": "魚介のイタリア料理 murata",
    "url": "https://tabelog.com/aichi/A2301/A230101/23053827/",
    "address": "愛知県 名古屋市西区 那古野 1-14-18 那古野ビル北館 120",
    "code": "hyakumeiten_italian_east_2021_restaurant_23053827",
    "lat": "35.175381",
    "lng": "136.890219",
    "id": "italian-86"
  }, {
    "name": "デッラ・アモーレ",
    "url": "https://tabelog.com/hokkaido/A0101/A010105/1006709/",
    "address": "北海道 札幌市中央区 宮の森 1条4-1-21 パナシェ宮の森",
    "code": "hyakumeiten_italian_east_2021_restaurant_1006709",
    "lat": "43.062516",
    "lng": "141.310612",
    "id": "italian-87"
  }, {
    "name": "フォセッタ",
    "url": "https://tabelog.com/kanagawa/A1404/A140402/14000283/",
    "address": "神奈川県 鎌倉市 西鎌倉 1-2-1",
    "code": "hyakumeiten_italian_east_2021_restaurant_14000283",
    "lat": "35.322776",
    "lng": "139.506099",
    "id": "italian-88"
  }, {
    "name": "ラ・リリアーナ",
    "url": "https://tabelog.com/aichi/A2301/A230108/23000080/",
    "address": "愛知県 名古屋市昭和区 滝川町 47-24 光洋マテリカビル １Ｆ",
    "code": "hyakumeiten_italian_east_2021_restaurant_23000080",
    "lat": "35.142868",
    "lng": "136.961094",
    "id": "italian-89"
  }, {
    "name": "レロエ オヴェスト 三規庭",
    "url": "https://tabelog.com/kanagawa/A1401/A140201/14011609/",
    "address": "神奈川県 横浜市青葉区 あざみ野 2-30 三規庭 2F",
    "code": "hyakumeiten_italian_east_2021_restaurant_14011609",
    "lat": "35.568886",
    "lng": "139.545098",
    "id": "italian-90"
  }, {
    "name": "ソラメントゥーノ",
    "url": "https://tabelog.com/aichi/A2301/A230106/23032828/",
    "address": "愛知県 名古屋市東区 代官町 10-7 山本ビル 1Ｆ",
    "code": "hyakumeiten_italian_east_2021_restaurant_23032828",
    "lat": "35.178387",
    "lng": "136.925098",
    "id": "italian-91"
  }, {
    "name": "セラフィーノ",
    "url": "https://tabelog.com/kanagawa/A1404/A140404/14039203/",
    "address": "神奈川県 藤沢市 鵠沼橘 1-16-14 ヤマキビル１Ａ",
    "code": "hyakumeiten_italian_east_2021_restaurant_14039203",
    "lat": "35.337133",
    "lng": "139.485465",
    "id": "italian-92"
  }, {
    "name": "ヴィネリア カッシーニ",
    "url": "https://tabelog.com/aichi/A2301/A230105/23051011/",
    "address": "愛知県 名古屋市中区 伊勢山 1-9-13 伊勢山ハイツ 1F",
    "code": "hyakumeiten_italian_east_2021_restaurant_23051011",
    "lat": "35.149425",
    "lng": "136.899874",
    "id": "italian-93"
  }, {
    "name": "オルトレヴィーノ",
    "url": "https://tabelog.com/kanagawa/A1404/A140402/14035202/",
    "address": "神奈川県 鎌倉市 長谷 2-5-40",
    "code": "hyakumeiten_italian_east_2021_restaurant_14035202",
    "lat": "35.313067",
    "lng": "139.538146",
    "id": "italian-94"
  }, {
    "name": "イタリアン酒場ナチュラ 武蔵小杉店",
    "url": "https://tabelog.com/kanagawa/A1405/A140504/14035951/",
    "address": "神奈川県 川崎市中原区 小杉町 3-428-6",
    "code": "hyakumeiten_italian_east_2021_restaurant_14035951",
    "lat": "35.575254",
    "lng": "139.658476",
    "id": "italian-95"
  }, {
    "name": "ボラント",
    "url": "https://tabelog.com/aichi/A2301/A230108/23000052/",
    "address": "愛知県 名古屋市昭和区 滝川町 40-2",
    "code": "hyakumeiten_italian_east_2021_restaurant_23000052",
    "lat": "35.142561",
    "lng": "136.956538",
    "id": "italian-96"
  }, {
    "name": "La Bonta",
    "url": "https://tabelog.com/chiba/A1202/A120201/12024353/",
    "address": "千葉県 船橋市 本町 1-23-20 立山ビル １Ｆ",
    "code": "hyakumeiten_italian_east_2021_restaurant_12024353",
    "lat": "35.700402",
    "lng": "139.981381",
    "id": "italian-97"
  }, {
    "name": "ラ・ルーチェ",
    "url": "https://tabelog.com/kanagawa/A1404/A140402/14008725/",
    "address": "神奈川県 鎌倉市 雪ノ下 1-7-6",
    "code": "hyakumeiten_italian_east_2021_restaurant_14008725",
    "lat": "35.323419",
    "lng": "139.553428",
    "id": "italian-98"
  }, {
    "name": "クルベル・キャン",
    "url": "https://tabelog.com/kanagawa/A1404/A140402/14035176/",
    "address": "神奈川県 鎌倉市 小町 2-9-14 植山ビル20Ｂ",
    "code": "hyakumeiten_italian_east_2021_restaurant_14035176",
    "lat": "35.320644",
    "lng": "139.552345",
    "id": "italian-99"
  }, {
    "name": "ペレグリーノ",
    "url": "https://tabelog.com/tokyo/A1303/A130302/13072775/",
    "address": "東京都 渋谷区 恵比寿 2-3-4",
    "code": "hyakumeiten_italian_tokyo_2021_restaurant_13072775",
    "lat": "35.648029",
    "lng": "139.718474",
    "id": "italian-100"
  }, {
    "name": "TACUBO",
    "url": "https://tabelog.com/tokyo/A1303/A130303/13109940/",
    "address": "東京都 渋谷区 恵比寿西 2-13-16 ラングス代官山 1F",
    "code": "hyakumeiten_italian_tokyo_2021_restaurant_13109940",
    "lat": "35.650842",
    "lng": "139.706016",
    "id": "italian-101"
  }, {
    "name": "K+",
    "url": "https://tabelog.com/tokyo/A1307/A130703/13213748/",
    "address": "東京都 港区 西麻布 4-5-8",
    "code": "hyakumeiten_italian_tokyo_2021_restaurant_13213748",
    "lat": "35.656522",
    "lng": "139.72317",
    "id": "italian-102"
  }, {
    "name": "RODEO",
    "url": "https://tabelog.com/tokyo/A1317/A131701/13213575/",
    "address": "東京都 目黒区 中目黒 3-5-1 中目黒プレアタワー 1F",
    "code": "hyakumeiten_italian_tokyo_2021_restaurant_13213575",
    "lat": "35.640754",
    "lng": "139.702054",
    "id": "italian-103"
  }, {
    "name": "リストランテ 濱崎",
    "url": "https://tabelog.com/tokyo/A1306/A130602/13005340/",
    "address": "東京都 港区 南青山 4-11-13",
    "code": "hyakumeiten_italian_tokyo_2021_restaurant_13005340",
    "lat": "35.665698",
    "lng": "139.717611",
    "id": "italian-104"
  }, {
    "name": "ボッテガ",
    "url": "https://tabelog.com/tokyo/A1307/A130703/13204358/",
    "address": "東京都 渋谷区 広尾 5-17-8 アプリシエ広尾 B1F",
    "code": "hyakumeiten_italian_tokyo_2021_restaurant_13204358",
    "lat": "35.649467",
    "lng": "139.720405",
    "id": "italian-105"
  }, {
    "name": "la Brianza",
    "url": "https://tabelog.com/tokyo/A1307/A130701/13194346/",
    "address": "東京都 港区 六本木 6-12-3 六本木ヒルズけやき坂通り 六本木ヒルズレジデンスＣ棟 3F",
    "code": "hyakumeiten_italian_tokyo_2021_restaurant_13194346",
    "lat": "35.659068",
    "lng": "139.729498",
    "id": "italian-106"
  }, {
    "name": "ヴィンチェロ",
    "url": "https://tabelog.com/tokyo/A1304/A130402/13004299/",
    "address": "東京都 新宿区 新宿 5-1-13 ＭＯＡビル 1F",
    "code": "hyakumeiten_italian_tokyo_2021_restaurant_13004299",
    "lat": "35.692753",
    "lng": "139.712418",
    "id": "italian-107"
  }, {
    "name": "ドンブラボー",
    "url": "https://tabelog.com/tokyo/A1326/A132601/13144681/",
    "address": "東京都 調布市 国領町 3-6-43",
    "code": "hyakumeiten_italian_tokyo_2021_restaurant_13144681",
    "lat": "35.648235",
    "lng": "139.559637",
    "id": "italian-108"
  }, {
    "name": "ARMONICO",
    "url": "https://tabelog.com/tokyo/A1303/A130303/13156479/",
    "address": "東京都 渋谷区 代官山町 12-16 シンフォニー代官山 102",
    "code": "hyakumeiten_italian_tokyo_2021_restaurant_13156479",
    "lat": "35.650675",
    "lng": "139.703602",
    "id": "italian-109"
  }, {
    "name": "イル テアトリーノ ダ サローネ",
    "url": "https://tabelog.com/tokyo/A1307/A130703/13110652/",
    "address": "東京都 港区 南青山 7-11-5 HOUSE7115 B1F",
    "code": "hyakumeiten_italian_tokyo_2021_restaurant_13110652",
    "lat": "35.658601",
    "lng": "139.718746",
    "id": "italian-110"
  }, {
    "name": "ラパルタメント ディ ナオキ",
    "url": "https://tabelog.com/tokyo/A1307/A130702/13120467/",
    "address": "東京都 港区 麻布十番 3-3-9 VORT麻布十番Ⅱ 4F",
    "code": "hyakumeiten_italian_tokyo_2021_restaurant_13120467",
    "lat": "35.653636",
    "lng": "139.735725",
    "id": "italian-111"
  }, {
    "name": "リストランテ ペガソ",
    "url": "https://tabelog.com/tokyo/A1307/A130703/13152248/",
    "address": "東京都 港区 南青山 7-12-12 ムジカーサ南青山 1F",
    "code": "hyakumeiten_italian_tokyo_2021_restaurant_13152248",
    "lat": "35.657737",
    "lng": "139.718388",
    "id": "italian-112"
  }, {
    "name": "ICARO miyamoto",
    "url": "https://tabelog.com/tokyo/A1317/A131701/13050216/",
    "address": "東京都 目黒区 上目黒 2-44-24 ＣＯＭＳ中目黒 4Ｆ",
    "code": "hyakumeiten_italian_tokyo_2021_restaurant_13050216",
    "lat": "35.641933",
    "lng": "139.696887",
    "id": "italian-113"
  }, {
    "name": "セルサルサーレ",
    "url": "https://tabelog.com/tokyo/A1303/A130302/13166739/",
    "address": "東京都 渋谷区 恵比寿西 1-16-7 ハギワラビル 1F",
    "code": "hyakumeiten_italian_tokyo_2021_restaurant_13166739",
    "lat": "35.648677",
    "lng": "139.707073",
    "id": "italian-114"
  }, {
    "name": "リストランテ ラ チャウ",
    "url": "https://tabelog.com/tokyo/A1314/A131402/13044737/",
    "address": "東京都 港区 芝浦 2-16-7 中野第3ビル B1F",
    "code": "hyakumeiten_italian_tokyo_2021_restaurant_13044737",
    "lat": "35.644443",
    "lng": "139.752048",
    "id": "italian-115"
  }, {
    "name": "イル プレージョ",
    "url": "https://tabelog.com/tokyo/A1318/A131811/13147391/",
    "address": "東京都 渋谷区 上原 1-17-7 フレニティハウス 2F",
    "code": "hyakumeiten_italian_tokyo_2021_restaurant_13147391",
    "lat": "35.668987",
    "lng": "139.682563",
    "id": "italian-116"
  }, {
    "name": "フィオッキ",
    "url": "https://tabelog.com/tokyo/A1318/A131814/13003427/",
    "address": "東京都 世田谷区 祖師谷 3-4-9 松紀ビル １Ｆ",
    "code": "hyakumeiten_italian_tokyo_2021_restaurant_13003427",
    "lat": "35.642963",
    "lng": "139.606524",
    "id": "italian-117"
  }, {
    "name": "ロマンティコ",
    "url": "https://tabelog.com/tokyo/A1316/A131602/13021521/",
    "address": "東京都 港区 白金台 5-14-8 タイニービル 2F",
    "code": "hyakumeiten_italian_tokyo_2021_restaurant_13021521",
    "lat": "35.638438",
    "lng": "139.722604",
    "id": "italian-118"
  }, {
    "name": "SALONE TOKYO",
    "url": "https://tabelog.com/tokyo/A1301/A130102/13218266/",
    "address": "東京都 千代田区 有楽町 1-1-2 東京ミッドタウン日比谷 3F",
    "code": "hyakumeiten_italian_tokyo_2021_restaurant_13218266",
    "lat": "35.67373",
    "lng": "139.759138",
    "id": "italian-119"
  }, {
    "name": "プリズマ",
    "url": "https://tabelog.com/tokyo/A1306/A130602/13123890/",
    "address": "東京都 港区 南青山 6-4-6 青山ＡＬＬＥＹ 1F",
    "code": "hyakumeiten_italian_tokyo_2021_restaurant_13123890",
    "lat": "35.661617",
    "lng": "139.716637",
    "id": "italian-120"
  }, {
    "name": "アロマフレスカ",
    "url": "https://tabelog.com/tokyo/A1301/A130101/13129298/",
    "address": "東京都 中央区 銀座 2-6-5 GINZA TRECIOUS 12F",
    "code": "hyakumeiten_italian_tokyo_2021_restaurant_13129298",
    "lat": "35.673689",
    "lng": "139.767161",
    "id": "italian-121"
  }, {
    "name": "プリンチピオ",
    "url": "https://tabelog.com/tokyo/A1307/A130702/13144481/",
    "address": "東京都 港区 麻布十番 2-4-8 麻布十番舘 2F",
    "code": "hyakumeiten_italian_tokyo_2021_restaurant_13144481",
    "lat": "35.655753",
    "lng": "139.734787",
    "id": "italian-122"
  }, {
    "name": "ダペピ",
    "url": "https://tabelog.com/tokyo/A1323/A132301/13124157/",
    "address": "東京都 文京区 千石 4-25-6 荒井マンション 101",
    "code": "hyakumeiten_italian_tokyo_2021_restaurant_13124157",
    "lat": "35.73027",
    "lng": "139.739486",
    "id": "italian-123"
  }, {
    "name": "リストランテ ラ・バリック トウキョウ",
    "url": "https://tabelog.com/tokyo/A1309/A130905/13044652/",
    "address": "東京都 文京区 水道 2-12-2",
    "code": "hyakumeiten_italian_tokyo_2021_restaurant_13044652",
    "lat": "35.709845",
    "lng": "139.734818",
    "id": "italian-124"
  }, {
    "name": "VIA Brianza",
    "url": "https://tabelog.com/tokyo/A1307/A130702/13004549/",
    "address": "東京都 港区 麻布十番 2-17-8 パークＩビル 1Ｆ",
    "code": "hyakumeiten_italian_tokyo_2021_restaurant_13004549",
    "lat": "35.654078",
    "lng": "139.735858",
    "id": "italian-125"
  }, {
    "name": "インカント",
    "url": "https://tabelog.com/tokyo/A1307/A130703/13043684/",
    "address": "東京都 港区 南麻布 4-12-2 ピュアーレ広尾 ２Ｆ",
    "code": "hyakumeiten_italian_tokyo_2021_restaurant_13043684",
    "lat": "35.647372",
    "lng": "139.724009",
    "id": "italian-126"
  }, {
    "name": "オステリア・オリエーラ",
    "url": "https://tabelog.com/tokyo/A1304/A130401/13099830/",
    "address": "東京都 新宿区 新宿 3-7-5 一兆ビル ２F",
    "code": "hyakumeiten_italian_tokyo_2021_restaurant_13099830",
    "lat": "35.690953",
    "lng": "139.705964",
    "id": "italian-127"
  }, {
    "name": "リストランテ･ヒロ  青山",
    "url": "https://tabelog.com/tokyo/A1306/A130602/13002025/",
    "address": "東京都 港区 南青山 5-5-25 Ｔ－ＰＬＡＣＥ Ｂ１Ｆ",
    "code": "hyakumeiten_italian_tokyo_2021_restaurant_13002025",
    "lat": "35.663683",
    "lng": "139.712985",
    "id": "italian-128"
  }, {
    "name": "Convivio",
    "url": "https://tabelog.com/tokyo/A1309/A130901/13149817/",
    "address": "東京都 渋谷区 千駄ヶ谷 3-17-12 カミムラビル 1F",
    "code": "hyakumeiten_italian_tokyo_2021_restaurant_13149817",
    "lat": "35.675949",
    "lng": "139.708045",
    "id": "italian-129"
  }, {
    "name": "シチリア屋",
    "url": "https://tabelog.com/tokyo/A1323/A132301/13172747/",
    "address": "東京都 文京区 白山 1-5-5 MC白山ビル 1F",
    "code": "hyakumeiten_italian_tokyo_2021_restaurant_13172747",
    "lat": "35.715799",
    "lng": "139.752483",
    "id": "italian-130"
  }, {
    "name": "カーザ ヴィニタリア",
    "url": "https://tabelog.com/tokyo/A1307/A130702/13010456/",
    "address": "東京都 港区 南麻布 1-7-31 Ｍ ＴＯＷＥＲ 2Ｆ",
    "code": "hyakumeiten_italian_tokyo_2021_restaurant_13010456",
    "lat": "35.651158",
    "lng": "139.737138",
    "id": "italian-131"
  }, {
    "name": "ポンテ デル ピアット",
    "url": "https://tabelog.com/tokyo/A1307/A130703/13166111/",
    "address": "東京都 渋谷区 広尾 5-19-7 協和ビル 1F",
    "code": "hyakumeiten_italian_tokyo_2021_restaurant_13166111",
    "lat": "35.649029",
    "lng": "139.720178",
    "id": "italian-132"
  }, {
    "name": "マジカメンテ",
    "url": "https://tabelog.com/tokyo/A1303/A130302/13121950/",
    "address": "東京都 渋谷区 恵比寿 3-41-9 恵比寿台ハイツ 1F",
    "code": "hyakumeiten_italian_tokyo_2021_restaurant_13121950",
    "lat": "35.643919",
    "lng": "139.719094",
    "id": "italian-133"
  }, {
    "name": "レストラン ラッセ",
    "url": "https://tabelog.com/tokyo/A1316/A131601/13125439/",
    "address": "東京都 目黒区 目黒 1-4-15 ヴェローナ目黒 B1F",
    "code": "hyakumeiten_italian_tokyo_2021_restaurant_13125439",
    "lat": "35.632841",
    "lng": "139.713028",
    "id": "italian-134"
  }, {
    "name": "ALTER EGO",
    "url": "https://tabelog.com/tokyo/A1310/A131003/13231135/",
    "address": "東京都 千代田区 神田神保町 2-2-32",
    "code": "hyakumeiten_italian_tokyo_2021_restaurant_13231135",
    "lat": "35.696328",
    "lng": "139.757042",
    "id": "italian-135"
  }, {
    "name": "ロットチェント",
    "url": "https://tabelog.com/tokyo/A1302/A130203/13198683/",
    "address": "東京都 中央区 日本橋小網町 11-9 ザ・パークレックス小網町第２ビル",
    "code": "hyakumeiten_italian_tokyo_2021_restaurant_13198683",
    "lat": "35.682619",
    "lng": "139.781114",
    "id": "italian-136"
  }, {
    "name": "リストランティーノ ルベロ",
    "url": "https://tabelog.com/tokyo/A1316/A131601/13045711/",
    "address": "東京都 品川区 上大崎 3-5-18",
    "code": "hyakumeiten_italian_tokyo_2021_restaurant_13045711",
    "lat": "35.634056",
    "lng": "139.719125",
    "id": "italian-137"
  }, {
    "name": "アッピア 本店",
    "url": "https://tabelog.com/tokyo/A1307/A130703/13001593/",
    "address": "東京都 港区 南麻布 4-11-35 インペリアル広尾 B101",
    "code": "hyakumeiten_italian_tokyo_2021_restaurant_13001593",
    "lat": "35.647045",
    "lng": "139.726211",
    "id": "italian-138"
  }, {
    "name": "エルバ ダ ナカヒガシ",
    "url": "https://tabelog.com/tokyo/A1307/A130703/13191105/",
    "address": "東京都 港区 西麻布 4-4-16 NISHIAZABU4416 B1F",
    "code": "hyakumeiten_italian_tokyo_2021_restaurant_13191105",
    "lat": "35.657513",
    "lng": "139.723549",
    "id": "italian-139"
  }, {
    "name": "チニャーレエノテカ",
    "url": "https://tabelog.com/tokyo/A1318/A131801/13189915/",
    "address": "東京都 目黒区 駒場 1-5-11",
    "code": "hyakumeiten_italian_tokyo_2021_restaurant_13189915",
    "lat": "35.655657",
    "lng": "139.689293",
    "id": "italian-140"
  }, {
    "name": "サーラ アマービレ",
    "url": "https://tabelog.com/tokyo/A1301/A130101/13113809/",
    "address": "東京都 中央区 銀座 2-6-5 銀座トレシャス 12F",
    "code": "hyakumeiten_italian_tokyo_2021_restaurant_13113809",
    "lat": "35.673706",
    "lng": "139.767152",
    "id": "italian-141"
  }, {
    "name": "リストランテ ASO",
    "url": "https://tabelog.com/tokyo/A1303/A130303/13003356/",
    "address": "東京都 渋谷区 猿楽町 29-3",
    "code": "hyakumeiten_italian_tokyo_2021_restaurant_13003356",
    "lat": "35.648418",
    "lng": "139.699285",
    "id": "italian-142"
  }, {
    "name": "ラ・ベットラ・ダ・オチアイ",
    "url": "https://tabelog.com/tokyo/A1313/A131301/13002504/",
    "address": "東京都 中央区 銀座 1-21-2",
    "code": "hyakumeiten_italian_tokyo_2021_restaurant_13002504",
    "lat": "35.67277",
    "lng": "139.771098",
    "id": "italian-143"
  }, {
    "name": "トラットリア タンタボッカ",
    "url": "https://tabelog.com/tokyo/A1304/A130403/13058484/",
    "address": "東京都 渋谷区 千駄ヶ谷 4-5-1 ニュー外苑ハイツ 1F",
    "code": "hyakumeiten_italian_tokyo_2021_restaurant_13058484",
    "lat": "35.67968",
    "lng": "139.704325",
    "id": "italian-144"
  }, {
    "name": "エリオ・ロカンダ・イタリアーナ",
    "url": "https://tabelog.com/tokyo/A1308/A130803/13000293/",
    "address": "東京都 千代田区 麹町 2-5-2 半蔵門ハウス １Ｆ",
    "code": "hyakumeiten_italian_tokyo_2021_restaurant_13000293",
    "lat": "35.683482",
    "lng": "139.740615",
    "id": "italian-145"
  }, {
    "name": "トラットリア グランボッカ",
    "url": "https://tabelog.com/tokyo/A1309/A130905/13173167/",
    "address": "東京都 千代田区 富士見 2-10-2 飯田橋グラン・ブルーム サクラテラス 2F",
    "code": "hyakumeiten_italian_tokyo_2021_restaurant_13173167",
    "lat": "35.698947",
    "lng": "139.74387",
    "id": "italian-146"
  }, {
    "name": "トラットリア シチリアーナ・ドンチッチョ",
    "url": "https://tabelog.com/tokyo/A1303/A130301/13026215/",
    "address": "東京都 渋谷区 渋谷 2-3-6",
    "code": "hyakumeiten_italian_tokyo_2021_restaurant_13026215",
    "lat": "35.659242",
    "lng": "139.70873",
    "id": "italian-147"
  }, {
    "name": "アンティカ オステリア カルネヤ",
    "url": "https://tabelog.com/tokyo/A1309/A130905/13045549/",
    "address": "東京都 新宿区 南山伏町 3-6 市ヶ谷NHビル1F",
    "code": "hyakumeiten_italian_tokyo_2021_restaurant_13045549",
    "lat": "35.699016",
    "lng": "139.729837",
    "id": "italian-148"
  }, {
    "name": "トラットリア デッラ ランテルナ マジカ",
    "url": "https://tabelog.com/tokyo/A1316/A131601/13015855/",
    "address": "東京都 品川区 上大崎 2-9-26 Ｔ＆Ｈ Ｍｅｍｏｒｙ 1Ｆ",
    "code": "hyakumeiten_italian_tokyo_2021_restaurant_13015855",
    "lat": "35.636664",
    "lng": "139.715704",
    "id": "italian-149"
  }, {
    "name": "Giglio",
    "url": "https://tabelog.com/tokyo/A1301/A130103/13048986/",
    "address": "東京都 港区 新橋 6-9-2 新橋第一ビル Ｂ１Ｆ",
    "code": "hyakumeiten_italian_tokyo_2021_restaurant_13048986",
    "lat": "35.661662",
    "lng": "139.755943",
    "id": "italian-150"
  }, {
    "name": "リストランテ カシーナ カナミッラ",
    "url": "https://tabelog.com/tokyo/A1317/A131701/13020531/",
    "address": "東京都 目黒区 青葉台 1-23-3 青葉台東和ビル 2Ｆ",
    "code": "hyakumeiten_italian_tokyo_2021_restaurant_13020531",
    "lat": "35.646633",
    "lng": "139.696919",
    "id": "italian-151"
  }, {
    "name": "Felicelina",
    "url": "https://tabelog.com/tokyo/A1317/A131701/13130019/",
    "address": "東京都 目黒区 青葉台 1-15-2 AK-3 building 2-a",
    "code": "hyakumeiten_italian_tokyo_2021_restaurant_13130019",
    "lat": "35.647984",
    "lng": "139.696975",
    "id": "italian-152"
  }, {
    "name": "ダルマット 恵比寿店",
    "url": "https://tabelog.com/tokyo/A1303/A130302/13022514/",
    "address": "東京都 渋谷区 恵比寿西 2-7-8 Ｓリトリート １Ｆ・Ｂ１Ｆ",
    "code": "hyakumeiten_italian_tokyo_2021_restaurant_13022514",
    "lat": "35.650394",
    "lng": "139.706966",
    "id": "italian-153"
  }, {
    "name": "ケシキ",
    "url": "https://tabelog.com/tokyo/A1302/A130202/13020364/",
    "address": "東京都 中央区 日本橋室町 2-1-1 マンダリン オリエンタル 東京 38F",
    "code": "hyakumeiten_italian_tokyo_2021_restaurant_13020364",
    "lat": "35.687048",
    "lng": "139.773063",
    "id": "italian-154"
  }, {
    "name": "オッジ ダルマット 西麻布店",
    "url": "https://tabelog.com/tokyo/A1307/A130701/13057753/",
    "address": "東京都 港区 西麻布 1-10-8 第2大晃ビル1F",
    "code": "hyakumeiten_italian_tokyo_2021_restaurant_13057753",
    "lat": "35.660887",
    "lng": "139.724261",
    "id": "italian-155"
  }, {
    "name": "アンティカ・オステリア・デル・ポンテ",
    "url": "https://tabelog.com/tokyo/A1302/A130201/13004061/",
    "address": "東京都 千代田区 丸の内 2-4-1 丸の内ビルディング 36F",
    "code": "hyakumeiten_italian_tokyo_2021_restaurant_13004061",
    "lat": "35.681057",
    "lng": "139.763818",
    "id": "italian-156"
  }, {
    "name": "ラ スフォリーナ",
    "url": "https://tabelog.com/tokyo/A1306/A130603/13157731/",
    "address": "東京都 港区 六本木 7-3-22 やまうちビル 1F",
    "code": "hyakumeiten_italian_tokyo_2021_restaurant_13157731",
    "lat": "35.665485",
    "lng": "139.727842",
    "id": "italian-157"
  }, {
    "name": "リストランテ・ホンダ",
    "url": "https://tabelog.com/tokyo/A1306/A130603/13016590/",
    "address": "東京都 港区 北青山 2-12-35 タートルストーン青山ビル 1F",
    "code": "hyakumeiten_italian_tokyo_2021_restaurant_13016590",
    "lat": "35.669907",
    "lng": "139.715295",
    "id": "italian-158"
  }, {
    "name": "トルナヴェント",
    "url": "https://tabelog.com/tokyo/A1307/A130701/13022053/",
    "address": "東京都 港区 西麻布 3-21-14 覚張ビル Ｂ１Ｆ",
    "code": "hyakumeiten_italian_tokyo_2021_restaurant_13022053",
    "lat": "35.659481",
    "lng": "139.724968",
    "id": "italian-159"
  }, {
    "name": "トラットリア・築地パラディーゾ",
    "url": "https://tabelog.com/tokyo/A1313/A131301/13132422/",
    "address": "東京都 中央区 築地 6-27-3",
    "code": "hyakumeiten_italian_tokyo_2021_restaurant_13132422",
    "lat": "35.663965",
    "lng": "139.770956",
    "id": "italian-160"
  }, {
    "name": "イル・ボッカローネ",
    "url": "https://tabelog.com/tokyo/A1303/A130302/13001646/",
    "address": "東京都 渋谷区 恵比寿 1-15-9 シルク恵比寿 １Ｆ",
    "code": "hyakumeiten_italian_tokyo_2021_restaurant_13001646",
    "lat": "35.647779",
    "lng": "139.712133",
    "id": "italian-161"
  }, {
    "name": "イタリア料理 フィオレンツァ",
    "url": "https://tabelog.com/tokyo/A1301/A130101/13043356/",
    "address": "東京都 中央区 京橋 3-3-11 ボルト京橋 1F",
    "code": "hyakumeiten_italian_tokyo_2021_restaurant_13043356",
    "lat": "35.67552",
    "lng": "139.768296",
    "id": "italian-162"
  }, {
    "name": "IL FIGO INGORDO",
    "url": "https://tabelog.com/tokyo/A1307/A130701/13104779/",
    "address": "東京都 港区 六本木 7-19-1",
    "code": "hyakumeiten_italian_tokyo_2021_restaurant_13104779",
    "lat": "35.66265",
    "lng": "139.72776",
    "id": "italian-163"
  }, {
    "name": "ダルマット 西麻布本店",
    "url": "https://tabelog.com/tokyo/A1307/A130701/13016614/",
    "address": "東京都 港区 西麻布 1-10-8 第２大晃ビル Ｂ１Ｆ",
    "code": "hyakumeiten_italian_tokyo_2021_restaurant_13016614",
    "lat": "35.660887",
    "lng": "139.724261",
    "id": "italian-164"
  }, {
    "name": "アロマクラシコ",
    "url": "https://tabelog.com/tokyo/A1314/A131403/13005730/",
    "address": "東京都 港区 港南 2-16-3 品川グランドセントラルタワー 1F",
    "code": "hyakumeiten_italian_tokyo_2021_restaurant_13005730",
    "lat": "35.626642",
    "lng": "139.740577",
    "id": "italian-165"
  }, {
    "name": "代官山ASO チェレステ 日本橋店",
    "url": "https://tabelog.com/tokyo/A1302/A130202/13021095/",
    "address": "東京都 中央区 日本橋室町 1-4-1 日本橋三越本店 新館 10F",
    "code": "hyakumeiten_italian_tokyo_2021_restaurant_13021095",
    "lat": "35.685641",
    "lng": "139.77358",
    "id": "italian-166"
  }, {
    "name": "イル ギオットーネ 丸の内店",
    "url": "https://tabelog.com/tokyo/A1302/A130201/13020096/",
    "address": "東京都 千代田区 丸の内 2-7-3 東京ビルTOKIA 1F",
    "code": "hyakumeiten_italian_tokyo_2021_restaurant_13020096",
    "lat": "35.678495",
    "lng": "139.764977",
    "id": "italian-167"
  }, {
    "name": "ピャチェーレ",
    "url": "https://tabelog.com/tokyo/A1302/A130201/13069992/",
    "address": "東京都 千代田区 丸の内 1-8-3 丸の内トラストタワー本館 シャングリ・ラ 東京 28F",
    "code": "hyakumeiten_italian_tokyo_2021_restaurant_13069992",
    "lat": "35.682512",
    "lng": "139.769535",
    "id": "italian-168"
  }, {
    "name": "リストランテ ダ ニーノ",
    "url": "https://tabelog.com/tokyo/A1307/A130701/13023972/",
    "address": "東京都 港区 南青山 1-15-19 グランドメゾン乃木坂 1F",
    "code": "hyakumeiten_italian_tokyo_2021_restaurant_13023972",
    "lat": "35.668",
    "lng": "139.726634",
    "id": "italian-169"
  }, {
    "name": "エミリア",
    "url": "https://tabelog.com/tokyo/A1306/A130601/13099554/",
    "address": "東京都 渋谷区 神宮前 2-25-4 パストラーレ神宮前 １Ｆ",
    "code": "hyakumeiten_italian_tokyo_2021_restaurant_13099554",
    "lat": "35.674288",
    "lng": "139.710698",
    "id": "italian-170"
  }, {
    "name": "トルッキオ",
    "url": "https://tabelog.com/tokyo/A1309/A130906/13002401/",
    "address": "東京都 千代田区 九段南 2-1-32 第３青葉ビル Ｂ１Ｆ",
    "code": "hyakumeiten_italian_tokyo_2021_restaurant_13002401",
    "lat": "35.692527",
    "lng": "139.746381",
    "id": "italian-171"
  }, {
    "name": "ヴォーロ・コズィ",
    "url": "https://tabelog.com/tokyo/A1323/A132301/13024116/",
    "address": "東京都 文京区 白山 4-37-22",
    "code": "hyakumeiten_italian_tokyo_2021_restaurant_13024116",
    "lat": "35.724286",
    "lng": "139.746099",
    "id": "italian-172"
  }, {
    "name": "アンティキサポーリ",
    "url": "https://tabelog.com/tokyo/A1307/A130703/13159153/",
    "address": "東京都 港区 南麻布 5-2-40 日興パレス 1",
    "code": "hyakumeiten_italian_tokyo_2021_restaurant_13159153",
    "lat": "35.655518",
    "lng": "139.72363",
    "id": "italian-173"
  }, {
    "name": "ヴァッカロッサ",
    "url": "https://tabelog.com/tokyo/A1308/A130801/13156942/",
    "address": "東京都 港区 赤坂 6-4-11 ドミエメロード 1F",
    "code": "hyakumeiten_italian_tokyo_2021_restaurant_13156942",
    "lat": "35.670052",
    "lng": "139.734641",
    "id": "italian-174"
  }, {
    "name": "Ostu",
    "url": "https://tabelog.com/tokyo/A1318/A131810/13044972/",
    "address": "東京都 渋谷区 代々木 5-67-6 代々木松浦ビル 1F",
    "code": "hyakumeiten_italian_tokyo_2021_restaurant_13044972",
    "lat": "35.670452",
    "lng": "139.690564",
    "id": "italian-175"
  }, {
    "name": "mondo",
    "url": "https://tabelog.com/tokyo/A1317/A131703/13054007/",
    "address": "東京都 目黒区 自由が丘 3-13-11",
    "code": "hyakumeiten_italian_tokyo_2021_restaurant_13054007",
    "lat": "35.610862",
    "lng": "139.663245",
    "id": "italian-176"
  }, {
    "name": "タロス",
    "url": "https://tabelog.com/tokyo/A1303/A130301/13046432/",
    "address": "東京都 渋谷区 道玄坂 1-5-2 渋谷ＳＥＤＥビル １Ｆ",
    "code": "hyakumeiten_italian_tokyo_2021_restaurant_13046432",
    "lat": "35.658073",
    "lng": "139.699521",
    "id": "italian-177"
  }, {
    "name": "RESTAURANT DAZZLE",
    "url": "https://tabelog.com/tokyo/A1301/A130101/13022542/",
    "address": "東京都 中央区 銀座 2-4-12 ミキモト ギンザ２ 8Ｆ・9Ｆ",
    "code": "hyakumeiten_italian_tokyo_2021_restaurant_13022542",
    "lat": "35.673751",
    "lng": "139.765947",
    "id": "italian-178"
  }, {
    "name": "カッフェ・クラシカ",
    "url": "https://tabelog.com/tokyo/A1314/A131403/13019698/",
    "address": "東京都 港区 高輪 3-26-27 エキュート品川 2F",
    "code": "hyakumeiten_italian_tokyo_2021_restaurant_13019698",
    "lat": "35.62858",
    "lng": "139.739412",
    "id": "italian-179"
  }, {
    "name": "ピアッティ カステリーナ",
    "url": "https://tabelog.com/tokyo/A1309/A130905/13130769/",
    "address": "東京都 新宿区 天神町 68-3 橋本ビル 1F",
    "code": "hyakumeiten_italian_tokyo_2021_restaurant_13130769",
    "lat": "35.705633",
    "lng": "139.73075",
    "id": "italian-180"
  }, {
    "name": "アントニオ 南青山本店",
    "url": "https://tabelog.com/tokyo/A1306/A130602/13003490/",
    "address": "東京都 港区 南青山 7-3-6 南青山HYビル 1F",
    "code": "hyakumeiten_italian_tokyo_2021_restaurant_13003490",
    "lat": "35.658874",
    "lng": "139.716305",
    "id": "italian-181"
  }, {
    "name": "RISTORANTE YAGI",
    "url": "https://tabelog.com/tokyo/A1303/A130303/13132568/",
    "address": "東京都 渋谷区 鉢山町 15-2 プラザ1000代官山 B1F",
    "code": "hyakumeiten_italian_tokyo_2021_restaurant_13132568",
    "lat": "35.651455",
    "lng": "139.695793",
    "id": "italian-182"
  }, {
    "name": "リストランテソットラルコ",
    "url": "https://tabelog.com/tokyo/A1301/A130101/13134899/",
    "address": "東京都 中央区 銀座 8-10-4 和孝銀座8丁目ビル Ｂ1Ｆ",
    "code": "hyakumeiten_italian_tokyo_2021_restaurant_13134899",
    "lat": "35.667951",
    "lng": "139.762564",
    "id": "italian-183"
  }, {
    "name": "パッソ・ア・パッソ",
    "url": "https://tabelog.com/tokyo/A1313/A131303/13004092/",
    "address": "東京都 江東区 深川 2-6-1 アワーズビル １Ｆ",
    "code": "hyakumeiten_italian_tokyo_2021_restaurant_13004092",
    "lat": "35.674664",
    "lng": "139.796303",
    "id": "italian-184"
  }, {
    "name": "AWkitchen TOKYO 新丸ビル店",
    "url": "https://tabelog.com/tokyo/A1302/A130201/13038476/",
    "address": "東京都 千代田区 丸の内 1-5-1 新丸の内ビルディング 5F",
    "code": "hyakumeiten_italian_tokyo_2021_restaurant_13038476",
    "lat": "35.682752",
    "lng": "139.764581",
    "id": "italian-185"
  }, {
    "name": "代官山ASO チェレステ 二子玉川店",
    "url": "https://tabelog.com/tokyo/A1317/A131708/13005519/",
    "address": "東京都 世田谷区 玉川 3-17-1 玉川タカシマヤ 11F",
    "code": "hyakumeiten_italian_tokyo_2021_restaurant_13005519",
    "lat": "35.614442",
    "lng": "139.626759",
    "id": "italian-186"
  }, {
    "name": "ブルガリ イル・リストランテ ルカ・ファンティン",
    "url": "https://tabelog.com/tokyo/A1301/A130101/13045135/",
    "address": "東京都 中央区 銀座 2-7-12 ブルガリ銀座タワー ９Ｆ",
    "code": "hyakumeiten_italian_tokyo_2021_restaurant_13045135",
    "lat": "35.67292",
    "lng": "139.767263",
    "id": "italian-187"
  }, {
    "name": "クチーナ ヒラタ",
    "url": "https://tabelog.com/tokyo/A1307/A130702/13001690/",
    "address": "東京都 港区 麻布十番 2-13-10 エンドウビル ３Ｆ",
    "code": "hyakumeiten_italian_tokyo_2021_restaurant_13001690",
    "lat": "35.654782",
    "lng": "139.735004",
    "id": "italian-188"
  }, {
    "name": "リナシメント",
    "url": "https://tabelog.com/tokyo/A1317/A131701/13201061/",
    "address": "東京都 目黒区 下目黒 2-23-2 1F",
    "code": "hyakumeiten_italian_tokyo_2021_restaurant_13201061",
    "lat": "35.631139",
    "lng": "139.710733",
    "id": "italian-189"
  }, {
    "name": "S'ACCAPAU",
    "url": "https://tabelog.com/tokyo/A1307/A130701/13195700/",
    "address": "東京都 港区 西麻布 1-12-4 nishiazabu1124ビル B1F",
    "code": "hyakumeiten_italian_tokyo_2021_restaurant_13195700",
    "lat": "35.660166",
    "lng": "139.724036",
    "id": "italian-190"
  }, {
    "name": "ビンゴ",
    "url": "https://tabelog.com/tokyo/A1307/A130703/13016523/",
    "address": "東京都 港区 西麻布 4-19-9 ウォール西麻布 B1F",
    "code": "hyakumeiten_italian_tokyo_2021_restaurant_13016523",
    "lat": "35.657679",
    "lng": "139.718592",
    "id": "italian-191"
  }, {
    "name": "リストランテ･ヒロ チェントロ 丸ビル店",
    "url": "https://tabelog.com/tokyo/A1302/A130201/13004069/",
    "address": "東京都 千代田区 丸の内 2-4-1 丸の内ビルディング 35F",
    "code": "hyakumeiten_italian_tokyo_2021_restaurant_13004069",
    "lat": "35.681057",
    "lng": "139.763818",
    "id": "italian-192"
  }, {
    "name": "ラ・ビスボッチャ",
    "url": "https://tabelog.com/tokyo/A1307/A130703/13001647/",
    "address": "東京都 渋谷区 恵比寿 2-36-13 広尾MTRビル 1F",
    "code": "hyakumeiten_italian_tokyo_2021_restaurant_13001647",
    "lat": "35.645791",
    "lng": "139.722525",
    "id": "italian-193"
  }, {
    "name": "イル・テアトロ",
    "url": "https://tabelog.com/tokyo/A1309/A130905/13003823/",
    "address": "東京都 文京区 関口 2-10-8 ホテル椿山荘東京 3Ｆ",
    "code": "hyakumeiten_italian_tokyo_2021_restaurant_13003823",
    "lat": "35.713113",
    "lng": "139.725709",
    "id": "italian-194"
  }, {
    "name": "ラ･スコリエーラ",
    "url": "https://tabelog.com/tokyo/A1306/A130603/13002849/",
    "address": "東京都 港区 赤坂 4-15-1 赤坂ガーデンシティ Ｂ１Ｆ",
    "code": "hyakumeiten_italian_tokyo_2021_restaurant_13002849",
    "lat": "35.674271",
    "lng": "139.731458",
    "id": "italian-195"
  }, {
    "name": "キャンティ 飯倉本店",
    "url": "https://tabelog.com/tokyo/A1307/A130701/13002786/",
    "address": "東京都 港区 麻布台 3-1-7",
    "code": "hyakumeiten_italian_tokyo_2021_restaurant_13002786",
    "lat": "35.66076",
    "lng": "139.738571",
    "id": "italian-196"
  }, {
    "name": "イル ルポーネ",
    "url": "https://tabelog.com/tokyo/A1317/A131701/13021093/",
    "address": "東京都 目黒区 中目黒 2-10-19 １Ｆ",
    "code": "hyakumeiten_italian_tokyo_2021_restaurant_13021093",
    "lat": "35.641011",
    "lng": "139.70248",
    "id": "italian-197"
  }, {
    "name": "トラットリア ダル・ビルバンテ・ジョコンド",
    "url": "https://tabelog.com/tokyo/A1316/A131601/13151005/",
    "address": "東京都 港区 白金台 3-18-1 1F",
    "code": "hyakumeiten_italian_tokyo_2021_restaurant_13151005",
    "lat": "35.635128",
    "lng": "139.720721",
    "id": "italian-198"
  }, {
    "name": "アッピア アルタ 西麻布",
    "url": "https://tabelog.com/tokyo/A1307/A130703/13054090/",
    "address": "東京都 港区 西麻布 4-22-7 西麻布グランディアビル B1F",
    "code": "hyakumeiten_italian_tokyo_2021_restaurant_13054090",
    "lat": "35.657063",
    "lng": "139.718776",
    "id": "italian-199"
  }, {
    "name": "やまぐち",
    "url": "https://tabelog.com/kyoto/A2601/A260301/26018397/",
    "address": "京都府 京都市東山区 祇園町南側 570-185",
    "code": "hyakumeiten_italian_west_2021_restaurant_26018397",
    "lat": "35.002589",
    "lng": "135.776421",
    "id": "italian-200"
  }, {
    "name": "トムクリオーザ",
    "url": "https://tabelog.com/osaka/A2701/A270101/27075332/",
    "address": "大阪府 大阪市北区 堂島 1-2-15 浜村サンプラザビル 2F",
    "code": "hyakumeiten_italian_west_2021_restaurant_27075332",
    "lat": "34.696487",
    "lng": "135.49877",
    "id": "italian-201"
  }, {
    "name": "ヴィラ・アイーダ",
    "url": "https://tabelog.com/wakayama/A3001/A300102/30000104/",
    "address": "和歌山県 岩出市 川尻 71-5",
    "code": "hyakumeiten_italian_west_2021_restaurant_30000104",
    "lat": "34.267158",
    "lng": "135.309378",
    "id": "italian-202"
  }, {
    "name": "クイントカント",
    "url": "https://tabelog.com/osaka/A2701/A270108/27073813/",
    "address": "大阪府 大阪市北区 中之島 3-6-32 ダイビル本館 1F",
    "code": "hyakumeiten_italian_west_2021_restaurant_27073813",
    "lat": "34.693227",
    "lng": "135.492834",
    "id": "italian-203"
  }, {
    "name": "acca",
    "url": "https://tabelog.com/okayama/A3305/A330502/33012069/",
    "address": "岡山県 瀬戸内市 牛窓町牛窓 496 牛窓国際交流ヴィラ",
    "code": "hyakumeiten_italian_west_2021_restaurant_33012069",
    "lat": "34.624778",
    "lng": "134.160591",
    "id": "italian-204"
  }, {
    "name": "チェルカ トローヴァ",
    "url": "https://tabelog.com/miyazaki/A4505/A450501/45003573/",
    "address": "宮崎県 延岡市 博労町 4-14",
    "code": "hyakumeiten_italian_west_2021_restaurant_45003573",
    "lat": "32.586168",
    "lng": "131.67008",
    "id": "italian-205"
  }, {
    "name": "キメラ",
    "url": "https://tabelog.com/kyoto/A2601/A260301/26005284/",
    "address": "京都府 京都市東山区 祇園町南側 504",
    "code": "hyakumeiten_italian_west_2021_restaurant_26005284",
    "lat": "35.002422",
    "lng": "135.778676",
    "id": "italian-206"
  }, {
    "name": "villa del nido",
    "url": "https://tabelog.com/nagasaki/A4203/A420301/42009254/",
    "address": "長崎県 雲仙市 国見町多比良甲 313-2",
    "code": "hyakumeiten_italian_west_2021_restaurant_42009254",
    "lat": "32.866026",
    "lng": "130.311674",
    "id": "italian-207"
  }, {
    "name": "名前のないイタリア料理店",
    "url": "https://tabelog.com/ehime/A3801/A380101/38009262/",
    "address": "愛媛県 松山市 千舟町 4-1-4 ヒラキビル 1F",
    "code": "hyakumeiten_italian_west_2021_restaurant_38009262",
    "lat": "33.836577",
    "lng": "132.767379",
    "id": "italian-208"
  }, {
    "name": "cenci",
    "url": "https://tabelog.com/kyoto/A2601/A260302/26024914/",
    "address": "京都府 京都市左京区 聖護院円頓美町 44-7",
    "code": "hyakumeiten_italian_west_2021_restaurant_26024914",
    "lat": "35.017054",
    "lng": "135.780176",
    "id": "italian-209"
  }, {
    "name": "IL CASINO",
    "url": "https://tabelog.com/kumamoto/A4301/A430101/43011842/",
    "address": "熊本県 熊本市中央区 手取本町 3-7",
    "code": "hyakumeiten_italian_west_2021_restaurant_43011842",
    "lat": "32.803136",
    "lng": "130.708757",
    "id": "italian-210"
  }, {
    "name": "イル ギオットーネ 京都本店",
    "url": "https://tabelog.com/kyoto/A2601/A260301/26001006/",
    "address": "京都府 京都市東山区 下河原通塔の前下ル八坂上町388-1",
    "code": "hyakumeiten_italian_west_2021_restaurant_26001006",
    "lat": "34.998914",
    "lng": "135.779251",
    "id": "italian-211"
  }, {
    "name": "リストランテ ハナタニ",
    "url": "https://tabelog.com/hyogo/A2801/A280101/28032418/",
    "address": "兵庫県 神戸市中央区 中山手通 1-27-12 富士産業ビル1F",
    "code": "hyakumeiten_italian_west_2021_restaurant_28032418",
    "lat": "34.697127",
    "lng": "135.190493",
    "id": "italian-212"
  }, {
    "name": "リストランテ ナカモト",
    "url": "https://tabelog.com/kyoto/A2607/A260705/26018907/",
    "address": "京都府 木津川市 木津 南垣外122-1",
    "code": "hyakumeiten_italian_west_2021_restaurant_26018907",
    "lat": "34.736767",
    "lng": "135.821133",
    "id": "italian-213"
  }, {
    "name": "ダ・ルーポ322",
    "url": "https://tabelog.com/hyogo/A2803/A280301/28002576/",
    "address": "兵庫県 西宮市 産所町 3-22",
    "code": "hyakumeiten_italian_west_2021_restaurant_28002576",
    "lat": "34.736647",
    "lng": "135.334543",
    "id": "italian-214"
  }, {
    "name": "ポンテ ベッキオ",
    "url": "https://tabelog.com/osaka/A2701/A270102/27000522/",
    "address": "大阪府 大阪市中央区 北浜 1-8-16 大阪証券取引所ビル １Ｆ",
    "code": "hyakumeiten_italian_west_2021_restaurant_27000522",
    "lat": "34.691316",
    "lng": "135.507283",
    "id": "italian-215"
  }, {
    "name": "モード ディ ポンテベッキオ",
    "url": "https://tabelog.com/osaka/A2701/A270101/27000763/",
    "address": "大阪府 大阪市北区 梅田 3-3-20 明治安田生命大阪梅田ビル 30F",
    "code": "hyakumeiten_italian_west_2021_restaurant_27000763",
    "lat": "34.698699",
    "lng": "135.491604",
    "id": "italian-216"
  }, {
    "name": "ラッフィナート",
    "url": "https://tabelog.com/hyogo/A2803/A280302/28002280/",
    "address": "兵庫県 芦屋市 船戸町 5-24",
    "code": "hyakumeiten_italian_west_2021_restaurant_28002280",
    "lat": "34.736418",
    "lng": "135.306213",
    "id": "italian-217"
  }, {
    "name": "sfida",
    "url": "https://tabelog.com/osaka/A2701/A270103/27014679/",
    "address": "大阪府 大阪市北区 同心 2-4-25 Ｔ．Ｄ．Ｍ． １Ｆ",
    "code": "hyakumeiten_italian_west_2021_restaurant_27014679",
    "lat": "34.702374",
    "lng": "135.514877",
    "id": "italian-218"
  }, {
    "name": "Cucina Italiana 東洞",
    "url": "https://tabelog.com/kyoto/A2601/A260202/26007432/",
    "address": "京都府 京都市中京区 東洞院通竹屋町下ル三本木五丁目496-3",
    "code": "hyakumeiten_italian_west_2021_restaurant_26007432",
    "lat": "35.015139",
    "lng": "135.760961",
    "id": "italian-219"
  }, {
    "name": "サンタ ルチア",
    "url": "https://tabelog.com/osaka/A2701/A270102/27000261/",
    "address": "大阪府 大阪市西区 京町堀 1-9-17",
    "code": "hyakumeiten_italian_west_2021_restaurant_27000261",
    "lat": "34.687702",
    "lng": "135.495303",
    "id": "italian-220"
  }, {
    "name": "スプレンディード",
    "url": "https://tabelog.com/osaka/A2701/A270101/27000700/",
    "address": "大阪府 大阪市北区 梅田 2-5-25 ザ・リッツ・カールトン大阪 1F",
    "code": "hyakumeiten_italian_west_2021_restaurant_27000700",
    "lat": "34.69834",
    "lng": "135.492521",
    "id": "italian-221"
  }, {
    "name": "アルバロンガ",
    "url": "https://tabelog.com/osaka/A2701/A270201/27009401/",
    "address": "大阪府 大阪市中央区 東心斎橋 1-19-15 Ｕｎａｇｉｄａｎｉ Ｂｌｏｃｋ ２Ｆ",
    "code": "hyakumeiten_italian_west_2021_restaurant_27009401",
    "lat": "34.674627",
    "lng": "135.502488",
    "id": "italian-222"
  }, {
    "name": "トラットリア パッパ",
    "url": "https://tabelog.com/osaka/A2701/A270201/27000781/",
    "address": "大阪府 大阪市西区 新町 2-3-9",
    "code": "hyakumeiten_italian_west_2021_restaurant_27000781",
    "lat": "34.677623",
    "lng": "135.492579",
    "id": "italian-223"
  }, {
    "name": "Il Povero Diavolo",
    "url": "https://tabelog.com/osaka/A2701/A270206/27076550/",
    "address": "大阪府 大阪市浪速区 敷津東 2-2-1 317号",
    "code": "hyakumeiten_italian_west_2021_restaurant_27076550",
    "lat": "34.657277",
    "lng": "135.500741",
    "id": "italian-224"
  }, {
    "name": "イル・クアドリフォーリオ",
    "url": "https://tabelog.com/osaka/A2701/A270102/27004701/",
    "address": "大阪府 大阪市西区 京町堀 1-9-10",
    "code": "hyakumeiten_italian_west_2021_restaurant_27004701",
    "lat": "34.687316",
    "lng": "135.495482",
    "id": "italian-225"
  }, {
    "name": "リストリア ラディーチェ",
    "url": "https://tabelog.com/kyoto/A2601/A260202/26023199/",
    "address": "京都府 京都市中京区 鏡屋町 50",
    "code": "hyakumeiten_italian_west_2021_restaurant_26023199",
    "lat": "35.014995",
    "lng": "135.75828",
    "id": "italian-226"
  }, {
    "name": "ペルケノー",
    "url": "https://tabelog.com/fukuoka/A4001/A400104/40000030/",
    "address": "福岡県 福岡市中央区 警固 2-17-10 ＳＰＡＺＩＯビル １Ｆ",
    "code": "hyakumeiten_italian_west_2021_restaurant_40000030",
    "lat": "33.584255",
    "lng": "130.389328",
    "id": "italian-227"
  }, {
    "name": "リストランテ ティ ヴォリオ ベーネ",
    "url": "https://tabelog.com/kyoto/A2601/A260301/26004765/",
    "address": "京都府 京都市東山区 祇園町南側 570-155",
    "code": "hyakumeiten_italian_west_2021_restaurant_26004765",
    "lat": "35.002457",
    "lng": "135.775514",
    "id": "italian-228"
  }, {
    "name": "ラ ベデュータ",
    "url": "https://tabelog.com/osaka/A2701/A270106/27052552/",
    "address": "大阪府 大阪市中央区 本町 3-6-12 セント レジス ホテル 大阪 F",
    "code": "hyakumeiten_italian_west_2021_restaurant_27052552",
    "lat": "34.683343",
    "lng": "135.501399",
    "id": "italian-229"
  }, {
    "name": "京都 ネーゼ",
    "url": "https://tabelog.com/kyoto/A2601/A260202/26005142/",
    "address": "京都府 京都市中京区 三条木屋町上ル三軒目 三条木屋町ビルⅡ ３Ｆ",
    "code": "hyakumeiten_italian_west_2021_restaurant_26005142",
    "lat": "35.0091",
    "lng": "135.770593",
    "id": "italian-230"
  }, {
    "name": "リストランテKubotsu",
    "url": "https://tabelog.com/fukuoka/A4001/A400103/40028249/",
    "address": "福岡県 福岡市中央区 天神 2-5-55 レソラ天神 4F",
    "code": "hyakumeiten_italian_west_2021_restaurant_40028249",
    "lat": "33.588458",
    "lng": "130.398366",
    "id": "italian-231"
  }, {
    "name": "ヴァカンツァ",
    "url": "https://tabelog.com/hyogo/A2801/A280101/28026242/",
    "address": "兵庫県 神戸市中央区 山本通 2丁目6-11",
    "code": "hyakumeiten_italian_west_2021_restaurant_28026242",
    "lat": "34.697209",
    "lng": "135.188442",
    "id": "italian-232"
  }, {
    "name": "イタリア料理店 タマネギ",
    "url": "https://tabelog.com/osaka/A2701/A270201/27082261/",
    "address": "大阪府 大阪市西区 新町 1-20-15",
    "code": "hyakumeiten_italian_west_2021_restaurant_27082261",
    "lat": "34.67708",
    "lng": "135.495393",
    "id": "italian-233"
  }, {
    "name": "祗園245",
    "url": "https://tabelog.com/kyoto/A2601/A260301/26018705/",
    "address": "京都府 京都市東山区 智恩院新門前大和大路東入二丁目中之町245-1",
    "code": "hyakumeiten_italian_west_2021_restaurant_26018705",
    "lat": "35.156661",
    "lng": "135.525198",
    "id": "italian-234"
  }, {
    "name": "リストランテ ベリーニ",
    "url": "https://tabelog.com/hyogo/A2803/A280302/28001314/",
    "address": "兵庫県 芦屋市 月若町 2-17",
    "code": "hyakumeiten_italian_west_2021_restaurant_28001314",
    "lat": "34.733768",
    "lng": "135.301385",
    "id": "italian-235"
  }, {
    "name": "カロローゾ",
    "url": "https://tabelog.com/osaka/A2701/A270106/27005160/",
    "address": "大阪府 大阪市西区 靱本町 1丁目16-20 本町アートスクェアー１F",
    "code": "hyakumeiten_italian_west_2021_restaurant_27005160",
    "lat": "34.684671",
    "lng": "135.494931",
    "id": "italian-236"
  }, {
    "name": "ラ ピニャータ",
    "url": "https://tabelog.com/osaka/A2701/A270106/27072091/",
    "address": "大阪府 大阪市中央区 南久宝寺町 2-5-3 ときわビル 1F",
    "code": "hyakumeiten_italian_west_2021_restaurant_27072091",
    "lat": "34.679373",
    "lng": "135.504371",
    "id": "italian-237"
  }, {
    "name": "トラットリア レオーネ",
    "url": "https://tabelog.com/kyoto/A2601/A260201/26005705/",
    "address": "京都府 京都市下京区 高辻通室町西入ル繁昌町295-1 京都1号館ビル 1F",
    "code": "hyakumeiten_italian_west_2021_restaurant_26005705",
    "lat": "35.000323",
    "lng": "135.757155",
    "id": "italian-238"
  }, {
    "name": "チッチャ",
    "url": "https://tabelog.com/hyogo/A2801/A280101/28034851/",
    "address": "兵庫県 神戸市中央区 加納町 3-11‐2 奥田ビル 1F",
    "code": "hyakumeiten_italian_west_2021_restaurant_28034851",
    "lat": "34.698123",
    "lng": "135.193313",
    "id": "italian-239"
  }, {
    "name": "ラ・ロカンダ ザ・リッツ・カールトン京都",
    "url": "https://tabelog.com/kyoto/A2601/A260202/26023294/",
    "address": "京都府 京都市中京区 鴨川二条大橋畔 リッツカールトン京都 1F",
    "code": "hyakumeiten_italian_west_2021_restaurant_26023294",
    "lat": "35.013909",
    "lng": "135.770856",
    "id": "italian-240"
  }, {
    "name": "SAISIR",
    "url": "https://tabelog.com/shiga/A2502/A250201/25009111/",
    "address": "滋賀県 草津市 追分南 5-11-13",
    "code": "hyakumeiten_italian_west_2021_restaurant_25009111",
    "lat": "34.991846",
    "lng": "135.965395",
    "id": "italian-241"
  }, {
    "name": "ヴェーナ",
    "url": "https://tabelog.com/kyoto/A2601/A260202/26028480/",
    "address": "京都府 京都市中京区 鏡屋町 46-3",
    "code": "hyakumeiten_italian_west_2021_restaurant_26028480",
    "lat": "35.015169",
    "lng": "135.758148",
    "id": "italian-242"
  }, {
    "name": "トラットリア ダ ジャコモ",
    "url": "https://tabelog.com/osaka/A2701/A270108/27001173/",
    "address": "大阪府 大阪市福島区 福島 5-6-11 シュエット吉本 ２Ｆ",
    "code": "hyakumeiten_italian_west_2021_restaurant_27001173",
    "lat": "34.69652",
    "lng": "135.487346",
    "id": "italian-243"
  }, {
    "name": "il luogo di TAKEUCHI",
    "url": "https://tabelog.com/osaka/A2701/A270108/27050186/",
    "address": "大阪府 大阪市福島区 福島 5‐1‐26 MF 西梅田ビル1F",
    "code": "hyakumeiten_italian_west_2021_restaurant_27050186",
    "lat": "34.696978",
    "lng": "135.489916",
    "id": "italian-244"
  }, {
    "name": "il PePe",
    "url": "https://tabelog.com/osaka/A2701/A270101/27051831/",
    "address": "大阪府 大阪市北区 曽根崎新地 1-4-7 小西ビル 2F",
    "code": "hyakumeiten_italian_west_2021_restaurant_27051831",
    "lat": "34.697995",
    "lng": "135.495937",
    "id": "italian-245"
  }, {
    "name": "イル ギオットーネ ディ ピュー",
    "url": "https://tabelog.com/osaka/A2701/A270101/27072626/",
    "address": "大阪府 大阪市北区 大深町 3-1 グランフロント大阪 北館 1F",
    "code": "hyakumeiten_italian_west_2021_restaurant_27072626",
    "lat": "34.705922",
    "lng": "135.494714",
    "id": "italian-246"
  }, {
    "name": "ペッシェ・ロッソ",
    "url": "https://tabelog.com/osaka/A2701/A270201/27049992/",
    "address": "大阪府 大阪市中央区 東心斎橋 1-3-18",
    "code": "hyakumeiten_italian_west_2021_restaurant_27049992",
    "lat": "34.673712",
    "lng": "135.505528",
    "id": "italian-247"
  }, {
    "name": "グシテ",
    "url": "https://tabelog.com/osaka/A2701/A270104/27093817/",
    "address": "大阪府 大阪市北区 天満 2-7-1 末澤ビル 1F",
    "code": "hyakumeiten_italian_west_2021_restaurant_27093817",
    "lat": "34.693379",
    "lng": "135.517217",
    "id": "italian-248"
  }, {
    "name": "THE SODOH HIGASHIYAMA KYOTO",
    "url": "https://tabelog.com/kyoto/A2601/A260301/26003300/",
    "address": "京都府 京都市東山区 八坂通下河原東入ル八坂上町366",
    "code": "hyakumeiten_italian_west_2021_restaurant_26003300",
    "lat": "34.99919",
    "lng": "135.779728",
    "id": "italian-249"
  }, {
    "name": "サンタ・マリア・ノヴェッラ・ティサネリーア 京都店",
    "url": "https://tabelog.com/kyoto/A2601/A260201/26002013/",
    "address": "京都府 京都市中京区 東洞院通錦小路下ル阪東屋町675",
    "code": "hyakumeiten_italian_west_2021_restaurant_26002013",
    "lat": "35.004015",
    "lng": "135.761028",
    "id": "italian-250"
  }, {
    "name": "マチェレリーアディタケウチ",
    "url": "https://tabelog.com/osaka/A2701/A270108/27071115/",
    "address": "大阪府 大阪市福島区 福島 5-8-17 １Ｆ",
    "code": "hyakumeiten_italian_west_2021_restaurant_27071115",
    "lat": "34.696179",
    "lng": "135.487553",
    "id": "italian-251"
  }, {
    "name": "エノテカ・ベルベルバール",
    "url": "https://tabelog.com/hyogo/A2801/A280101/28015970/",
    "address": "兵庫県 神戸市中央区 中山手通 1-9-5",
    "code": "hyakumeiten_italian_west_2021_restaurant_28015970",
    "lat": "34.695519",
    "lng": "135.192028",
    "id": "italian-252"
  }, {
    "name": "麺匠 パスタバカ一代",
    "url": "https://tabelog.com/osaka/A2701/A270201/27072434/",
    "address": "大阪府 大阪市西区 新町 1-2-8",
    "code": "hyakumeiten_italian_west_2021_restaurant_27072434",
    "lat": "34.677761",
    "lng": "135.497429",
    "id": "italian-253"
  }, {
    "name": "ヴィア パーチェ",
    "url": "https://tabelog.com/okayama/A3301/A330101/33010293/",
    "address": "岡山県 岡山市北区 平和町 5-24 アシモ西川 １F",
    "code": "hyakumeiten_italian_west_2021_restaurant_33010293",
    "lat": "34.664046",
    "lng": "133.923051",
    "id": "italian-254"
  }, {
    "name": "チュカテ",
    "url": "https://tabelog.com/osaka/A2701/A270102/27043113/",
    "address": "大阪府 大阪市西区 京町堀 1-17-3",
    "code": "hyakumeiten_italian_west_2021_restaurant_27043113",
    "lat": "34.687377",
    "lng": "135.493844",
    "id": "italian-255"
  }, {
    "name": "ピアノピアーノ 肥後橋本店",
    "url": "https://tabelog.com/osaka/A2701/A270102/27000260/",
    "address": "大阪府 大阪市西区 京町堀 1-4-22 肥後橋プラザビル １Ｆ",
    "code": "hyakumeiten_italian_west_2021_restaurant_27000260",
    "lat": "34.688179",
    "lng": "135.497363",
    "id": "italian-256"
  }, {
    "name": "Ristorante 美郷",
    "url": "https://tabelog.com/kyoto/A2601/A260201/26002665/",
    "address": "京都府 京都市下京区 堺町 通松原下ル鍛冶屋町246-2",
    "code": "hyakumeiten_italian_west_2021_restaurant_26002665",
    "lat": "34.998084",
    "lng": "135.763213",
    "id": "italian-257"
  }, {
    "name": "イルベッカフィーコ",
    "url": "https://tabelog.com/osaka/A2701/A270102/27065002/",
    "address": "大阪府 大阪市西区 江戸堀 1-23-30 ダコタハウス 2F",
    "code": "hyakumeiten_italian_west_2021_restaurant_27065002",
    "lat": "34.689559",
    "lng": "135.493161",
    "id": "italian-258"
  }, {
    "name": "L’ISOLETTA",
    "url": "https://tabelog.com/hyogo/A2806/A280602/28005454/",
    "address": "兵庫県 洲本市 山手 1-882-6",
    "code": "hyakumeiten_italian_west_2021_restaurant_28005454",
    "lat": "34.339957",
    "lng": "134.901686",
    "id": "italian-259"
  }, {
    "name": "ラ・クチネッラ・ディ・ヤマモト",
    "url": "https://tabelog.com/osaka/A2701/A270108/27004885/",
    "address": "大阪府 大阪市福島区 福島 2-10-12",
    "code": "hyakumeiten_italian_west_2021_restaurant_27004885",
    "lat": "34.694688",
    "lng": "135.486107",
    "id": "italian-260"
  }, {
    "name": "TRATTORIA AL SODO",
    "url": "https://tabelog.com/osaka/A2701/A270102/27063533/",
    "address": "大阪府 大阪市西区 土佐堀 2-3-5 菅澤眼科ビル",
    "code": "hyakumeiten_italian_west_2021_restaurant_27063533",
    "lat": "34.688277",
    "lng": "135.490009",
    "id": "italian-261"
  }, {
    "name": "ピ・グレコ",
    "url": "https://tabelog.com/osaka/A2701/A270102/27071832/",
    "address": "大阪府 大阪市北区 西天満 4-1-20 リープラザ 1F",
    "code": "hyakumeiten_italian_west_2021_restaurant_27071832",
    "lat": "34.696195",
    "lng": "135.505799",
    "id": "italian-262"
  }, {
    "name": "裏ヒロヤ",
    "url": "https://tabelog.com/osaka/A2701/A270103/27041620/",
    "address": "大阪府 大阪市北区 池田町 5-1",
    "code": "hyakumeiten_italian_west_2021_restaurant_27041620",
    "lat": "34.70686",
    "lng": "135.512305",
    "id": "italian-263"
  }, {
    "name": "レストラン ミツヤマ",
    "url": "https://tabelog.com/osaka/A2701/A270106/27004543/",
    "address": "大阪府 大阪市中央区 北久宝寺町 2-1-11 アライアンス船場 １Ｆ",
    "code": "hyakumeiten_italian_west_2021_restaurant_27004543",
    "lat": "34.680045",
    "lng": "135.505568",
    "id": "italian-264"
  }, {
    "name": "アンティカ・オステリア・ダル・ポンピエーレ",
    "url": "https://tabelog.com/osaka/A2701/A270102/27004772/",
    "address": "大阪府 大阪市中央区 今橋 4-5-19",
    "code": "hyakumeiten_italian_west_2021_restaurant_27004772",
    "lat": "34.690652",
    "lng": "135.498551",
    "id": "italian-265"
  }, {
    "name": "タヴェルネッタ・ダ・キタヤマ",
    "url": "https://tabelog.com/osaka/A2701/A270106/27070237/",
    "address": "大阪府 大阪市中央区 北久宝寺町 4-3-12 小原第五ビル 1F",
    "code": "hyakumeiten_italian_west_2021_restaurant_27070237",
    "lat": "34.679714",
    "lng": "135.499006",
    "id": "italian-266"
  }, {
    "name": "トラットリア セッテ ハイアット リージェンシー 京都",
    "url": "https://tabelog.com/kyoto/A2601/A260304/26002939/",
    "address": "京都府 京都市東山区 三十三間堂廻り644-2 ハイアットリージェンシー京都 2F",
    "code": "hyakumeiten_italian_west_2021_restaurant_26002939",
    "lat": "34.988776",
    "lng": "135.773347",
    "id": "italian-267"
  }, {
    "name": "ペスカ 心斎橋店",
    "url": "https://tabelog.com/osaka/A2701/A270201/27006683/",
    "address": "大阪府 大阪市中央区 西心斎橋 1-10-28 心斎橋Ｍビル １０Ｆ",
    "code": "hyakumeiten_italian_west_2021_restaurant_27006683",
    "lat": "34.674038",
    "lng": "135.498251",
    "id": "italian-268"
  }, {
    "name": "オステリア ガウダンテ 大阪駅前第4ビル店",
    "url": "https://tabelog.com/osaka/A2701/A270101/27002094/",
    "address": "大阪府 大阪市北区 梅田 1-11-4 大阪駅前第4ビル B1F",
    "code": "hyakumeiten_italian_west_2021_restaurant_27002094",
    "lat": "34.699879",
    "lng": "135.498857",
    "id": "italian-269"
  }, {
    "name": "リストランテ・ヒロ OSAKA ブリーゼブリーゼ",
    "url": "https://tabelog.com/osaka/A2701/A270101/27018171/",
    "address": "大阪府 大阪市北区 梅田 2-4-9 ブリーゼブリーゼ 5Ｆ",
    "code": "hyakumeiten_italian_west_2021_restaurant_27018171",
    "lat": "34.698885",
    "lng": "135.494061",
    "id": "italian-270"
  }, {
    "name": "トラットリア チェーロ",
    "url": "https://tabelog.com/osaka/A2701/A270301/27010362/",
    "address": "大阪府 大阪市淀川区 西中島 6-3-13",
    "code": "hyakumeiten_italian_west_2021_restaurant_27010362",
    "lat": "34.72895",
    "lng": "135.495885",
    "id": "italian-271"
  }, {
    "name": "島之内フジマル醸造所",
    "url": "https://tabelog.com/osaka/A2701/A270204/27071950/",
    "address": "大阪府 大阪市中央区 島之内 1-1-14 三和ビル 1F",
    "code": "hyakumeiten_italian_west_2021_restaurant_27071950",
    "lat": "34.674622",
    "lng": "135.510644",
    "id": "italian-272"
  }, {
    "name": "ALBA",
    "url": "https://tabelog.com/hyogo/A2801/A280105/28006891/",
    "address": "兵庫県 神戸市東灘区 田中町 1-2-12 ドゥース本山 Ｂ１Ｆ",
    "code": "hyakumeiten_italian_west_2021_restaurant_28006891",
    "lat": "34.723575",
    "lng": "135.27655",
    "id": "italian-273"
  }, {
    "name": "ラ セッテ 広瀬北町本店",
    "url": "https://tabelog.com/hiroshima/A3401/A340101/34001676/",
    "address": "広島県 広島市中区 広瀬北町 2-28-1",
    "code": "hyakumeiten_italian_west_2021_restaurant_34001676",
    "lat": "34.404",
    "lng": "132.448121",
    "id": "italian-274"
  }, {
    "name": "トラットリア イル ピスタッキオ",
    "url": "https://tabelog.com/osaka/A2706/A270604/27052582/",
    "address": "大阪府 茨木市 西中条町 2-12",
    "code": "hyakumeiten_italian_west_2021_restaurant_27052582",
    "lat": "34.81487",
    "lng": "135.56372",
    "id": "italian-275"
  }, {
    "name": "オーレ ベアーテ",
    "url": "https://tabelog.com/osaka/A2701/A270101/27064248/",
    "address": "大阪府 大阪市北区 中津 1-18-8 NPビル １F",
    "code": "hyakumeiten_italian_west_2021_restaurant_27064248",
    "lat": "34.712889",
    "lng": "135.497732",
    "id": "italian-276"
  }, {
    "name": "リストランテ ル・ミディ ひらまつ",
    "url": "https://tabelog.com/osaka/A2701/A270101/27079201/",
    "address": "大阪府 大阪市北区 梅田 2-2-22 ハービスPLAZA ENT 1F",
    "code": "hyakumeiten_italian_west_2021_restaurant_27079201",
    "lat": "34.699783",
    "lng": "135.49457",
    "id": "italian-277"
  }, {
    "name": "ザ キッチン サルヴァトーレ クオモ 京都",
    "url": "https://tabelog.com/kyoto/A2601/A260101/26001972/",
    "address": "京都府 京都市下京区 烏丸 通塩小路下る東塩小路町901 ジェイアール京都伊勢丹 10F",
    "code": "hyakumeiten_italian_west_2021_restaurant_26001972",
    "lat": "34.985866",
    "lng": "135.756998",
    "id": "italian-278"
  }, {
    "name": "asse+ plus",
    "url": "https://tabelog.com/osaka/A2701/A270102/27010938/",
    "address": "大阪府 大阪市西区 江戸堀 1-22-2",
    "code": "hyakumeiten_italian_west_2021_restaurant_27010938",
    "lat": "34.68929",
    "lng": "135.494369",
    "id": "italian-279"
  }, {
    "name": "RIGOLETTO SMOKE GRILL & BAR",
    "url": "https://tabelog.com/kyoto/A2601/A260301/26024464/",
    "address": "京都府 京都市東山区 祇園町南側 570-192",
    "code": "hyakumeiten_italian_west_2021_restaurant_26024464",
    "lat": "35.002438",
    "lng": "135.776148",
    "id": "italian-280"
  }, {
    "name": "ラ カレッタ",
    "url": "https://tabelog.com/osaka/A2701/A270108/27050941/",
    "address": "大阪府 大阪市福島区 福島 3-11-22",
    "code": "hyakumeiten_italian_west_2021_restaurant_27050941",
    "lat": "34.694086",
    "lng": "135.485269",
    "id": "italian-281"
  }, {
    "name": "両忘",
    "url": "https://tabelog.com/kagawa/A3701/A370101/37008167/",
    "address": "香川県 高松市 今新町 6-2 1Ｆ",
    "code": "hyakumeiten_italian_west_2021_restaurant_37008167",
    "lat": "34.34372",
    "lng": "134.052976",
    "id": "italian-282"
  }, {
    "name": "ラ ランテルナ ディ ジェノバ",
    "url": "https://tabelog.com/osaka/A2701/A270101/27064096/",
    "address": "大阪府 大阪市北区 中崎 3-2-8",
    "code": "hyakumeiten_italian_west_2021_restaurant_27064096",
    "lat": "34.708118",
    "lng": "135.505032",
    "id": "italian-283"
  }, {
    "name": "リストランテ野呂",
    "url": "https://tabelog.com/kyoto/A2601/A260203/26029064/",
    "address": "京都府 京都市中京区 西ノ京職司町 67-14",
    "code": "hyakumeiten_italian_west_2021_restaurant_26029064",
    "lat": "35.011287",
    "lng": "135.746009",
    "id": "italian-284"
  }, {
    "name": "オステリア ラ チチェルキア",
    "url": "https://tabelog.com/osaka/A2701/A270102/27068624/",
    "address": "大阪府 大阪市西区 京町堀 2-3-4 サンヤマトビル 3F",
    "code": "hyakumeiten_italian_west_2021_restaurant_27068624",
    "lat": "34.686319",
    "lng": "135.492173",
    "id": "italian-285"
  }, {
    "name": "TN",
    "url": "https://tabelog.com/hyogo/A2801/A280102/28042894/",
    "address": "兵庫県 神戸市中央区 山本通 5-4-12 ヒルビューマンション 1F",
    "code": "hyakumeiten_italian_west_2021_restaurant_28042894",
    "lat": "34.692984",
    "lng": "135.180407",
    "id": "italian-286"
  }, {
    "name": "ちゅらぬうじ",
    "url": "https://tabelog.com/okinawa/A4702/A470201/47011421/",
    "address": "沖縄県 名護市 喜瀬 1343-1 ザ リッツカールトン沖縄 3F",
    "code": "hyakumeiten_italian_west_2021_restaurant_47011421",
    "lat": "26.528194",
    "lng": "127.939735",
    "id": "italian-287"
  }, {
    "name": "ケンゾーエステイトワイナリー 祇園店",
    "url": "https://tabelog.com/kyoto/A2601/A260301/26026031/",
    "address": "京都府 京都市東山区 祇園北側254-4-28",
    "code": "hyakumeiten_italian_west_2021_restaurant_26026031",
    "lat": "35.004192",
    "lng": "135.774306",
    "id": "italian-288"
  }, {
    "name": "オステリア・イル・カント・デル・マッジョ",
    "url": "https://tabelog.com/kyoto/A2601/A260201/26017856/",
    "address": "京都府 京都市中京区 堺町通蛸薬師下ル菊屋町512-2",
    "code": "hyakumeiten_italian_west_2021_restaurant_26017856",
    "lat": "35.005896",
    "lng": "135.763151",
    "id": "italian-289"
  }, {
    "name": "GIGLI",
    "url": "https://tabelog.com/miyazaki/A4501/A450101/45005449/",
    "address": "宮崎県 宮崎市 中央通 3-22 高野ビル 2F",
    "code": "hyakumeiten_italian_west_2021_restaurant_45005449",
    "lat": "31.916742",
    "lng": "131.42113",
    "id": "italian-290"
  }, {
    "name": "ニジイロ アルコバレーノ",
    "url": "https://tabelog.com/osaka/A2701/A270401/27052383/",
    "address": "大阪府 大阪市西区 本田 1-8-12",
    "code": "hyakumeiten_italian_west_2021_restaurant_27052383",
    "lat": "34.677567",
    "lng": "135.479923",
    "id": "italian-291"
  }, {
    "name": "リストランテ リナッシェレ ドウジマ",
    "url": "https://tabelog.com/osaka/A2701/A270101/27061561/",
    "address": "大阪府 大阪市北区 堂島浜 1-1-8",
    "code": "hyakumeiten_italian_west_2021_restaurant_27061561",
    "lat": "34.695465",
    "lng": "135.500011",
    "id": "italian-292"
  }, {
    "name": "ラ・ギャロワーズ",
    "url": "https://tabelog.com/osaka/A2701/A270201/27003204/",
    "address": "大阪府 大阪市西区 新町 1-23-2",
    "code": "hyakumeiten_italian_west_2021_restaurant_27003204",
    "lat": "34.676527",
    "lng": "135.495683",
    "id": "italian-293"
  }, {
    "name": "サーラ ビアンキ アル・ケッチァーノ",
    "url": "https://tabelog.com/mie/A2402/A240203/24011543/",
    "address": "三重県 三重郡菰野町 菰野 4800-1",
    "code": "hyakumeiten_italian_west_2021_restaurant_24011543",
    "lat": "35.013406",
    "lng": "136.482571",
    "id": "italian-294"
  }, {
    "name": "アルテシンポジオ",
    "url": "https://tabelog.com/hyogo/A2803/A280301/28002032/",
    "address": "兵庫県 西宮市 寿町 5-16",
    "code": "hyakumeiten_italian_west_2021_restaurant_28002032",
    "lat": "34.741481",
    "lng": "135.328821",
    "id": "italian-295"
  }, {
    "name": "ラ・ストラーダ",
    "url": "https://tabelog.com/osaka/A2701/A270108/27062948/",
    "address": "大阪府 大阪市福島区 福島 3-1-39 メリヤス会館 1F",
    "code": "hyakumeiten_italian_west_2021_restaurant_27062948",
    "lat": "34.690556",
    "lng": "135.484531",
    "id": "italian-297"
  }, {
    "name": "サリーレ",
    "url": "https://tabelog.com/osaka/A2701/A270102/27004515/",
    "address": "大阪府 大阪市西区 土佐堀 1-6-18",
    "code": "hyakumeiten_italian_west_2021_restaurant_27004515",
    "lat": "34.689773",
    "lng": "135.491736",
    "id": "italian-298"
  }, {
    "name": "ピエーノ",
    "url": "https://tabelog.com/osaka/A2701/A270202/27012467/",
    "address": "大阪府 大阪市中央区 難波 4-5-3",
    "code": "hyakumeiten_italian_west_2021_restaurant_27012467",
    "lat": "34.665876",
    "lng": "135.499143",
    "id": "italian-299"
  }]
}
