{
  "shops": [{
    "name": "海味 はちきょう 本店",
    "url": "https://tabelog.com/hokkaido/A0101/A010103/1003784/",
    "address": "北海道 札幌市中央区 南三条西 3 都ビル １Ｆ",
    "code": "hyakumeiten_izakaya_2021_restaurant_1003784",
    "lat": "43.056426",
    "lng": "141.354018",
    "id": "izakaya-0"
  }, {
    "name": "味百仙",
    "url": "https://tabelog.com/hokkaido/A0101/A010101/1000037/",
    "address": "北海道 札幌市北区 北七条西 4 宮澤興業ビル Ｂ１Ｆ",
    "code": "hyakumeiten_izakaya_2021_restaurant_1000037",
    "lat": "43.069647",
    "lng": "141.349033",
    "id": "izakaya-1"
  }, {
    "name": "若鶏時代 なると 本店",
    "url": "https://tabelog.com/hokkaido/A0106/A010601/1000906/",
    "address": "北海道 小樽市 稲穂 3-16-13",
    "code": "hyakumeiten_izakaya_2021_restaurant_1000906",
    "lat": "43.200373",
    "lng": "140.994984",
    "id": "izakaya-2"
  }, {
    "name": "酒場 やまと",
    "url": "https://tabelog.com/osaka/A2701/A270101/27054292/",
    "address": "大阪府 大阪市北区 小松原町 2-4 大阪富国生命ビルフコクフォレストスクエア B2F",
    "code": "hyakumeiten_izakaya_2021_restaurant_27054292",
    "lat": "34.702278",
    "lng": "135.500226",
    "id": "izakaya-3"
  }, {
    "name": "ながほり",
    "url": "https://tabelog.com/osaka/A2701/A270204/27000581/",
    "address": "大阪府 大阪市中央区 上町 1-3-9",
    "code": "hyakumeiten_izakaya_2021_restaurant_27000581",
    "lat": "34.676611",
    "lng": "135.525742",
    "id": "izakaya-4"
  }, {
    "name": "島正",
    "url": "https://tabelog.com/aichi/A2301/A230102/23001853/",
    "address": "愛知県 名古屋市中区 栄 2-1-19",
    "code": "hyakumeiten_izakaya_2021_restaurant_23001853",
    "lat": "35.167302",
    "lng": "136.898655",
    "id": "izakaya-5"
  }, {
    "name": "長生庵",
    "url": "https://tabelog.com/tokyo/A1313/A131301/13024450/",
    "address": "東京都 中央区 築地 4-14-1 モンテベルデ １Ｆ",
    "code": "hyakumeiten_izakaya_2021_restaurant_13024450",
    "lat": "35.665291",
    "lng": "139.77136",
    "id": "izakaya-6"
  }, {
    "name": "西尾さん",
    "url": "https://tabelog.com/tokyo/A1304/A130401/13026389/",
    "address": "東京都 新宿区 新宿 3-1-32 新宿ビル３号 Ｂ１Ｆ",
    "code": "hyakumeiten_izakaya_2021_restaurant_13026389",
    "lat": "35.689785",
    "lng": "139.706421",
    "id": "izakaya-7"
  }, {
    "name": "銀座 いっぱし",
    "url": "https://tabelog.com/tokyo/A1301/A130103/13041208/",
    "address": "東京都 中央区 銀座 8-4-9 奥山ビル B１F",
    "code": "hyakumeiten_izakaya_2021_restaurant_13041208",
    "lat": "35.668851",
    "lng": "139.759717",
    "id": "izakaya-8"
  }, {
    "name": "よねさん",
    "url": "https://tabelog.com/tokyo/A1312/A131202/13176407/",
    "address": "東京都 江東区 亀戸 3-45-15",
    "code": "hyakumeiten_izakaya_2021_restaurant_13176407",
    "lat": "35.701803",
    "lng": "139.822354",
    "id": "izakaya-9"
  }, {
    "name": "山利喜 本館",
    "url": "https://tabelog.com/tokyo/A1312/A131201/13002992/",
    "address": "東京都 江東区 森下 2-18-8",
    "code": "hyakumeiten_izakaya_2021_restaurant_13002992",
    "lat": "35.688218",
    "lng": "139.79866",
    "id": "izakaya-10"
  }, {
    "name": "赤垣屋",
    "url": "https://tabelog.com/kyoto/A2601/A260302/26001072/",
    "address": "京都府 京都市左京区 孫橋町 9",
    "code": "hyakumeiten_izakaya_2021_restaurant_26001072",
    "lat": "35.011743",
    "lng": "135.772537",
    "id": "izakaya-11"
  }, {
    "name": "越後一会 十郎",
    "url": "https://tabelog.com/niigata/A1501/A150101/15008980/",
    "address": "新潟県 新潟市中央区 東大通 2-1-7 松屋ビル １Ｆ",
    "code": "hyakumeiten_izakaya_2021_restaurant_15008980",
    "lat": "37.914835",
    "lng": "139.05917",
    "id": "izakaya-12"
  }, {
    "name": "黒百合",
    "url": "https://tabelog.com/ishikawa/A1701/A170101/17000022/",
    "address": "石川県 金沢市 木ノ新保町 1-1 金沢百番街 あんと",
    "code": "hyakumeiten_izakaya_2021_restaurant_17000022",
    "lat": "36.577889",
    "lng": "136.647693",
    "id": "izakaya-13"
  }, {
    "name": "鍵屋",
    "url": "https://tabelog.com/tokyo/A1311/A131104/13003743/",
    "address": "東京都 台東区 根岸 3-6-23-18",
    "code": "hyakumeiten_izakaya_2021_restaurant_13003743",
    "lat": "35.722261",
    "lng": "139.780335",
    "id": "izakaya-14"
  }, {
    "name": "みますや",
    "url": "https://tabelog.com/tokyo/A1310/A131002/13000630/",
    "address": "東京都 千代田区 神田司町 2-15-2",
    "code": "hyakumeiten_izakaya_2021_restaurant_13000630",
    "lat": "35.694064",
    "lng": "139.766859",
    "id": "izakaya-15"
  }, {
    "name": "牧野",
    "url": "https://tabelog.com/tokyo/A1314/A131405/13027466/",
    "address": "東京都 品川区 北品川 2-19-2",
    "code": "hyakumeiten_izakaya_2021_restaurant_13027466",
    "lat": "35.61816",
    "lng": "139.741944",
    "id": "izakaya-16"
  }, {
    "name": "ゆうなんぎい",
    "url": "https://tabelog.com/okinawa/A4701/A470101/47000017/",
    "address": "沖縄県 那覇市 久茂地 3-3-3",
    "code": "hyakumeiten_izakaya_2021_restaurant_47000017",
    "lat": "26.214444",
    "lng": "127.681872",
    "id": "izakaya-17"
  }, {
    "name": "てぃーあんだ 扇町本店",
    "url": "https://tabelog.com/osaka/A2701/A270103/27006935/",
    "address": "大阪府 大阪市北区 末広町 3-22",
    "code": "hyakumeiten_izakaya_2021_restaurant_27006935",
    "lat": "34.702399",
    "lng": "135.510443",
    "id": "izakaya-18"
  }, {
    "name": "のどぐろ専門 銀座 中俣",
    "url": "https://tabelog.com/tokyo/A1301/A130101/13186922/",
    "address": "東京都 中央区 銀座 4-10-12 銀座サマリアビル B1",
    "code": "hyakumeiten_izakaya_2021_restaurant_13186922",
    "lat": "35.670154",
    "lng": "139.766983",
    "id": "izakaya-19"
  }, {
    "name": "せいもん払い",
    "url": "https://tabelog.com/fukuoka/A4001/A400102/40000029/",
    "address": "福岡県 福岡市博多区 上川端町 5-107 シャトー川端 １Ｆ",
    "code": "hyakumeiten_izakaya_2021_restaurant_40000029",
    "lat": "33.592747",
    "lng": "130.410069",
    "id": "izakaya-20"
  }, {
    "name": "海鮮処 函館山",
    "url": "https://tabelog.com/hokkaido/A0105/A010501/1003412/",
    "address": "北海道 函館市 松風町 10-15",
    "code": "hyakumeiten_izakaya_2021_restaurant_1003412",
    "lat": "41.77206",
    "lng": "140.732245",
    "id": "izakaya-21"
  }, {
    "name": "いたる 本店",
    "url": "https://tabelog.com/ishikawa/A1701/A170101/17000009/",
    "address": "石川県 金沢市 柿木畠 3-8",
    "code": "hyakumeiten_izakaya_2021_restaurant_17000009",
    "lat": "36.560871",
    "lng": "136.655936",
    "id": "izakaya-22"
  }, {
    "name": "郷土料理 大衆割烹 ほづみ亭",
    "url": "https://tabelog.com/ehime/A3804/A380401/38000392/",
    "address": "愛媛県 宇和島市 新町 2-3-8",
    "code": "hyakumeiten_izakaya_2021_restaurant_38000392",
    "lat": "33.223685",
    "lng": "132.566873",
    "id": "izakaya-23"
  }, {
    "name": "つくしのこ",
    "url": "https://tabelog.com/tokyo/A1317/A131705/13019231/",
    "address": "東京都 目黒区 東山 3-1-11",
    "code": "hyakumeiten_izakaya_2021_restaurant_13019231",
    "lat": "35.650736",
    "lng": "139.685547",
    "id": "izakaya-24"
  }, {
    "name": "酒・肴 おまた",
    "url": "https://tabelog.com/tokyo/A1305/A130501/13017031/",
    "address": "東京都 豊島区 西池袋 1-7-8 関ビル １Ｆ",
    "code": "hyakumeiten_izakaya_2021_restaurant_13017031",
    "lat": "35.728825",
    "lng": "139.707205",
    "id": "izakaya-25"
  }, {
    "name": "大衆食堂スタンド そのだ",
    "url": "https://tabelog.com/osaka/A2701/A270204/27091926/",
    "address": "大阪府 大阪市中央区 谷町 6-3-7",
    "code": "hyakumeiten_izakaya_2021_restaurant_27091926",
    "lat": "34.673462",
    "lng": "135.517736",
    "id": "izakaya-26"
  }, {
    "name": "源氏",
    "url": "https://tabelog.com/miyagi/A0401/A040101/4000031/",
    "address": "宮城県 仙台市青葉区 一番町 2-4-8",
    "code": "hyakumeiten_izakaya_2021_restaurant_4000031",
    "lat": "38.259218",
    "lng": "140.873344",
    "id": "izakaya-27"
  }, {
    "name": "酒囲屋本店",
    "url": "https://tabelog.com/okayama/A3301/A330101/33006896/",
    "address": "岡山県 岡山市北区 平和町 1-14 1F",
    "code": "hyakumeiten_izakaya_2021_restaurant_33006896",
    "lat": "34.665047",
    "lng": "133.923754",
    "id": "izakaya-28"
  }, {
    "name": "産直屋 たか",
    "url": "https://tabelog.com/tokyo/A1303/A130301/13008327/",
    "address": "東京都 渋谷区 円山町 12-2 ライオンズマンション渋谷 B1F",
    "code": "hyakumeiten_izakaya_2021_restaurant_13008327",
    "lat": "35.658514",
    "lng": "139.694145",
    "id": "izakaya-29"
  }, {
    "name": "和洋酒菜 ひで",
    "url": "https://tabelog.com/osaka/A2701/A270201/27013057/",
    "address": "大阪府 大阪市中央区 心斎橋筋 2-1-3",
    "code": "hyakumeiten_izakaya_2021_restaurant_27013057",
    "lat": "34.671607",
    "lng": "135.502224",
    "id": "izakaya-30"
  }, {
    "name": "大露路",
    "url": "https://tabelog.com/tokyo/A1301/A130103/13007106/",
    "address": "東京都 港区 新橋 3-10-6 鈴木ビル 1F",
    "code": "hyakumeiten_izakaya_2021_restaurant_13007106",
    "lat": "35.665868",
    "lng": "139.755801",
    "id": "izakaya-31"
  }, {
    "name": "越後屋八十吉",
    "url": "https://tabelog.com/tokyo/A1301/A130101/13055189/",
    "address": "東京都 中央区 銀座 4-13-11",
    "code": "hyakumeiten_izakaya_2021_restaurant_13055189",
    "lat": "35.668978",
    "lng": "139.768113",
    "id": "izakaya-32"
  }, {
    "name": "きはるの胡麻鯖や",
    "url": "https://tabelog.com/fukuoka/A4001/A400103/40004429/",
    "address": "福岡県 福岡市中央区 春吉 3-21-28 ２Ｆ",
    "code": "hyakumeiten_izakaya_2021_restaurant_40004429",
    "lat": "33.589542",
    "lng": "130.405063",
    "id": "izakaya-33"
  }, {
    "name": "丸千葉",
    "url": "https://tabelog.com/tokyo/A1324/A132401/13050828/",
    "address": "東京都 台東区 日本堤 1-1-3",
    "code": "hyakumeiten_izakaya_2021_restaurant_13050828",
    "lat": "35.726032",
    "lng": "139.800232",
    "id": "izakaya-34"
  }, {
    "name": "やす田",
    "url": "https://tabelog.com/hyogo/A2801/A280102/28026827/",
    "address": "兵庫県 神戸市中央区 中山手通 1-17-6 フェニックスビル 3F",
    "code": "hyakumeiten_izakaya_2021_restaurant_28026827",
    "lat": "34.695934",
    "lng": "135.191257",
    "id": "izakaya-35"
  }, {
    "name": "季節料理かたやま",
    "url": "https://tabelog.com/okayama/A3301/A330101/33009794/",
    "address": "岡山県 岡山市北区 平和町 4-11 平和地所ビル 1F 西",
    "code": "hyakumeiten_izakaya_2021_restaurant_33009794",
    "lat": "34.664281",
    "lng": "133.923559",
    "id": "izakaya-36"
  }, {
    "name": "さけ富",
    "url": "https://tabelog.com/akita/A0501/A050101/5008588/",
    "address": "秋田県 秋田市 大町 5-1-27 なかや大町ビル 1F",
    "code": "hyakumeiten_izakaya_2021_restaurant_5008588",
    "lat": "39.712846",
    "lng": "140.116186",
    "id": "izakaya-37"
  }, {
    "name": "でんでんでん",
    "url": "https://tabelog.com/tokyo/A1308/A130801/13006104/",
    "address": "東京都 港区 赤坂 3-14-7 バルビゾン４４ ２Ｆ",
    "code": "hyakumeiten_izakaya_2021_restaurant_13006104",
    "lat": "35.673655",
    "lng": "139.737131",
    "id": "izakaya-38"
  }, {
    "name": "居酒屋 ちょーちょ",
    "url": "https://tabelog.com/miyagi/A0401/A040101/4014402/",
    "address": "宮城県 仙台市青葉区 国分町 3丁目4-27 テラスハウス定禅寺 １F",
    "code": "hyakumeiten_izakaya_2021_restaurant_4014402",
    "lat": "38.266123",
    "lng": "140.867257",
    "id": "izakaya-39"
  }, {
    "name": "うりずん",
    "url": "https://tabelog.com/okinawa/A4701/A470101/47000019/",
    "address": "沖縄県 那覇市 安里 388-5",
    "code": "hyakumeiten_izakaya_2021_restaurant_47000019",
    "lat": "26.217194",
    "lng": "127.696399",
    "id": "izakaya-40"
  }, {
    "name": "岸田屋",
    "url": "https://tabelog.com/tokyo/A1313/A131302/13002239/",
    "address": "東京都 中央区 月島 3-15-12",
    "code": "hyakumeiten_izakaya_2021_restaurant_13002239",
    "lat": "35.662358",
    "lng": "139.779936",
    "id": "izakaya-41"
  }, {
    "name": "萬屋 おかげさん",
    "url": "https://tabelog.com/tokyo/A1309/A130903/13025617/",
    "address": "東京都 新宿区 四谷 2-10 松本館 Ｂ１Ｆ",
    "code": "hyakumeiten_izakaya_2021_restaurant_13025617",
    "lat": "35.687691",
    "lng": "139.725054",
    "id": "izakaya-42"
  }, {
    "name": "ビストロ割烹 YAOYA",
    "url": "https://tabelog.com/kyoto/A2601/A260302/26000502/",
    "address": "京都府 京都市上京区 三栄町 59",
    "code": "hyakumeiten_izakaya_2021_restaurant_26000502",
    "lat": "35.030547",
    "lng": "135.768418",
    "id": "izakaya-43"
  }, {
    "name": "赤鬼",
    "url": "https://tabelog.com/tokyo/A1317/A131706/13001382/",
    "address": "東京都 世田谷区 三軒茶屋 2-15-3",
    "code": "hyakumeiten_izakaya_2021_restaurant_13001382",
    "lat": "35.642665",
    "lng": "139.66845",
    "id": "izakaya-44"
  }, {
    "name": "鯛樹",
    "url": "https://tabelog.com/tokyo/A1314/A131401/13128122/",
    "address": "東京都 港区 浜松町 1-24-5 ロマネビル 1F",
    "code": "hyakumeiten_izakaya_2021_restaurant_13128122",
    "lat": "35.657345",
    "lng": "139.756917",
    "id": "izakaya-45"
  }, {
    "name": "郷土料理 おが",
    "url": "https://tabelog.com/hokkaido/A0101/A010103/1002392/",
    "address": "北海道 札幌市中央区 南三条西 3-1 サンスリービル 8F、9F",
    "code": "hyakumeiten_izakaya_2021_restaurant_1002392",
    "lat": "43.05659",
    "lng": "141.354491",
    "id": "izakaya-46"
  }, {
    "name": "大塚 みや穂",
    "url": "https://tabelog.com/tokyo/A1323/A132302/13103559/",
    "address": "東京都 豊島区 南大塚 3-48-5 大明ビル１Ｆ",
    "code": "hyakumeiten_izakaya_2021_restaurant_13103559",
    "lat": "35.730464",
    "lng": "139.727364",
    "id": "izakaya-47"
  }, {
    "name": "旬菜処 びいどろ",
    "url": "https://tabelog.com/okinawa/A4701/A470101/47002122/",
    "address": "沖縄県 那覇市 牧志 1-11-1 2F",
    "code": "hyakumeiten_izakaya_2021_restaurant_47002122",
    "lat": "26.21714",
    "lng": "127.68328",
    "id": "izakaya-48"
  }, {
    "name": "酒肴 新屋敷",
    "url": "https://tabelog.com/tokyo/A1305/A130503/13193868/",
    "address": "東京都 新宿区 高田馬場 2-2-15",
    "code": "hyakumeiten_izakaya_2021_restaurant_13193868",
    "lat": "35.71186",
    "lng": "139.709479",
    "id": "izakaya-49"
  }, {
    "name": "高太郎",
    "url": "https://tabelog.com/tokyo/A1303/A130301/13123997/",
    "address": "東京都 渋谷区 桜丘町 28-2 三笠ビル 1F",
    "code": "hyakumeiten_izakaya_2021_restaurant_13123997",
    "lat": "35.655549",
    "lng": "139.69923",
    "id": "izakaya-50"
  }, {
    "name": "ひとし 本店",
    "url": "https://tabelog.com/okinawa/A4705/A470501/47001373/",
    "address": "沖縄県 石垣市 新栄町 15-8",
    "code": "hyakumeiten_izakaya_2021_restaurant_47001373",
    "lat": "24.344461",
    "lng": "124.152521",
    "id": "izakaya-51"
  }, {
    "name": "黒尊",
    "url": "https://tabelog.com/kochi/A3901/A390101/39000063/",
    "address": "高知県 高知市 本町 3-4-13",
    "code": "hyakumeiten_izakaya_2021_restaurant_39000063",
    "lat": "33.558489",
    "lng": "133.536208",
    "id": "izakaya-52"
  }, {
    "name": "魚仁",
    "url": "https://tabelog.com/tokyo/A1313/A131302/13007578/",
    "address": "東京都 中央区 月島 3-12-5",
    "code": "hyakumeiten_izakaya_2021_restaurant_13007578",
    "lat": "35.662317",
    "lng": "139.781533",
    "id": "izakaya-53"
  }, {
    "name": "いかの墨 新潟駅前店",
    "url": "https://tabelog.com/niigata/A1501/A150101/15000484/",
    "address": "新潟県 新潟市中央区 東大通 1-5-24 まるよし第８ビル１棟",
    "code": "hyakumeiten_izakaya_2021_restaurant_15000484",
    "lat": "37.914847",
    "lng": "139.060511",
    "id": "izakaya-54"
  }, {
    "name": "第二力酒蔵",
    "url": "https://tabelog.com/tokyo/A1319/A131902/13001082/",
    "address": "東京都 中野区 中野 5-32-15 第二神谷ビル １F・２Ｆ",
    "code": "hyakumeiten_izakaya_2021_restaurant_13001082",
    "lat": "35.706664",
    "lng": "139.666784",
    "id": "izakaya-55"
  }, {
    "name": "こいで",
    "url": "https://tabelog.com/ishikawa/A1701/A170101/17001005/",
    "address": "石川県 金沢市 笠市町 5-7",
    "code": "hyakumeiten_izakaya_2021_restaurant_17001005",
    "lat": "36.57623",
    "lng": "136.655346",
    "id": "izakaya-56"
  }, {
    "name": "魚虎",
    "url": "https://tabelog.com/fukuoka/A4004/A400404/40021924/",
    "address": "福岡県 北九州市八幡西区 熊手 1-2-5",
    "code": "hyakumeiten_izakaya_2021_restaurant_40021924",
    "lat": "33.863991",
    "lng": "130.76957",
    "id": "izakaya-57"
  }, {
    "name": "ずぼら",
    "url": "https://tabelog.com/tokyo/A1305/A130501/13047450/",
    "address": "東京都 豊島区 東池袋 1-23-11 美久仁小路 小野ビル 1F",
    "code": "hyakumeiten_izakaya_2021_restaurant_13047450",
    "lat": "35.72914",
    "lng": "139.715799",
    "id": "izakaya-58"
  }, {
    "name": "ひとし 石敢當店",
    "url": "https://tabelog.com/okinawa/A4705/A470501/47001357/",
    "address": "沖縄県 石垣市 字大川197-1",
    "code": "hyakumeiten_izakaya_2021_restaurant_47001357",
    "lat": "24.339995",
    "lng": "124.159399",
    "id": "izakaya-59"
  }, {
    "name": "新橋 いっぱし",
    "url": "https://tabelog.com/tokyo/A1301/A130103/13224766/",
    "address": "東京都 港区 新橋 1-18-11 一松ビル B1F",
    "code": "hyakumeiten_izakaya_2021_restaurant_13224766",
    "lat": "35.668352",
    "lng": "139.756393",
    "id": "izakaya-60"
  }, {
    "name": "日南",
    "url": "https://tabelog.com/tokyo/A1316/A131603/13001650/",
    "address": "東京都 品川区 東五反田 1-13-6",
    "code": "hyakumeiten_izakaya_2021_restaurant_13001650",
    "lat": "35.626379",
    "lng": "139.724746",
    "id": "izakaya-61"
  }, {
    "name": "舞浜",
    "url": "https://tabelog.com/tokyo/A1301/A130103/13013868/",
    "address": "東京都 港区 新橋 3-10-6 烏森水澤ビル 1F",
    "code": "hyakumeiten_izakaya_2021_restaurant_13013868",
    "lat": "35.665865",
    "lng": "139.755812",
    "id": "izakaya-62"
  }, {
    "name": "味酒 かむなび",
    "url": "https://tabelog.com/osaka/A2701/A270204/27013958/",
    "address": "大阪府 大阪市中央区 内久宝寺町 2-7-12",
    "code": "hyakumeiten_izakaya_2021_restaurant_27013958",
    "lat": "34.678257",
    "lng": "135.517996",
    "id": "izakaya-63"
  }, {
    "name": "神馬",
    "url": "https://tabelog.com/kyoto/A2601/A260203/26002592/",
    "address": "京都府 京都市上京区 千本通中立売上ル西側玉屋町38",
    "code": "hyakumeiten_izakaya_2021_restaurant_26002592",
    "lat": "35.02531",
    "lng": "135.742314",
    "id": "izakaya-64"
  }, {
    "name": "びんびや",
    "url": "https://tabelog.com/osaka/A2701/A270101/27013283/",
    "address": "大阪府 大阪市北区 曽根崎新地 1-7-26",
    "code": "hyakumeiten_izakaya_2021_restaurant_27013283",
    "lat": "34.697162",
    "lng": "135.500532",
    "id": "izakaya-65"
  }, {
    "name": "麦酒庵 大塚店",
    "url": "https://tabelog.com/tokyo/A1323/A132302/13122240/",
    "address": "東京都 豊島区 北大塚 2-27-1 吉松ビル 2Ｆ",
    "code": "hyakumeiten_izakaya_2021_restaurant_13122240",
    "lat": "35.732284",
    "lng": "139.729898",
    "id": "izakaya-66"
  }, {
    "name": "大甚 本店",
    "url": "https://tabelog.com/aichi/A2301/A230102/23000102/",
    "address": "愛知県 名古屋市中区 栄 1-5-6",
    "code": "hyakumeiten_izakaya_2021_restaurant_23000102",
    "lat": "35.167932",
    "lng": "136.897038",
    "id": "izakaya-67"
  }, {
    "name": "鼎",
    "url": "https://tabelog.com/tokyo/A1304/A130401/13000879/",
    "address": "東京都 新宿区 新宿 3-12-12 Ｂ１Ｆ",
    "code": "hyakumeiten_izakaya_2021_restaurant_13000879",
    "lat": "35.691668",
    "lng": "139.706134",
    "id": "izakaya-68"
  }, {
    "name": "田中田 博多本店",
    "url": "https://tabelog.com/fukuoka/A4001/A400104/40000919/",
    "address": "福岡県 福岡市中央区 清川 3-16-19 アーバントップ １Ｆ",
    "code": "hyakumeiten_izakaya_2021_restaurant_40000919",
    "lat": "33.576812",
    "lng": "130.411458",
    "id": "izakaya-69"
  }, {
    "name": "食堂とだか",
    "url": "https://tabelog.com/tokyo/A1316/A131603/13187669/",
    "address": "東京都 品川区 西五反田 1-9-3 リバーライトビル B1F",
    "code": "hyakumeiten_izakaya_2021_restaurant_13187669",
    "lat": "35.624874",
    "lng": "139.724281",
    "id": "izakaya-70"
  }, {
    "name": "れんげ料理店",
    "url": "https://tabelog.com/kagawa/A3701/A370101/37000768/",
    "address": "香川県 高松市 田町 1-11 ISIビル 1F",
    "code": "hyakumeiten_izakaya_2021_restaurant_37000768",
    "lat": "34.338425",
    "lng": "134.048488",
    "id": "izakaya-71"
  }, {
    "name": "立ち飲み 竜馬",
    "url": "https://tabelog.com/tokyo/A1301/A130103/13015271/",
    "address": "東京都 港区 新橋 2-13-3 ALC.BLD. 1F",
    "code": "hyakumeiten_izakaya_2021_restaurant_13015271",
    "lat": "35.666925",
    "lng": "139.755324",
    "id": "izakaya-72"
  }, {
    "name": "山葵",
    "url": "https://tabelog.com/tokyo/A1302/A130204/13008075/",
    "address": "東京都 中央区 日本橋人形町 2-11-4 三ツ矢ビル 1F",
    "code": "hyakumeiten_izakaya_2021_restaurant_13008075",
    "lat": "35.685446",
    "lng": "139.784178",
    "id": "izakaya-73"
  }, {
    "name": "赤津加",
    "url": "https://tabelog.com/tokyo/A1310/A131001/13006329/",
    "address": "東京都 千代田区 外神田 1-10-2",
    "code": "hyakumeiten_izakaya_2021_restaurant_13006329",
    "lat": "35.698952",
    "lng": "139.770897",
    "id": "izakaya-74"
  }, {
    "name": "独酌 三四郎",
    "url": "https://tabelog.com/hokkaido/A0104/A010401/1014057/",
    "address": "北海道 旭川市 2条通5丁目左7号",
    "code": "hyakumeiten_izakaya_2021_restaurant_1014057",
    "lat": "43.770244",
    "lng": "142.357554",
    "id": "izakaya-75"
  }, {
    "name": "魚三酒場 富岡店",
    "url": "https://tabelog.com/tokyo/A1313/A131303/13003007/",
    "address": "東京都 江東区 富岡 1-5-4 １Ｆ・２Ｆ・３Ｆ・４Ｆ",
    "code": "hyakumeiten_izakaya_2021_restaurant_13003007",
    "lat": "35.671017",
    "lng": "139.797563",
    "id": "izakaya-76"
  }, {
    "name": "陸蒸気",
    "url": "https://tabelog.com/tokyo/A1319/A131902/13000216/",
    "address": "東京都 中野区 中野 5-59-3",
    "code": "hyakumeiten_izakaya_2021_restaurant_13000216",
    "lat": "35.707613",
    "lng": "139.666098",
    "id": "izakaya-77"
  }, {
    "name": "やまちゃん 中洲店",
    "url": "https://tabelog.com/fukuoka/A4001/A400102/40029379/",
    "address": "福岡県 福岡市博多区 中洲 2丁目4-18",
    "code": "hyakumeiten_izakaya_2021_restaurant_40029379",
    "lat": "33.591804",
    "lng": "130.407842",
    "id": "izakaya-78"
  }, {
    "name": "和楽",
    "url": "https://tabelog.com/tokyo/A1301/A130103/13017894/",
    "address": "東京都 港区 新橋 2-9-14 三浦ビル 1F",
    "code": "hyakumeiten_izakaya_2021_restaurant_13017894",
    "lat": "35.666869",
    "lng": "139.756157",
    "id": "izakaya-79"
  }, {
    "name": "開陽亭 すすきの店",
    "url": "https://tabelog.com/hokkaido/A0101/A010103/1000100/",
    "address": "北海道 札幌市中央区 南六条西 4-5-27 新宿通りホワイトビルB1F",
    "code": "hyakumeiten_izakaya_2021_restaurant_1000100",
    "lat": "43.050688",
    "lng": "141.326836",
    "id": "izakaya-80"
  }, {
    "name": "金田",
    "url": "https://tabelog.com/tokyo/A1317/A131703/13003212/",
    "address": "東京都 目黒区 自由が丘 1-11-4",
    "code": "hyakumeiten_izakaya_2021_restaurant_13003212",
    "lat": "35.608092",
    "lng": "139.669315",
    "id": "izakaya-81"
  }, {
    "name": "酒盃",
    "url": "https://tabelog.com/akita/A0501/A050101/5000004/",
    "address": "秋田県 秋田市 山王 1-6-9",
    "code": "hyakumeiten_izakaya_2021_restaurant_5000004",
    "lat": "39.722153",
    "lng": "140.101837",
    "id": "izakaya-82"
  }, {
    "name": "ふくべ",
    "url": "https://tabelog.com/tokyo/A1302/A130202/13011473/",
    "address": "東京都 中央区 八重洲 1-4-5",
    "code": "hyakumeiten_izakaya_2021_restaurant_13011473",
    "lat": "35.682544",
    "lng": "139.771528",
    "id": "izakaya-83"
  }, {
    "name": "魚菜",
    "url": "https://tabelog.com/hokkaido/A0101/A010103/1000426/",
    "address": "北海道 札幌市中央区 南三条西 5 三条美松ビル ４Ｆ",
    "code": "hyakumeiten_izakaya_2021_restaurant_1000426",
    "lat": "43.056595",
    "lng": "141.350613",
    "id": "izakaya-84"
  }, {
    "name": "かんだ光壽",
    "url": "https://tabelog.com/tokyo/A1310/A131002/13011272/",
    "address": "東京都 千代田区 鍛冶町 2-9-7 大貫ビル １Ｆ",
    "code": "hyakumeiten_izakaya_2021_restaurant_13011272",
    "lat": "35.693209",
    "lng": "139.772235",
    "id": "izakaya-85"
  }, {
    "name": "なな治",
    "url": "https://tabelog.com/kyoto/A2601/A260301/26006925/",
    "address": "京都府 京都市中京区 西木屋町通六角西入ル北側 シャイン会館1F",
    "code": "hyakumeiten_izakaya_2021_restaurant_26006925",
    "lat": "35.00755",
    "lng": "135.770141",
    "id": "izakaya-86"
  }, {
    "name": "酒肆 門",
    "url": "https://tabelog.com/osaka/A2701/A270101/27012171/",
    "address": "大阪府 大阪市北区 曽根崎 2-5-37",
    "code": "hyakumeiten_izakaya_2021_restaurant_27012171",
    "lat": "34.699048",
    "lng": "135.50123",
    "id": "izakaya-87"
  }, {
    "name": "企久太",
    "url": "https://tabelog.com/kanagawa/A1404/A140402/14004243/",
    "address": "神奈川県 鎌倉市 小町 2-9-14 植山ビル ２Ｆ",
    "code": "hyakumeiten_izakaya_2021_restaurant_14004243",
    "lat": "35.320644",
    "lng": "139.552345",
    "id": "izakaya-88"
  }, {
    "name": "かねます",
    "url": "https://tabelog.com/tokyo/A1313/A131302/13002243/",
    "address": "東京都 中央区 勝どき 1-8-1 勝どきビュータワー 1F",
    "code": "hyakumeiten_izakaya_2021_restaurant_13002243",
    "lat": "35.659664",
    "lng": "139.776692",
    "id": "izakaya-89"
  }, {
    "name": "俺の割烹 銀座本店",
    "url": "https://tabelog.com/tokyo/A1301/A130103/13152236/",
    "address": "東京都 中央区 銀座 8-8-17 伊勢萬ビル 1Ｆ",
    "code": "hyakumeiten_izakaya_2021_restaurant_13152236",
    "lat": "35.668311",
    "lng": "139.761381",
    "id": "izakaya-90"
  }, {
    "name": "食事と酒処 真",
    "url": "https://tabelog.com/fukuoka/A4001/A400103/40003911/",
    "address": "福岡県 福岡市中央区 天神 1丁目15-3 1F",
    "code": "hyakumeiten_izakaya_2021_restaurant_40003911",
    "lat": "33.592612",
    "lng": "130.402036",
    "id": "izakaya-91"
  }, {
    "name": "味楽 ゆめり",
    "url": "https://tabelog.com/ishikawa/A1701/A170101/17005534/",
    "address": "石川県 金沢市 本町 1-3-33",
    "code": "hyakumeiten_izakaya_2021_restaurant_17005534",
    "lat": "36.575068",
    "lng": "136.65201",
    "id": "izakaya-92"
  }, {
    "name": "吉柳",
    "url": "https://tabelog.com/tokyo/A1303/A130302/13018283/",
    "address": "東京都 渋谷区 恵比寿南 1-2-12 ２Ｆ",
    "code": "hyakumeiten_izakaya_2021_restaurant_13018283",
    "lat": "35.646327",
    "lng": "139.708086",
    "id": "izakaya-93"
  }, {
    "name": "多満喜",
    "url": "https://tabelog.com/osaka/A2701/A270201/27044765/",
    "address": "大阪府 大阪市中央区 南船場 3-1-7 日宝東心斎橋ビル １F",
    "code": "hyakumeiten_izakaya_2021_restaurant_27044765",
    "lat": "34.677805",
    "lng": "135.502997",
    "id": "izakaya-94"
  }, {
    "name": "徳多和良",
    "url": "https://tabelog.com/tokyo/A1324/A132402/13008682/",
    "address": "東京都 足立区 千住 2-12",
    "code": "hyakumeiten_izakaya_2021_restaurant_13008682",
    "lat": "35.749517",
    "lng": "139.802917",
    "id": "izakaya-95"
  }, {
    "name": "並木橋なかむら",
    "url": "https://tabelog.com/tokyo/A1303/A130301/13059986/",
    "address": "東京都 渋谷区 渋谷 3-13-5 BPRレジデンス渋谷2F-B",
    "code": "hyakumeiten_izakaya_2021_restaurant_13059986",
    "lat": "35.655801",
    "lng": "139.706423",
    "id": "izakaya-96"
  }, {
    "name": "どんこ",
    "url": "https://tabelog.com/kochi/A3901/A390101/39000703/",
    "address": "高知県 高知市 はりまや町 2-1-21",
    "code": "hyakumeiten_izakaya_2021_restaurant_39000703",
    "lat": "33.561315",
    "lng": "133.542763",
    "id": "izakaya-97"
  }, {
    "name": "鯉とうなぎのまるます家 総本店",
    "url": "https://tabelog.com/tokyo/A1323/A132305/13003778/",
    "address": "東京都 北区 赤羽 1-17-7",
    "code": "hyakumeiten_izakaya_2021_restaurant_13003778",
    "lat": "35.77996",
    "lng": "139.720464",
    "id": "izakaya-98"
  }, {
    "name": "正ちゃん",
    "url": "https://tabelog.com/tokyo/A1311/A131102/13010507/",
    "address": "東京都 台東区 浅草 2-7-13",
    "code": "hyakumeiten_izakaya_2021_restaurant_13010507",
    "lat": "35.714744",
    "lng": "139.794956",
    "id": "izakaya-99"
  }]
}
