{
  "shops": [{
    "name": "弥勒",
    "url": "https://tabelog.com/okayama/A3301/A330101/33010405/",
    "address": "岡山県 岡山市北区 柳町 1-3-9 カワカミハイツ 1Ｆ",
    "code": "hyakumeiten_steak_2022_restaurant_33010405",
    "lat": "34.660151",
    "lng": "133.921337",
    "id": "steak-0"
  }, {
    "name": "ライおン",
    "url": "https://tabelog.com/saga/A4102/A410202/41000002/",
    "address": "佐賀県 伊万里市 二里町大里乙 86-3",
    "code": "hyakumeiten_steak_2022_restaurant_41000002",
    "lat": "33.263074",
    "lng": "129.857731",
    "id": "steak-1"
  }, {
    "name": "五明 ｇｏｍｅｉ",
    "url": "https://tabelog.com/tokyo/A1301/A130101/13187289/",
    "address": "東京都 中央区 銀座 6-4-18 マキシドピアビル B1F",
    "code": "hyakumeiten_steak_2022_restaurant_13187289",
    "lat": "35.671592",
    "lng": "139.761634",
    "id": "steak-2"
  }, {
    "name": "鉄板焼ステーキ 一ッ葉ミヤチク",
    "url": "https://tabelog.com/miyazaki/A4501/A450101/45000084/",
    "address": "宮崎県 宮崎市 新別府町 前浜1401-255",
    "code": "hyakumeiten_steak_2022_restaurant_45000084",
    "lat": "31.920652",
    "lng": "131.459509",
    "id": "steak-3"
  }, {
    "name": "AUBE．鉄板料理 つむぎ",
    "url": "https://tabelog.com/miyazaki/A4501/A450101/45000797/",
    "address": "宮崎県 宮崎市 中央通 8-23 2F",
    "code": "hyakumeiten_steak_2022_restaurant_45000797",
    "lat": "31.913881",
    "lng": "131.420983",
    "id": "steak-4"
  }, {
    "name": "ウルフギャング・ステーキハウス 丸の内店",
    "url": "https://tabelog.com/tokyo/A1302/A130201/13175479/",
    "address": "東京都 千代田区 丸の内 2-1-1 丸の内マイプラザ AZA 明治生命館 B1F",
    "code": "hyakumeiten_steak_2022_restaurant_13175479",
    "lat": "35.679383",
    "lng": "139.762053",
    "id": "steak-5"
  }, {
    "name": "FORNO",
    "url": "https://tabelog.com/tokyo/A1307/A130703/13220897/",
    "address": "東京都 港区 西麻布 4-11-25 モダンフォルム西麻布パートⅢ 3F",
    "code": "hyakumeiten_steak_2022_restaurant_13220897",
    "lat": "35.659232",
    "lng": "139.722315",
    "id": "steak-6"
  }, {
    "name": "ステーキハウス新吾",
    "url": "https://tabelog.com/kyoto/A2601/A260301/26006053/",
    "address": "京都府 京都市東山区 新門前通大和大路東入西之町232-6",
    "code": "hyakumeiten_steak_2022_restaurant_26006053",
    "lat": "35.006087",
    "lng": "135.774482",
    "id": "steak-7"
  }, {
    "name": "祗園 一道",
    "url": "https://tabelog.com/kyoto/A2601/A260301/26018265/",
    "address": "京都府 京都市東山区 祇園町南側 589 ぎをん松本ビル1階",
    "code": "hyakumeiten_steak_2022_restaurant_26018265",
    "lat": "35.003594",
    "lng": "135.773155",
    "id": "steak-8"
  }, {
    "name": "千薫庵",
    "url": "https://tabelog.com/aichi/A2301/A230111/23001008/",
    "address": "愛知県 名古屋市名東区 猪子石 1-2701",
    "code": "hyakumeiten_steak_2022_restaurant_23001008",
    "lat": "35.185144",
    "lng": "136.996761",
    "id": "steak-9"
  }, {
    "name": "ステーキ＆ワイン いしざき",
    "url": "https://tabelog.com/hokkaido/A0101/A010103/1002853/",
    "address": "北海道 札幌市中央区 南四条西 3 ニュー北星ビル 4Ｆ",
    "code": "hyakumeiten_steak_2022_restaurant_1002853",
    "lat": "43.055619",
    "lng": "141.354292",
    "id": "steak-10"
  }, {
    "name": "SAMURAI dos Premium Steak House 八重洲鉄鋼ビル店",
    "url": "https://tabelog.com/tokyo/A1302/A130201/13197877/",
    "address": "東京都 千代田区 丸の内 1-8-2 鉄鋼ビル B1F",
    "code": "hyakumeiten_steak_2022_restaurant_13197877",
    "lat": "35.683152",
    "lng": "139.770272",
    "id": "steak-11"
  }, {
    "name": "哥利歐",
    "url": "https://tabelog.com/tokyo/A1313/A131301/13002356/",
    "address": "東京都 中央区 銀座 8-18-3 DJ銀座ビル1F",
    "code": "hyakumeiten_steak_2022_restaurant_13002356",
    "lat": "35.666249",
    "lng": "139.764982",
    "id": "steak-12"
  }, {
    "name": "ステーキ懐石都 春日",
    "url": "https://tabelog.com/hiroshima/A3403/A340305/34000084/",
    "address": "広島県 福山市 春日町 2-2-43",
    "code": "hyakumeiten_steak_2022_restaurant_34000084",
    "lat": "34.509316",
    "lng": "133.411445",
    "id": "steak-13"
  }, {
    "name": "佐賀牛レストラン季楽 本店",
    "url": "https://tabelog.com/saga/A4101/A410101/41000012/",
    "address": "佐賀県 佐賀市 大財 3-9-16",
    "code": "hyakumeiten_steak_2022_restaurant_41000012",
    "lat": "33.261529",
    "lng": "130.303322",
    "id": "steak-14"
  }, {
    "name": "麤皮",
    "url": "https://tabelog.com/tokyo/A1314/A131401/13002897/",
    "address": "東京都 港区 西新橋 3-23-11 御成門小田急ビル １Ｆ",
    "code": "hyakumeiten_steak_2022_restaurant_13002897",
    "lat": "35.661726",
    "lng": "139.751367",
    "id": "steak-15"
  }, {
    "name": "六角堂",
    "url": "https://tabelog.com/aichi/A2306/A230603/23000855/",
    "address": "愛知県 蒲郡市 竹島町 15-1 蒲郡クラシックホテル",
    "code": "hyakumeiten_steak_2022_restaurant_23000855",
    "lat": "34.815998",
    "lng": "137.235641",
    "id": "steak-16"
  }, {
    "name": "コーナーズグリル",
    "url": "https://tabelog.com/okinawa/A4705/A470501/47004364/",
    "address": "沖縄県 石垣市 大川 258-1 城西ビル １Ｆ",
    "code": "hyakumeiten_steak_2022_restaurant_47004364",
    "lat": "24.339737",
    "lng": "124.156862",
    "id": "steak-17"
  }, {
    "name": "ステーキハウス キッチンリボン",
    "url": "https://tabelog.com/aichi/A2301/A230108/23000494/",
    "address": "愛知県 名古屋市昭和区 菊園町 4-24 菊園ビル １Ｆ",
    "code": "hyakumeiten_steak_2022_restaurant_23000494",
    "lat": "35.138568",
    "lng": "136.942139",
    "id": "steak-18"
  }, {
    "name": "じゃんけんぽん",
    "url": "https://tabelog.com/hokkaido/A0108/A010804/1022575/",
    "address": "北海道 沙流郡平取町 振内町 30-11",
    "code": "hyakumeiten_steak_2022_restaurant_1022575",
    "lat": "42.726104",
    "lng": "142.303358",
    "id": "steak-19"
  }, {
    "name": "ロウリーズ・ザ・プライムリブ 大阪",
    "url": "https://tabelog.com/osaka/A2701/A270101/27018310/",
    "address": "大阪府 大阪市北区 梅田 2-2-22 ハービスPLAZA ENT 5F",
    "code": "hyakumeiten_steak_2022_restaurant_27018310",
    "lat": "34.699783",
    "lng": "135.49457",
    "id": "steak-20"
  }, {
    "name": "鉄板キュイジーヌ長尾",
    "url": "https://tabelog.com/okayama/A3301/A330101/33006740/",
    "address": "岡山県 岡山市北区 丸の内 1-1-9",
    "code": "hyakumeiten_steak_2022_restaurant_33006740",
    "lat": "34.665482",
    "lng": "133.930849",
    "id": "steak-21"
  }, {
    "name": "大淀河畔 みやちく",
    "url": "https://tabelog.com/miyazaki/A4501/A450101/45000328/",
    "address": "宮崎県 宮崎市 松山 1-1-1 宮崎観光ホテル西館 ２Ｆ",
    "code": "hyakumeiten_steak_2022_restaurant_45000328",
    "lat": "31.905708",
    "lng": "131.426804",
    "id": "steak-22"
  }, {
    "name": "鎌倉山 本店",
    "url": "https://tabelog.com/kanagawa/A1404/A140402/14000275/",
    "address": "神奈川県 鎌倉市 鎌倉山 3-11-1",
    "code": "hyakumeiten_steak_2022_restaurant_14000275",
    "lat": "35.321148",
    "lng": "139.514518",
    "id": "steak-23"
  }, {
    "name": "四季彩鉄板くさの",
    "url": "https://tabelog.com/okayama/A3301/A330101/33011311/",
    "address": "岡山県 岡山市北区 田町 2-13-1-C アウルスタイル西川 2F",
    "code": "hyakumeiten_steak_2022_restaurant_33011311",
    "lat": "34.659151",
    "lng": "133.923278",
    "id": "steak-24"
  }, {
    "name": "大栄",
    "url": "https://tabelog.com/hyogo/A2801/A280103/28001806/",
    "address": "兵庫県 神戸市灘区 篠原南町 7-1-6",
    "code": "hyakumeiten_steak_2022_restaurant_28001806",
    "lat": "34.713904",
    "lng": "135.225964",
    "id": "steak-25"
  }, {
    "name": "裏虎",
    "url": "https://tabelog.com/tokyo/A1317/A131701/13216607/",
    "address": "",
    "code": "hyakumeiten_steak_2022_restaurant_13216607",
    "lat": "",
    "lng": "",
    "id": "steak-26"
  }, {
    "name": "グルマンズ和牛",
    "url": "https://tabelog.com/tochigi/A0903/A090301/9000108/",
    "address": "栃木県 日光市 所野 1541-297",
    "code": "hyakumeiten_steak_2022_restaurant_9000108",
    "lat": "36.765109",
    "lng": "139.616243",
    "id": "steak-27"
  }, {
    "name": "但馬牛倶楽部炉釜炭焼ステーキ 一宮",
    "url": "https://tabelog.com/tokyo/A1301/A130101/13231933/",
    "address": "東京都 中央区 銀座 5-14-14 サンリット銀座ビルⅢ 8F",
    "code": "hyakumeiten_steak_2022_restaurant_13231933",
    "lat": "35.668571",
    "lng": "139.766907",
    "id": "steak-28"
  }, {
    "name": "ロウリーズ・ザ・プライムリブ 恵比寿ガーデンプレイス店",
    "url": "https://tabelog.com/tokyo/A1303/A130302/13165420/",
    "address": "東京都 渋谷区 恵比寿 4-20-3 恵比寿ガーデンプレイスタワー B2F",
    "code": "hyakumeiten_steak_2022_restaurant_13165420",
    "lat": "35.642203",
    "lng": "139.713665",
    "id": "steak-29"
  }, {
    "name": "定谷",
    "url": "https://tabelog.com/tokyo/A1311/A131104/13031814/",
    "address": "東京都 台東区 根岸 4-3-2",
    "code": "hyakumeiten_steak_2022_restaurant_13031814",
    "lat": "35.724875",
    "lng": "139.78377",
    "id": "steak-30"
  }, {
    "name": "ウェスタ",
    "url": "https://tabelog.com/tokyo/A1302/A130202/13185496/",
    "address": "東京都 中央区 日本橋 3-8-13 華蓮日本橋ビル 1F",
    "code": "hyakumeiten_steak_2022_restaurant_13185496",
    "lat": "35.680099",
    "lng": "139.773297",
    "id": "steak-31"
  }, {
    "name": "しらかわ",
    "url": "https://tabelog.com/ibaraki/A0801/A080101/8009475/",
    "address": "茨城県 水戸市 南町 2-3-32 西洋倶楽部ビル 2F",
    "code": "hyakumeiten_steak_2022_restaurant_8009475",
    "lat": "36.375313",
    "lng": "140.470403",
    "id": "steak-32"
  }, {
    "name": "横浜うかい亭",
    "url": "https://tabelog.com/kanagawa/A1407/A140702/14000790/",
    "address": "神奈川県 大和市 つきみ野 6-5-2",
    "code": "hyakumeiten_steak_2022_restaurant_14000790",
    "lat": "35.51466",
    "lng": "139.45165",
    "id": "steak-33"
  }, {
    "name": "朱藏",
    "url": "https://tabelog.com/hyogo/A2801/A280102/28037006/",
    "address": "兵庫県 神戸市中央区 中山手通 3-10-12 2F",
    "code": "hyakumeiten_steak_2022_restaurant_28037006",
    "lat": "34.694543",
    "lng": "135.187157",
    "id": "steak-34"
  }, {
    "name": "ルース クリス ステーキハウス",
    "url": "https://tabelog.com/tokyo/A1308/A130802/13045091/",
    "address": "東京都 千代田区 霞が関 3-2-6 東京倶楽部ビルディング 霞ダイニング １Ｆ",
    "code": "hyakumeiten_steak_2022_restaurant_13045091",
    "lat": "35.670761",
    "lng": "139.746995",
    "id": "steak-35"
  }, {
    "name": "Akamiya COWSI",
    "url": "https://tabelog.com/fukuoka/A4001/A400103/40037316/",
    "address": "福岡県 福岡市中央区 春吉 2-17-2 1F",
    "code": "hyakumeiten_steak_2022_restaurant_40037316",
    "lat": "33.585612",
    "lng": "130.407156",
    "id": "steak-36"
  }, {
    "name": "ステーキ  いぐち",
    "url": "https://tabelog.com/osaka/A2701/A270101/27011398/",
    "address": "大阪府 大阪市北区 曽根崎新地 1丁目2-13 タムラビル B1階",
    "code": "hyakumeiten_steak_2022_restaurant_27011398",
    "lat": "34.697207",
    "lng": "135.497374",
    "id": "steak-37"
  }, {
    "name": "潜龍",
    "url": "https://tabelog.com/gifu/A2101/A210101/21000012/",
    "address": "岐阜県 岐阜市 長良 14",
    "code": "hyakumeiten_steak_2022_restaurant_21000012",
    "lat": "35.441137",
    "lng": "136.780767",
    "id": "steak-38"
  }, {
    "name": "ステーキハウス バロン",
    "url": "https://tabelog.com/kumamoto/A4301/A430101/43000201/",
    "address": "熊本県 熊本市中央区 下通 1-9-4 宇都宮ビル ２Ｆ",
    "code": "hyakumeiten_steak_2022_restaurant_43000201",
    "lat": "32.800734",
    "lng": "130.707359",
    "id": "steak-39"
  }, {
    "name": "ウルフギャング・ステーキハウス 大阪店",
    "url": "https://tabelog.com/osaka/A2701/A270101/27084039/",
    "address": "大阪府 大阪市北区 梅田 3-1-3 ルクア イーレ 10Ｆ",
    "code": "hyakumeiten_steak_2022_restaurant_27084039",
    "lat": "34.702887",
    "lng": "135.495324",
    "id": "steak-40"
  }, {
    "name": "くいしんぼー山中",
    "url": "https://tabelog.com/kyoto/A2601/A260401/26002126/",
    "address": "京都府 京都市西京区 御陵溝浦町 26-26",
    "code": "hyakumeiten_steak_2022_restaurant_26002126",
    "lat": "34.979397",
    "lng": "135.693398",
    "id": "steak-41"
  }, {
    "name": "鉄板焼き 高見",
    "url": "https://tabelog.com/tokyo/A1303/A130302/13021191/",
    "address": "東京都 渋谷区 広尾 3-12-40 広尾ビル ２Ｆ",
    "code": "hyakumeiten_steak_2022_restaurant_13021191",
    "lat": "35.653922",
    "lng": "139.713892",
    "id": "steak-42"
  }, {
    "name": "ビーフステーキ専門店　ひよこ",
    "url": "https://tabelog.com/ishikawa/A1701/A170101/17001557/",
    "address": "石川県 金沢市 菊川 1-34-19",
    "code": "hyakumeiten_steak_2022_restaurant_17001557",
    "lat": "36.551048",
    "lng": "136.665797",
    "id": "steak-43"
  }, {
    "name": "和黒 北野坂本店",
    "url": "https://tabelog.com/hyogo/A2801/A280101/28000954/",
    "address": "兵庫県 神戸市中央区 中山手通 1-22-13 ヒルサイドテラス 1Ｆ",
    "code": "hyakumeiten_steak_2022_restaurant_28000954",
    "lat": "34.69805",
    "lng": "135.191642",
    "id": "steak-44"
  }, {
    "name": "Ｏ’ｓ Ｈｏｕｓｅ",
    "url": "https://tabelog.com/okinawa/A4701/A470101/47001572/",
    "address": "沖縄県 那覇市 久米 2-8-2",
    "code": "hyakumeiten_steak_2022_restaurant_47001572",
    "lat": "26.214742",
    "lng": "127.676025",
    "id": "steak-45"
  }, {
    "name": "ボビノ",
    "url": "https://tabelog.com/osaka/A2701/A270101/27005232/",
    "address": "大阪府 大阪市北区 曽根崎新地 1-2-17",
    "code": "hyakumeiten_steak_2022_restaurant_27005232",
    "lat": "34.700219",
    "lng": "135.501036",
    "id": "steak-46"
  }, {
    "name": "嘉門",
    "url": "https://tabelog.com/osaka/A2701/A270304/27003663/",
    "address": "大阪府 大阪市北区 天満橋 1-8-50 帝国ホテル 大阪 24F",
    "code": "hyakumeiten_steak_2022_restaurant_27003663",
    "lat": "34.700788",
    "lng": "135.519684",
    "id": "steak-47"
  }, {
    "name": "銀座うかい亭",
    "url": "https://tabelog.com/tokyo/A1301/A130101/13002367/",
    "address": "東京都 中央区 銀座 5-15-8 時事通信ビル １Ｆ",
    "code": "hyakumeiten_steak_2022_restaurant_13002367",
    "lat": "35.668073",
    "lng": "139.767335",
    "id": "steak-48"
  }, {
    "name": "Peter",
    "url": "https://tabelog.com/tokyo/A1301/A130102/13042813/",
    "address": "東京都 千代田区 有楽町 1-8-1 ザ・ペニンシュラ東京 ２４Ｆ",
    "code": "hyakumeiten_steak_2022_restaurant_13042813",
    "lat": "35.674759",
    "lng": "139.76047",
    "id": "steak-49"
  }, {
    "name": "那古亭",
    "url": "https://tabelog.com/aichi/A2301/A230101/23000324/",
    "address": "愛知県 名古屋市中村区 名駅 1-1-4 名古屋マリオットアソシアホテル １８Ｆ",
    "code": "hyakumeiten_steak_2022_restaurant_23000324",
    "lat": "35.170203",
    "lng": "136.883197",
    "id": "steak-50"
  }, {
    "name": "近江牛専門店 近江かど萬",
    "url": "https://tabelog.com/shiga/A2501/A250101/25000686/",
    "address": "滋賀県 大津市 中央 1-7-35",
    "code": "hyakumeiten_steak_2022_restaurant_25000686",
    "lat": "35.009486",
    "lng": "135.864711",
    "id": "steak-51"
  }, {
    "name": "中勢以 小石川店",
    "url": "https://tabelog.com/tokyo/A1323/A132302/13152057/",
    "address": "東京都 文京区 小石川 5-10-18",
    "code": "hyakumeiten_steak_2022_restaurant_13152057",
    "lat": "35.716199",
    "lng": "139.740671",
    "id": "steak-52"
  }, {
    "name": "みやす",
    "url": "https://tabelog.com/hyogo/A2801/A280102/28000524/",
    "address": "兵庫県 神戸市中央区 下山手通 3-2-19 淡路交通ビル ２Ｆ",
    "code": "hyakumeiten_steak_2022_restaurant_28000524",
    "lat": "34.692476",
    "lng": "135.188594",
    "id": "steak-53"
  }, {
    "name": "BENJAMIN STEAKHOUSE ROPPONGI",
    "url": "https://tabelog.com/tokyo/A1307/A130701/13209863/",
    "address": "東京都 港区 六本木 7-14-4 レム六本木ビル B1F",
    "code": "hyakumeiten_steak_2022_restaurant_13209863",
    "lat": "35.663779",
    "lng": "139.731489",
    "id": "steak-54"
  }, {
    "name": "加藤牛肉店 銀座",
    "url": "https://tabelog.com/tokyo/A1301/A130101/13076544/",
    "address": "東京都 中央区 銀座 6-4-15 トニービル １Ｆ",
    "code": "hyakumeiten_steak_2022_restaurant_13076544",
    "lat": "35.671265",
    "lng": "139.761301",
    "id": "steak-55"
  }, {
    "name": "岡半 本店",
    "url": "https://tabelog.com/tokyo/A1301/A130101/13002562/",
    "address": "東京都 中央区 銀座 7-6-16 銀座金田中ビル ７Ｆ・８Ｆ",
    "code": "hyakumeiten_steak_2022_restaurant_13002562",
    "lat": "35.669623",
    "lng": "139.761682",
    "id": "steak-56"
  }, {
    "name": "飛騨牛グリルばくろ",
    "url": "https://tabelog.com/gifu/A2101/A210101/21010723/",
    "address": "岐阜県 岐阜市 米屋町 9",
    "code": "hyakumeiten_steak_2022_restaurant_21010723",
    "lat": "35.429509",
    "lng": "136.766558",
    "id": "steak-57"
  }, {
    "name": "キャラバン",
    "url": "https://tabelog.com/saga/A4102/A410201/41002233/",
    "address": "佐賀県 唐津市 中町 1845",
    "code": "hyakumeiten_steak_2022_restaurant_41002233",
    "lat": "33.448041",
    "lng": "129.969624",
    "id": "steak-58"
  }, {
    "name": "ステーキレストランそうま",
    "url": "https://tabelog.com/kanagawa/A1406/A140602/14002324/",
    "address": "神奈川県 三浦郡葉山町 一色 1180-2 かやの木テラス参番館",
    "code": "hyakumeiten_steak_2022_restaurant_14002324",
    "lat": "35.266811",
    "lng": "139.586575",
    "id": "steak-59"
  }, {
    "name": "かわむら",
    "url": "https://tabelog.com/tokyo/A1301/A130101/13016506/",
    "address": "",
    "code": "hyakumeiten_steak_2022_restaurant_13016506",
    "lat": "",
    "lng": "",
    "id": "steak-60"
  }, {
    "name": "表参道うかい亭",
    "url": "https://tabelog.com/tokyo/A1306/A130601/13044361/",
    "address": "東京都 渋谷区 神宮前 5-10-1 表参道ジャイル 5F",
    "code": "hyakumeiten_steak_2022_restaurant_13044361",
    "lat": "35.667388",
    "lng": "139.706787",
    "id": "steak-61"
  }, {
    "name": "Steak Dining Vitis",
    "url": "https://tabelog.com/tokyo/A1317/A131701/13173227/",
    "address": "東京都 目黒区 上目黒 3-1-13 ACE中目黒ビル B1F",
    "code": "hyakumeiten_steak_2022_restaurant_13173227",
    "lat": "35.645242",
    "lng": "139.697138",
    "id": "steak-62"
  }, {
    "name": "神戸牛ステーキ Ishida. 本店",
    "url": "https://tabelog.com/hyogo/A2801/A280101/28032718/",
    "address": "兵庫県 神戸市中央区 北長狭通 1-21-2 TAKAIビル 3F",
    "code": "hyakumeiten_steak_2022_restaurant_28032718",
    "lat": "34.694167",
    "lng": "135.19252",
    "id": "steak-63"
  }, {
    "name": "Peter Luger Steak House Tokyo",
    "url": "https://tabelog.com/tokyo/A1303/A130302/13258435/",
    "address": "東京都 渋谷区 恵比寿 4-19-19",
    "code": "hyakumeiten_steak_2022_restaurant_13258435",
    "lat": "35.643963",
    "lng": "139.713995",
    "id": "steak-64"
  }, {
    "name": "香月",
    "url": "https://tabelog.com/iwate/A0301/A030101/3000152/",
    "address": "岩手県 盛岡市 菜園 1-5-10 グリムハウス 4F",
    "code": "hyakumeiten_steak_2022_restaurant_3000152",
    "lat": "39.701704",
    "lng": "141.148079",
    "id": "steak-65"
  }, {
    "name": "トロワフレーシュ",
    "url": "https://tabelog.com/tokyo/A1301/A130103/13130978/",
    "address": "東京都 中央区 銀座 8-2-8 銀座高本ビル 2F",
    "code": "hyakumeiten_steak_2022_restaurant_13130978",
    "lat": "35.669719",
    "lng": "139.759598",
    "id": "steak-66"
  }, {
    "name": "喜瀬",
    "url": "https://tabelog.com/okinawa/A4702/A470201/47011807/",
    "address": "沖縄県 名護市 喜瀬 1343-1 ザ・リッツカールトン沖縄 3Ｆ",
    "code": "hyakumeiten_steak_2022_restaurant_47011807",
    "lat": "26.528194",
    "lng": "127.939735",
    "id": "steak-67"
  }, {
    "name": "米沢牛亭 ぐっど",
    "url": "https://tabelog.com/yamagata/A0602/A060201/6000031/",
    "address": "山形県 米沢市 下花沢 1-3-4",
    "code": "hyakumeiten_steak_2022_restaurant_6000031",
    "lat": "37.906566",
    "lng": "140.133279",
    "id": "steak-68"
  }, {
    "name": "佐賀牛 季楽 銀座",
    "url": "https://tabelog.com/tokyo/A1301/A130101/13020504/",
    "address": "東京都 中央区 銀座 5-4-6 ロイヤルクリスタル銀座 5F",
    "code": "hyakumeiten_steak_2022_restaurant_13020504",
    "lat": "35.67172",
    "lng": "139.763314",
    "id": "steak-69"
  }, {
    "name": "ゆたか",
    "url": "https://tabelog.com/kyoto/A2601/A260301/26001272/",
    "address": "京都府 京都市東山区 祇園町南側 四条花見小路下ル四筋目東入ル",
    "code": "hyakumeiten_steak_2022_restaurant_26001272",
    "lat": "35.002387",
    "lng": "135.775001",
    "id": "steak-70"
  }, {
    "name": "神戸プレジール 本店",
    "url": "https://tabelog.com/hyogo/A2801/A280101/28008218/",
    "address": "兵庫県 神戸市中央区 下山手通 2-11-5 ザ・ビー神戸 ビー神戸 1F",
    "code": "hyakumeiten_steak_2022_restaurant_28008218",
    "lat": "34.69338",
    "lng": "135.190071",
    "id": "steak-71"
  }, {
    "name": "蔵 鉄板焼＆寿司",
    "url": "https://tabelog.com/osaka/A2701/A270102/27097667/",
    "address": "大阪府 大阪市北区 中之島 3-2-4 中之島フェスティバルタワー・ウェスト コンラッド大阪 40F",
    "code": "hyakumeiten_steak_2022_restaurant_27097667",
    "lat": "34.693536",
    "lng": "135.495722",
    "id": "steak-72"
  }, {
    "name": "大胡椒",
    "url": "https://tabelog.com/miyagi/A0401/A040101/4001116/",
    "address": "宮城県 仙台市青葉区 一番町 4-3-18",
    "code": "hyakumeiten_steak_2022_restaurant_4001116",
    "lat": "38.326777",
    "lng": "140.677942",
    "id": "steak-73"
  }, {
    "name": "存じやす　極",
    "url": "https://tabelog.com/tochigi/A0901/A090101/9007919/",
    "address": "栃木県 宇都宮市 中央 5-3-5",
    "code": "hyakumeiten_steak_2022_restaurant_9007919",
    "lat": "36.558295",
    "lng": "139.88623",
    "id": "steak-74"
  }, {
    "name": "ウルフギャング・ステーキハウス 六本木",
    "url": "https://tabelog.com/tokyo/A1307/A130701/13164062/",
    "address": "東京都 港区 六本木 5-16-50 六本木DUPLEX M's 1F",
    "code": "hyakumeiten_steak_2022_restaurant_13164062",
    "lat": "35.661439",
    "lng": "139.735371",
    "id": "steak-75"
  }, {
    "name": "ビーフクラブ ノエル",
    "url": "https://tabelog.com/mie/A2401/A240102/24001065/",
    "address": "三重県 松阪市 京町 25",
    "code": "hyakumeiten_steak_2022_restaurant_24001065",
    "lat": "34.573598",
    "lng": "136.535416",
    "id": "steak-76"
  }, {
    "name": "Akami Modern Chop House",
    "url": "https://tabelog.com/osaka/A2701/A270108/27096329/",
    "address": "大阪府 大阪市福島区 福島 1-1-48 堂島クロスウォーク 1F",
    "code": "hyakumeiten_steak_2022_restaurant_27096329",
    "lat": "34.694621",
    "lng": "135.489622",
    "id": "steak-77"
  }, {
    "name": "和黒 新神戸店",
    "url": "https://tabelog.com/hyogo/A2801/A280103/28000955/",
    "address": "兵庫県 神戸市中央区 北野町 1-1 コトノハコ神戸 3F",
    "code": "hyakumeiten_steak_2022_restaurant_28000955",
    "lat": "34.704683",
    "lng": "135.19541",
    "id": "steak-78"
  }, {
    "name": "神戸牛炉釜ステーキ GINZA KOKO炉",
    "url": "https://tabelog.com/tokyo/A1301/A130101/13224979/",
    "address": "東京都 中央区 銀座 1-8-7 VORT銀座 B1F",
    "code": "hyakumeiten_steak_2022_restaurant_13224979",
    "lat": "35.674081",
    "lng": "139.768597",
    "id": "steak-79"
  }, {
    "name": "PENTHOUSE GINZA hanare:",
    "url": "https://tabelog.com/tokyo/A1301/A130101/13209209/",
    "address": "東京都 中央区 銀座 8-5-9 民友ビル 3F",
    "code": "hyakumeiten_steak_2022_restaurant_13209209",
    "lat": "35.668723",
    "lng": "139.760012",
    "id": "steak-80"
  }, {
    "name": "銀座 ひらやま",
    "url": "https://tabelog.com/tokyo/A1313/A131301/13151917/",
    "address": "東京都 中央区 銀座 7-17-1 武蔵野ビル1F",
    "code": "hyakumeiten_steak_2022_restaurant_13151917",
    "lat": "35.66673",
    "lng": "139.766343",
    "id": "steak-81"
  }, {
    "name": "麤皮",
    "url": "https://tabelog.com/hyogo/A2801/A280101/28000962/",
    "address": "兵庫県 神戸市中央区 中山手通 2-15-18",
    "code": "hyakumeiten_steak_2022_restaurant_28000962",
    "lat": "34.69704",
    "lng": "135.189545",
    "id": "steak-82"
  }, {
    "name": "神戸牛炉釜炭焼ステーキ IDEA 銀座",
    "url": "https://tabelog.com/tokyo/A1301/A130101/13161192/",
    "address": "東京都 中央区 銀座 7-8-15 第2新橋会館 7F",
    "code": "hyakumeiten_steak_2022_restaurant_13161192",
    "lat": "35.669072",
    "lng": "139.762194",
    "id": "steak-83"
  }, {
    "name": "北新地 福多亭",
    "url": "https://tabelog.com/osaka/A2701/A270101/27066944/",
    "address": "大阪府 大阪市北区 曽根崎新地 1丁目11-19 北新地スタービル Ｂ１",
    "code": "hyakumeiten_steak_2022_restaurant_27066944",
    "lat": "34.698005",
    "lng": "135.4991",
    "id": "steak-84"
  }, {
    "name": "くずし鉄板 あばぐら 神田店",
    "url": "https://tabelog.com/tokyo/A1310/A131002/13197319/",
    "address": "東京都 千代田区 鍛冶町 1-9-19 GEMS神田 5F",
    "code": "hyakumeiten_steak_2022_restaurant_13197319",
    "lat": "35.690473",
    "lng": "139.772594",
    "id": "steak-85"
  }, {
    "name": "西洋料理 島",
    "url": "https://tabelog.com/tokyo/A1302/A130202/13000495/",
    "address": "東京都 中央区 日本橋 3-5-12 日本橋ＭＭビル Ｂ１Ｆ",
    "code": "hyakumeiten_steak_2022_restaurant_13000495",
    "lat": "35.679047",
    "lng": "139.772896",
    "id": "steak-86"
  }, {
    "name": "備長炭ステーキ炉　Sakai",
    "url": "https://tabelog.com/aichi/A2301/A230105/23000754/",
    "address": "愛知県 名古屋市中区 大須 2-8-23",
    "code": "hyakumeiten_steak_2022_restaurant_23000754",
    "lat": "35.160782",
    "lng": "136.900431",
    "id": "steak-87"
  }, {
    "name": "ビフテキのカワムラ 銀座店",
    "url": "https://tabelog.com/tokyo/A1301/A130101/13061204/",
    "address": "東京都 中央区 銀座 6-5-1 8F",
    "code": "hyakumeiten_steak_2022_restaurant_13061204",
    "lat": "35.671223",
    "lng": "139.766486",
    "id": "steak-88"
  }, {
    "name": "あざみ野うかい亭",
    "url": "https://tabelog.com/kanagawa/A1401/A140201/14003795/",
    "address": "神奈川県 横浜市青葉区 あざみ野南 2-14-3",
    "code": "hyakumeiten_steak_2022_restaurant_14003795",
    "lat": "35.565221",
    "lng": "139.552366",
    "id": "steak-89"
  }, {
    "name": "神楽坂 鉄板焼 中むら",
    "url": "https://tabelog.com/tokyo/A1309/A130905/13134663/",
    "address": "東京都 新宿区 神楽坂 3-6 神楽坂三丁目テラスB1",
    "code": "hyakumeiten_steak_2022_restaurant_13134663",
    "lat": "35.700971",
    "lng": "139.740183",
    "id": "steak-90"
  }, {
    "name": "クローバーステーキハウス",
    "url": "https://tabelog.com/tochigi/A0904/A090403/9000092/",
    "address": "栃木県 那須烏山市 興野 316-1",
    "code": "hyakumeiten_steak_2022_restaurant_9000092",
    "lat": "36.664522",
    "lng": "140.169862",
    "id": "steak-91"
  }, {
    "name": "八王子うかい亭",
    "url": "https://tabelog.com/tokyo/A1329/A132904/13006015/",
    "address": "東京都 八王子市 暁町 2-14-6",
    "code": "hyakumeiten_steak_2022_restaurant_13006015",
    "lat": "35.673303",
    "lng": "139.334206",
    "id": "steak-92"
  }, {
    "name": "宮崎牛鉄板焼 なか窪",
    "url": "https://tabelog.com/miyazaki/A4501/A450101/45010544/",
    "address": "宮崎県 宮崎市 船塚 2-174",
    "code": "hyakumeiten_steak_2022_restaurant_45010544",
    "lat": "31.929414",
    "lng": "131.416418",
    "id": "steak-93"
  }, {
    "name": "和牛ステーキ桜 那須高原店",
    "url": "https://tabelog.com/tochigi/A0905/A090501/9002675/",
    "address": "栃木県 那須郡那須町 大字高久甲4585-4",
    "code": "hyakumeiten_steak_2022_restaurant_9002675",
    "lat": "37.016532",
    "lng": "140.029534",
    "id": "steak-94"
  }, {
    "name": "ブルボン",
    "url": "https://tabelog.com/gifu/A2104/A210401/21000079/",
    "address": "岐阜県 高山市 本町 4-5",
    "code": "hyakumeiten_steak_2022_restaurant_21000079",
    "lat": "36.14514",
    "lng": "137.25705",
    "id": "steak-95"
  }, {
    "name": "神戸牛炉窯焼ステーキ 雪月風花 北野坂",
    "url": "https://tabelog.com/hyogo/A2801/A280101/28037181/",
    "address": "兵庫県 神戸市中央区 中山手通 1-9-24 エムズ北野坂 1F",
    "code": "hyakumeiten_steak_2022_restaurant_28037181",
    "lat": "34.695706",
    "lng": "135.192358",
    "id": "steak-96"
  }, {
    "name": "FRENCH TEPPAN 静香庵",
    "url": "https://tabelog.com/niigata/A1501/A150101/15013868/",
    "address": "新潟県 新潟市中央区 万代 3-1-1 新潟日報メディアシップ",
    "code": "hyakumeiten_steak_2022_restaurant_15013868",
    "lat": "37.918591",
    "lng": "139.056058",
    "id": "steak-97"
  }, {
    "name": "利心",
    "url": "https://tabelog.com/hyogo/A2804/A280402/28015268/",
    "address": "兵庫県 加古川市 尾上町養田 1-71",
    "code": "hyakumeiten_steak_2022_restaurant_28015268",
    "lat": "34.748791",
    "lng": "134.819802",
    "id": "steak-98"
  }, {
    "name": "baron",
    "url": "https://tabelog.com/hyogo/A2801/A280101/28049006/",
    "address": "兵庫県 神戸市中央区 中山手通 1丁目27-10 テンセイハンター坂ビル 5F",
    "code": "hyakumeiten_steak_2022_restaurant_28049006",
    "lat": "34.696953",
    "lng": "135.190513",
    "id": "steak-99"
  }]
}
