{
  "shops": [{
    "name": "スイーツガーデン ユウジアジキ",
    "url": "https://tabelog.com/kanagawa/A1401/A140203/14035784/",
    "address": "神奈川県 横浜市都筑区 北山田 2-1-11 ベニシア １Ｆ",
    "code": "hyakumeiten_sweets_east_2020_restaurant_14035784",
    "lat": "35.5608",
    "lng": "139.591692",
    "id": "sweets-0"
  }, {
    "name": "芳光",
    "url": "https://tabelog.com/aichi/A2301/A230110/23001413/",
    "address": "愛知県 名古屋市東区 新出来 1-9-1",
    "code": "hyakumeiten_sweets_east_2020_restaurant_23001413",
    "lat": "35.182815",
    "lng": "136.930448",
    "id": "sweets-1"
  }, {
    "name": "アカシエ 浦和店",
    "url": "https://tabelog.com/saitama/A1101/A110102/11003500/",
    "address": "埼玉県 さいたま市浦和区 仲町 4-1-12 プリマベーラ １Ｆ",
    "code": "hyakumeiten_sweets_east_2020_restaurant_11003500",
    "lat": "35.859615",
    "lng": "139.646823",
    "id": "sweets-2"
  }, {
    "name": "埜庵",
    "url": "https://tabelog.com/kanagawa/A1404/A140403/14002792/",
    "address": "神奈川県 藤沢市 鵠沼海岸 3-5-11",
    "code": "hyakumeiten_sweets_east_2020_restaurant_14002792",
    "lat": "35.320759",
    "lng": "139.469741",
    "id": "sweets-3"
  }, {
    "name": "リリエンベルグ",
    "url": "https://tabelog.com/kanagawa/A1405/A140508/14000034/",
    "address": "神奈川県 川崎市麻生区 上麻生 4-18-17",
    "code": "hyakumeiten_sweets_east_2020_restaurant_14000034",
    "lat": "35.594846",
    "lng": "139.505665",
    "id": "sweets-4"
  }, {
    "name": "ピュイサンス",
    "url": "https://tabelog.com/kanagawa/A1401/A140202/14003354/",
    "address": "神奈川県 横浜市青葉区 みたけ台 31-29",
    "code": "hyakumeiten_sweets_east_2020_restaurant_14003354",
    "lat": "35.555711",
    "lng": "139.520144",
    "id": "sweets-5"
  }, {
    "name": "覚王山 吉芋 名古屋駅店",
    "url": "https://tabelog.com/aichi/A2301/A230101/23031418/",
    "address": "愛知県 名古屋市中村区 名駅 1-2-1 名鉄百貨店本店 B1F",
    "code": "hyakumeiten_sweets_east_2020_restaurant_23031418",
    "lat": "35.169609",
    "lng": "136.884084",
    "id": "sweets-6"
  }, {
    "name": "三日月氷菓店",
    "url": "https://tabelog.com/chiba/A1203/A120301/12023093/",
    "address": "千葉県 柏市 柏 1-5-5 谷澤ビル2F",
    "code": "hyakumeiten_sweets_east_2020_restaurant_12023093",
    "lat": "35.860569",
    "lng": "139.972748",
    "id": "sweets-7"
  }, {
    "name": "腰掛庵",
    "url": "https://tabelog.com/yamagata/A0605/A060501/6000084/",
    "address": "山形県 天童市 北目 1-6-11",
    "code": "hyakumeiten_sweets_east_2020_restaurant_6000084",
    "lat": "38.350033",
    "lng": "140.37273",
    "id": "sweets-8"
  }, {
    "name": "シャンドワゾー",
    "url": "https://tabelog.com/saitama/A1102/A110201/11025121/",
    "address": "埼玉県 川口市 幸町 1-1-26",
    "code": "hyakumeiten_sweets_east_2020_restaurant_11025121",
    "lat": "35.805024",
    "lng": "139.721477",
    "id": "sweets-9"
  }, {
    "name": "ジェラテリア・イル・ブリガンテ",
    "url": "https://tabelog.com/kanagawa/A1404/A140402/14011873/",
    "address": "神奈川県 鎌倉市 小町 2-9-6 1Ｆ",
    "code": "hyakumeiten_sweets_east_2020_restaurant_14011873",
    "lat": "35.320767",
    "lng": "139.552215",
    "id": "sweets-10"
  }, {
    "name": "パティスリーグラム",
    "url": "https://tabelog.com/aichi/A2301/A230107/23042366/",
    "address": "愛知県 名古屋市千種区 猫洞通 2-5 1F",
    "code": "hyakumeiten_sweets_east_2020_restaurant_23042366",
    "lat": "35.168717",
    "lng": "136.973102",
    "id": "sweets-11"
  }, {
    "name": "ピエールプレシュウズ 本店",
    "url": "https://tabelog.com/aichi/A2303/A230302/23000859/",
    "address": "愛知県 長久手市 杁ケ池 1120",
    "code": "hyakumeiten_sweets_east_2020_restaurant_23000859",
    "lat": "35.170108",
    "lng": "137.035214",
    "id": "sweets-12"
  }, {
    "name": "ル・パティシエ ヨコヤマ 谷津店",
    "url": "https://tabelog.com/chiba/A1202/A120204/12000255/",
    "address": "千葉県 習志野市 谷津 4-8-45",
    "code": "hyakumeiten_sweets_east_2020_restaurant_12000255",
    "lat": "35.686639",
    "lng": "140.00443",
    "id": "sweets-13"
  }, {
    "name": "カズノリ イケダ アンディヴィデュエル 南町通店",
    "url": "https://tabelog.com/miyagi/A0401/A040101/4012124/",
    "address": "宮城県 仙台市青葉区 一番町 2-3-8 ブラザーパーキング 1F",
    "code": "hyakumeiten_sweets_east_2020_restaurant_4012124",
    "lat": "38.258404",
    "lng": "140.873794",
    "id": "sweets-14"
  }, {
    "name": "CALVA",
    "url": "https://tabelog.com/kanagawa/A1404/A140401/14030857/",
    "address": "神奈川県 鎌倉市 大船 1-12-18 エミールビル 1F",
    "code": "hyakumeiten_sweets_east_2020_restaurant_14030857",
    "lat": "35.351055",
    "lng": "139.531413",
    "id": "sweets-15"
  }, {
    "name": "フルーツパーラー 弘法屋 池下店",
    "url": "https://tabelog.com/aichi/A2301/A230106/23020841/",
    "address": "愛知県 名古屋市千種区 覚王山通 8-70-1 名鉄パレサンクレア池下店 １F",
    "code": "hyakumeiten_sweets_east_2020_restaurant_23020841",
    "lat": "35.167198",
    "lng": "136.947085",
    "id": "sweets-16"
  }, {
    "name": "エチエンヌ",
    "url": "https://tabelog.com/kanagawa/A1405/A140508/14042063/",
    "address": "神奈川県 川崎市麻生区 万福寺 6-7-13 マスターアリーナ新百合ヶ丘 1F",
    "code": "hyakumeiten_sweets_east_2020_restaurant_14042063",
    "lat": "35.607806",
    "lng": "139.504925",
    "id": "sweets-17"
  }, {
    "name": "阿左美冷蔵 金崎本店",
    "url": "https://tabelog.com/saitama/A1107/A110704/11000259/",
    "address": "埼玉県 秩父郡皆野町 金崎 27-1",
    "code": "hyakumeiten_sweets_east_2020_restaurant_11000259",
    "lat": "36.084354",
    "lng": "139.112218",
    "id": "sweets-18"
  }, {
    "name": "アボンドンス",
    "url": "https://tabelog.com/shizuoka/A2202/A220201/22003393/",
    "address": "静岡県 浜松市中区 住吉 2丁目14-27",
    "code": "hyakumeiten_sweets_east_2020_restaurant_22003393",
    "lat": "34.730678",
    "lng": "137.727183",
    "id": "sweets-19"
  }, {
    "name": "アングランパ",
    "url": "https://tabelog.com/saitama/A1101/A110101/11035130/",
    "address": "埼玉県 さいたま市大宮区 吉敷町 4-187-1",
    "code": "hyakumeiten_sweets_east_2020_restaurant_11035130",
    "lat": "35.896985",
    "lng": "139.632159",
    "id": "sweets-20"
  }, {
    "name": "オ・プティ・マタン",
    "url": "https://tabelog.com/kanagawa/A1401/A140310/14011336/",
    "address": "神奈川県 横浜市金沢区 大川 7-4 レイディアントシティ横浜 １Ｆ",
    "code": "hyakumeiten_sweets_east_2020_restaurant_14011336",
    "lat": "35.3356",
    "lng": "139.613927",
    "id": "sweets-21"
  }, {
    "name": "フランス焼菓子 シャンドゥリエ",
    "url": "https://tabelog.com/aichi/A2301/A230101/23037600/",
    "address": "愛知県 名古屋市西区 那古野 1丁目34-14",
    "code": "hyakumeiten_sweets_east_2020_restaurant_23037600",
    "lat": "35.175419",
    "lng": "136.891952",
    "id": "sweets-22"
  }, {
    "name": "ナッシュカッツェ",
    "url": "https://tabelog.com/kanagawa/A1401/A140201/14010007/",
    "address": "神奈川県 横浜市青葉区 荏田西 2-15-1",
    "code": "hyakumeiten_sweets_east_2020_restaurant_14010007",
    "lat": "35.554344",
    "lng": "139.554615",
    "id": "sweets-23"
  }, {
    "name": "オークウッド",
    "url": "https://tabelog.com/saitama/A1102/A110204/11000265/",
    "address": "埼玉県 春日部市 八丁目 966-51",
    "code": "hyakumeiten_sweets_east_2020_restaurant_11000265",
    "lat": "35.989918",
    "lng": "139.759597",
    "id": "sweets-24"
  }, {
    "name": "パティスリーシイヤ",
    "url": "https://tabelog.com/hokkaido/A0101/A010105/1000154/",
    "address": "北海道 札幌市中央区 北5条西21-1-15",
    "code": "hyakumeiten_sweets_east_2020_restaurant_1000154",
    "lat": "43.063417",
    "lng": "141.323734",
    "id": "sweets-25"
  }, {
    "name": "ミッシェル・ブラン JR名古屋高島屋",
    "url": "https://tabelog.com/aichi/A2301/A230101/23036323/",
    "address": "愛知県 名古屋市中村区 名駅 1-1-4 ジェイアール名古屋タカシマヤ B1F",
    "code": "hyakumeiten_sweets_east_2020_restaurant_23036323",
    "lat": "35.170967",
    "lng": "136.882739",
    "id": "sweets-26"
  }, {
    "name": "Patisserie 雪乃下  鎌倉本店",
    "url": "https://tabelog.com/kanagawa/A1404/A140402/14007483/",
    "address": "神奈川県 鎌倉市 小町 2-7-27 Maison de 雪乃下",
    "code": "hyakumeiten_sweets_east_2020_restaurant_14007483",
    "lat": "35.321954",
    "lng": "139.552286",
    "id": "sweets-27"
  }, {
    "name": "ツバメヤ 柳ヶ瀬本店",
    "url": "https://tabelog.com/gifu/A2101/A210101/21009683/",
    "address": "岐阜県 岐阜市 日ノ出町 1-20 ロイヤルビル 1F",
    "code": "hyakumeiten_sweets_east_2020_restaurant_21009683",
    "lat": "35.418455",
    "lng": "136.759271",
    "id": "sweets-28"
  }, {
    "name": "アルカイク",
    "url": "https://tabelog.com/saitama/A1102/A110201/11000266/",
    "address": "埼玉県 川口市 戸塚 4-7-1",
    "code": "hyakumeiten_sweets_east_2020_restaurant_11000266",
    "lat": "35.866054",
    "lng": "139.744267",
    "id": "sweets-29"
  }, {
    "name": "アン・プチ・パケ",
    "url": "https://tabelog.com/kanagawa/A1401/A140201/14000173/",
    "address": "神奈川県 横浜市青葉区 みすずが丘 19-1",
    "code": "hyakumeiten_sweets_east_2020_restaurant_14000173",
    "lat": "35.560956",
    "lng": "139.541019",
    "id": "sweets-30"
  }, {
    "name": "フォルテシモ アッシュ",
    "url": "https://tabelog.com/aichi/A2301/A230106/23004369/",
    "address": "愛知県 名古屋市千種区 高見 2-1-16 名古屋セントラルガーデン",
    "code": "hyakumeiten_sweets_east_2020_restaurant_23004369",
    "lat": "35.17118",
    "lng": "136.943922",
    "id": "sweets-31"
  }, {
    "name": "ちもと 駅前通り店",
    "url": "https://tabelog.com/kanagawa/A1410/A141001/14011112/",
    "address": "神奈川県 足柄下郡箱根町 湯本 690",
    "code": "hyakumeiten_sweets_east_2020_restaurant_14011112",
    "lat": "35.231545",
    "lng": "139.100719",
    "id": "sweets-32"
  }, {
    "name": "ツバメヤ 大名古屋ビルヂング店",
    "url": "https://tabelog.com/aichi/A2301/A230101/23059315/",
    "address": "愛知県 名古屋市中村区 名駅 3-28-12 大名古屋ビルヂング B1F",
    "code": "hyakumeiten_sweets_east_2020_restaurant_23059315",
    "lat": "35.171995",
    "lng": "136.884528",
    "id": "sweets-33"
  }, {
    "name": "栗きんとん本家 すや 本店",
    "url": "https://tabelog.com/gifu/A2103/A210303/21000030/",
    "address": "岐阜県 中津川市 新町 2-40",
    "code": "hyakumeiten_sweets_east_2020_restaurant_21000030",
    "lat": "35.497942",
    "lng": "137.506103",
    "id": "sweets-34"
  }, {
    "name": "ピエールプレシュウズ 覚王山店",
    "url": "https://tabelog.com/aichi/A2301/A230107/23052549/",
    "address": "愛知県 名古屋市千種区 丸山町 3-83 メナージュマルヤマ",
    "code": "hyakumeiten_sweets_east_2020_restaurant_23052549",
    "lat": "35.161003",
    "lng": "136.947766",
    "id": "sweets-35"
  }, {
    "name": "パブロフ 元町本店",
    "url": "https://tabelog.com/kanagawa/A1401/A140105/14046956/",
    "address": "神奈川県 横浜市中区 山下町 105 1F",
    "code": "hyakumeiten_sweets_east_2020_restaurant_14046956",
    "lat": "35.441892",
    "lng": "139.648908",
    "id": "sweets-36"
  }, {
    "name": "シンフラ",
    "url": "https://tabelog.com/saitama/A1103/A110302/11035335/",
    "address": "埼玉県 志木市 幸町 3-4-50",
    "code": "hyakumeiten_sweets_east_2020_restaurant_11035335",
    "lat": "35.822377",
    "lng": "139.564812",
    "id": "sweets-37"
  }, {
    "name": "村上屋餅店",
    "url": "https://tabelog.com/miyagi/A0401/A040101/4000119/",
    "address": "宮城県 仙台市青葉区 北目町 2-38",
    "code": "hyakumeiten_sweets_east_2020_restaurant_4000119",
    "lat": "38.254928",
    "lng": "140.876398",
    "id": "sweets-38"
  }, {
    "name": "覚王山 吉芋 本店",
    "url": "https://tabelog.com/aichi/A2301/A230107/23003953/",
    "address": "愛知県 名古屋市千種区 日進通 5-2-4",
    "code": "hyakumeiten_sweets_east_2020_restaurant_23003953",
    "lat": "35.161214",
    "lng": "136.950304",
    "id": "sweets-39"
  }, {
    "name": "ル・パティシエ ヨコヤマ 京成大久保店",
    "url": "https://tabelog.com/chiba/A1202/A120204/12000513/",
    "address": "千葉県 習志野市 大久保 1-1-34",
    "code": "hyakumeiten_sweets_east_2020_restaurant_12000513",
    "lat": "35.686706",
    "lng": "140.043835",
    "id": "sweets-40"
  }, {
    "name": "栗の木テラス 小布施店",
    "url": "https://tabelog.com/nagano/A2001/A200106/20000669/",
    "address": "長野県 上高井郡小布施町 大字小布施中町784",
    "code": "hyakumeiten_sweets_east_2020_restaurant_20000669",
    "lat": "36.696322",
    "lng": "138.316394",
    "id": "sweets-41"
  }, {
    "name": "ベルグの４月 本店",
    "url": "https://tabelog.com/kanagawa/A1401/A140201/14000432/",
    "address": "神奈川県 横浜市青葉区 美しが丘 2-19-5",
    "code": "hyakumeiten_sweets_east_2020_restaurant_14000432",
    "lat": "35.581249",
    "lng": "139.559047",
    "id": "sweets-42"
  }, {
    "name": "歐林洞 鎌倉本店",
    "url": "https://tabelog.com/kanagawa/A1404/A140402/14001686/",
    "address": "神奈川県 鎌倉市 雪ノ下 2-12-18",
    "code": "hyakumeiten_sweets_east_2020_restaurant_14001686",
    "lat": "35.328276",
    "lng": "139.555808",
    "id": "sweets-43"
  }, {
    "name": "プレリュード 福光店",
    "url": "https://tabelog.com/gifu/A2101/A210101/21008360/",
    "address": "岐阜県 岐阜市 福光南町 16-19",
    "code": "hyakumeiten_sweets_east_2020_restaurant_21008360",
    "lat": "35.448549",
    "lng": "136.769181",
    "id": "sweets-44"
  }, {
    "name": "パティスリー オランジュ",
    "url": "https://tabelog.com/saitama/A1103/A110301/11024456/",
    "address": "埼玉県 朝霞市 西弁財 2-2-24 かつみビル1階",
    "code": "hyakumeiten_sweets_east_2020_restaurant_11024456",
    "lat": "35.812392",
    "lng": "139.582148",
    "id": "sweets-45"
  }, {
    "name": "茶房 雲母",
    "url": "https://tabelog.com/kanagawa/A1404/A140402/14000248/",
    "address": "神奈川県 鎌倉市 御成町 16-7",
    "code": "hyakumeiten_sweets_east_2020_restaurant_14000248",
    "lat": "35.321726",
    "lng": "139.546716",
    "id": "sweets-46"
  }, {
    "name": "とらや工房",
    "url": "https://tabelog.com/shizuoka/A2204/A220402/22004106/",
    "address": "静岡県 御殿場市 東山 1022-1",
    "code": "hyakumeiten_sweets_east_2020_restaurant_22004106",
    "lat": "35.295319",
    "lng": "138.960164",
    "id": "sweets-47"
  }, {
    "name": "fika.",
    "url": "https://tabelog.com/aichi/A2301/A230107/23009514/",
    "address": "愛知県 名古屋市千種区 菊坂町 2-2 シャトレータカギ 1F",
    "code": "hyakumeiten_sweets_east_2020_restaurant_23009514",
    "lat": "35.165841",
    "lng": "136.950277",
    "id": "sweets-48"
  }, {
    "name": "Paris パイ",
    "url": "https://tabelog.com/niigata/A1502/A150201/15002650/",
    "address": "新潟県 長岡市 大手通 1-5-7",
    "code": "hyakumeiten_sweets_east_2020_restaurant_15002650",
    "lat": "37.4474",
    "lng": "138.851604",
    "id": "sweets-49"
  }, {
    "name": "栗きんとん本家 すや JR名古屋高島屋・直営店",
    "url": "https://tabelog.com/aichi/A2301/A230101/23009929/",
    "address": "愛知県 名古屋市中村区 名駅 1-1-4 ジェイアール名古屋タカシマヤ B1F",
    "code": "hyakumeiten_sweets_east_2020_restaurant_23009929",
    "lat": "35.170967",
    "lng": "136.882739",
    "id": "sweets-50"
  }, {
    "name": "グランディール アンサンブル",
    "url": "https://tabelog.com/kanagawa/A1404/A140402/14061044/",
    "address": "神奈川県 鎌倉市 由比ガ浜 1-1-30",
    "code": "hyakumeiten_sweets_east_2020_restaurant_14061044",
    "lat": "35.316057",
    "lng": "139.548526",
    "id": "sweets-51"
  }, {
    "name": "シェ・シバタ 名古屋",
    "url": "https://tabelog.com/aichi/A2301/A230107/23001565/",
    "address": "愛知県 名古屋市千種区 山門町 2-54",
    "code": "hyakumeiten_sweets_east_2020_restaurant_23001565",
    "lat": "35.167441",
    "lng": "136.952867",
    "id": "sweets-52"
  }, {
    "name": "喜久家洋菓子舗",
    "url": "https://tabelog.com/kanagawa/A1401/A140105/14002810/",
    "address": "神奈川県 横浜市中区 元町 2-86",
    "code": "hyakumeiten_sweets_east_2020_restaurant_14002810",
    "lat": "35.440741",
    "lng": "139.648746",
    "id": "sweets-53"
  }, {
    "name": "ピネキ",
    "url": "https://tabelog.com/chiba/A1207/A120704/12005224/",
    "address": "千葉県 館山市 下真倉 236-3",
    "code": "hyakumeiten_sweets_east_2020_restaurant_12005224",
    "lat": "34.979042",
    "lng": "139.869086",
    "id": "sweets-54"
  }, {
    "name": "マーロウ そごう横浜店",
    "url": "https://tabelog.com/kanagawa/A1401/A140101/14000083/",
    "address": "神奈川県 横浜市西区 高島 2-18-1 そごう横浜店 B2F",
    "code": "hyakumeiten_sweets_east_2020_restaurant_14000083",
    "lat": "35.465449",
    "lng": "139.625052",
    "id": "sweets-55"
  }, {
    "name": "茶屋赤鰐",
    "url": "https://tabelog.com/gifu/A2101/A210101/21000111/",
    "address": "岐阜県 岐阜市 八幡町 13",
    "code": "hyakumeiten_sweets_east_2020_restaurant_21000111",
    "lat": "35.41567",
    "lng": "136.75909",
    "id": "sweets-56"
  }, {
    "name": "アトリエうかい たまプラーザ",
    "url": "https://tabelog.com/kanagawa/A1401/A140201/14054070/",
    "address": "神奈川県 横浜市青葉区 新石川 2-4-10 モリテックスたまプラーザビル 1F",
    "code": "hyakumeiten_sweets_east_2020_restaurant_14054070",
    "lat": "35.575461",
    "lng": "139.557111",
    "id": "sweets-57"
  }, {
    "name": "梵くら",
    "url": "https://tabelog.com/miyagi/A0401/A040101/4013005/",
    "address": "宮城県 仙台市青葉区 立町 23-14 スクエアビル 3F",
    "code": "hyakumeiten_sweets_east_2020_restaurant_4013005",
    "lat": "38.264481",
    "lng": "140.863906",
    "id": "sweets-58"
  }, {
    "name": "パティスリー アヴァロン",
    "url": "https://tabelog.com/aichi/A2301/A230108/23046476/",
    "address": "愛知県 名古屋市天白区 八事石坂 207 大島ビル 1F",
    "code": "hyakumeiten_sweets_east_2020_restaurant_23046476",
    "lat": "35.135943",
    "lng": "136.965335",
    "id": "sweets-59"
  }, {
    "name": "一夜城 ヨロイヅカ・ファーム",
    "url": "https://tabelog.com/kanagawa/A1409/A140901/14043156/",
    "address": "神奈川県 小田原市 早川 1352-110",
    "code": "hyakumeiten_sweets_east_2020_restaurant_14043156",
    "lat": "35.233962",
    "lng": "139.128871",
    "id": "sweets-60"
  }, {
    "name": "フラノデリス",
    "url": "https://tabelog.com/hokkaido/A0104/A010403/1000940/",
    "address": "北海道 富良野市 字下御料2156",
    "code": "hyakumeiten_sweets_east_2020_restaurant_1000940",
    "lat": "43.33805",
    "lng": "142.361918",
    "id": "sweets-61"
  }, {
    "name": "松月氷室",
    "url": "https://tabelog.com/tochigi/A0903/A090302/9003227/",
    "address": "栃木県 日光市 今市 379",
    "code": "hyakumeiten_sweets_east_2020_restaurant_9003227",
    "lat": "36.723288",
    "lng": "139.685365",
    "id": "sweets-62"
  }, {
    "name": "小倉屋",
    "url": "https://tabelog.com/ibaraki/A0801/A080101/8000238/",
    "address": "茨城県 水戸市 笠原町 101-5",
    "code": "hyakumeiten_sweets_east_2020_restaurant_8000238",
    "lat": "36.343095",
    "lng": "140.456883",
    "id": "sweets-63"
  }, {
    "name": "シュトラウス",
    "url": "https://tabelog.com/aomori/A0201/A020101/2000092/",
    "address": "青森県 青森市 新町 1-13-21",
    "code": "hyakumeiten_sweets_east_2020_restaurant_2000092",
    "lat": "40.826624",
    "lng": "140.73874",
    "id": "sweets-64"
  }, {
    "name": "すや 西木",
    "url": "https://tabelog.com/gifu/A2103/A210303/21000352/",
    "address": "岐阜県 中津川市 中津川 1296-1",
    "code": "hyakumeiten_sweets_east_2020_restaurant_21000352",
    "lat": "35.498159",
    "lng": "137.513404",
    "id": "sweets-65"
  }, {
    "name": "ティーハウスマユール 宮崎台店",
    "url": "https://tabelog.com/kanagawa/A1405/A140507/14009451/",
    "address": "神奈川県 川崎市宮前区 宮崎 2-3-12-103",
    "code": "hyakumeiten_sweets_east_2020_restaurant_14009451",
    "lat": "35.588445",
    "lng": "139.592892",
    "id": "sweets-66"
  }, {
    "name": "SE1",
    "url": "https://tabelog.com/kanagawa/A1404/A140403/14029135/",
    "address": "神奈川県 藤沢市 片瀬海岸 1-6-6",
    "code": "hyakumeiten_sweets_east_2020_restaurant_14029135",
    "lat": "35.310526",
    "lng": "139.489065",
    "id": "sweets-67"
  }, {
    "name": "バニラビーンズ みなとみらい本店",
    "url": "https://tabelog.com/kanagawa/A1401/A140103/14053382/",
    "address": "神奈川県 横浜市中区 海岸通 5-25-2 シャレール海岸通 1F",
    "code": "hyakumeiten_sweets_east_2020_restaurant_14053382",
    "lat": "35.451411",
    "lng": "139.637657",
    "id": "sweets-68"
  }, {
    "name": "納言志るこ店",
    "url": "https://tabelog.com/kanagawa/A1404/A140402/14001525/",
    "address": "神奈川県 鎌倉市 小町 1-5-10",
    "code": "hyakumeiten_sweets_east_2020_restaurant_14001525",
    "lat": "35.31971",
    "lng": "139.551545",
    "id": "sweets-69"
  }, {
    "name": "甘酒茶屋",
    "url": "https://tabelog.com/kanagawa/A1410/A141001/14001260/",
    "address": "神奈川県 足柄下郡箱根町 畑宿 二子山395-1",
    "code": "hyakumeiten_sweets_east_2020_restaurant_14001260",
    "lat": "35.202205",
    "lng": "139.048783",
    "id": "sweets-70"
  }, {
    "name": "ムラタ",
    "url": "https://tabelog.com/miyagi/A0404/A040404/4002939/",
    "address": "宮城県 多賀城市 町前 3-2-25",
    "code": "hyakumeiten_sweets_east_2020_restaurant_4002939",
    "lat": "38.288386",
    "lng": "141.009926",
    "id": "sweets-71"
  }, {
    "name": "菓匠 花桔梗 本店",
    "url": "https://tabelog.com/aichi/A2301/A230112/23001344/",
    "address": "愛知県 名古屋市瑞穂区 汐路町 1-20",
    "code": "hyakumeiten_sweets_east_2020_restaurant_23001344",
    "lat": "35.135527",
    "lng": "136.938319",
    "id": "sweets-72"
  }, {
    "name": "ハーベスト ナガイファーム 軽井沢店",
    "url": "https://tabelog.com/nagano/A2003/A200301/20009286/",
    "address": "長野県 北佐久郡軽井沢町 長倉 2145-5 ハルニレテラス",
    "code": "hyakumeiten_sweets_east_2020_restaurant_20009286",
    "lat": "36.359335",
    "lng": "138.590267",
    "id": "sweets-73"
  }, {
    "name": "ケーキショップ コフレ",
    "url": "https://tabelog.com/kanagawa/A1401/A140103/14000632/",
    "address": "神奈川県 横浜市西区 みなとみらい 2-2-1-3 横浜ロイヤルパークホテル 1F",
    "code": "hyakumeiten_sweets_east_2020_restaurant_14000632",
    "lat": "35.454339",
    "lng": "139.631379",
    "id": "sweets-74"
  }, {
    "name": "ハッピーベリー",
    "url": "https://tabelog.com/fukushima/A0703/A070301/7006158/",
    "address": "福島県 西白河郡矢吹町 弥栄 63-2",
    "code": "hyakumeiten_sweets_east_2020_restaurant_7006158",
    "lat": "37.186984",
    "lng": "140.33369",
    "id": "sweets-75"
  }, {
    "name": "Patisserie Rond-to",
    "url": "https://tabelog.com/nagano/A2001/A200106/20006070/",
    "address": "長野県 上高井郡小布施町 小布施 534",
    "code": "hyakumeiten_sweets_east_2020_restaurant_20006070",
    "lat": "36.696778",
    "lng": "138.318206",
    "id": "sweets-76"
  }, {
    "name": "山田家",
    "url": "https://tabelog.com/yamagata/A0601/A060101/6000124/",
    "address": "山形県 山形市 本町 1-7-30",
    "code": "hyakumeiten_sweets_east_2020_restaurant_6000124",
    "lat": "38.251435",
    "lng": "140.337968",
    "id": "sweets-77"
  }, {
    "name": "ロア レギューム 朝霞本店",
    "url": "https://tabelog.com/saitama/A1103/A110302/11000029/",
    "address": "埼玉県 朝霞市 三原 3-32-10",
    "code": "hyakumeiten_sweets_east_2020_restaurant_11000029",
    "lat": "35.819133",
    "lng": "139.577558",
    "id": "sweets-78"
  }, {
    "name": "レナーズ 横浜ワールドポーターズ店",
    "url": "https://tabelog.com/kanagawa/A1401/A140103/14014796/",
    "address": "神奈川県 横浜市中区 新港 2-2-1 横浜ワールドポーターズ 1F",
    "code": "hyakumeiten_sweets_east_2020_restaurant_14014796",
    "lat": "35.454006",
    "lng": "139.638933",
    "id": "sweets-79"
  }, {
    "name": "赤福茶屋 ジェイアール名古屋タカシマヤ店",
    "url": "https://tabelog.com/aichi/A2301/A230101/23000989/",
    "address": "愛知県 名古屋市中村区 名駅 1-1-4 ジェイアール名古屋タカシマヤ B1F",
    "code": "hyakumeiten_sweets_east_2020_restaurant_23000989",
    "lat": "35.170967",
    "lng": "136.882739",
    "id": "sweets-80"
  }, {
    "name": "アンジェリック ヴォヤージュ",
    "url": "https://tabelog.com/hokkaido/A0105/A010501/1026155/",
    "address": "北海道 函館市 弥生町 3-11",
    "code": "hyakumeiten_sweets_east_2020_restaurant_1026155",
    "lat": "41.767923",
    "lng": "140.709121",
    "id": "sweets-81"
  }, {
    "name": "川上屋 本店",
    "url": "https://tabelog.com/gifu/A2103/A210303/21000034/",
    "address": "岐阜県 中津川市 本町 3-1-8",
    "code": "hyakumeiten_sweets_east_2020_restaurant_21000034",
    "lat": "35.494552",
    "lng": "137.500755",
    "id": "sweets-82"
  }, {
    "name": "ハウス オブ フレーバーズ",
    "url": "https://tabelog.com/kanagawa/A1404/A140402/14001208/",
    "address": "神奈川県 鎌倉市 鎌倉山 3-2-10",
    "code": "hyakumeiten_sweets_east_2020_restaurant_14001208",
    "lat": "35.317756",
    "lng": "139.51426",
    "id": "sweets-83"
  }, {
    "name": "みのわ",
    "url": "https://tabelog.com/kanagawa/A1404/A140402/14002574/",
    "address": "神奈川県 鎌倉市 佐助 2-6-1",
    "code": "hyakumeiten_sweets_east_2020_restaurant_14002574",
    "lat": "35.321955",
    "lng": "139.542817",
    "id": "sweets-84"
  }, {
    "name": "平五郎 本店",
    "url": "https://tabelog.com/nagano/A2001/A200101/20015759/",
    "address": "長野県 長野市 大門町 515",
    "code": "hyakumeiten_sweets_east_2020_restaurant_20015759",
    "lat": "36.656082",
    "lng": "138.18744",
    "id": "sweets-85"
  }, {
    "name": "パティスリー アン",
    "url": "https://tabelog.com/aichi/A2302/A230201/23041407/",
    "address": "愛知県 稲沢市 駅前 1-12-11 1F",
    "code": "hyakumeiten_sweets_east_2020_restaurant_23041407",
    "lat": "35.253643",
    "lng": "136.819818",
    "id": "sweets-86"
  }, {
    "name": "パティスリー ロタンティック",
    "url": "https://tabelog.com/saitama/A1101/A110102/11035023/",
    "address": "埼玉県 さいたま市南区 文蔵 2-29-19 ksマンション文蔵 1Ｆ",
    "code": "hyakumeiten_sweets_east_2020_restaurant_11035023",
    "lat": "35.842778",
    "lng": "139.666429",
    "id": "sweets-87"
  }, {
    "name": "桔梗屋 本社",
    "url": "https://tabelog.com/yamanashi/A1901/A190103/19000866/",
    "address": "山梨県 笛吹市 一宮町坪井 1928",
    "code": "hyakumeiten_sweets_east_2020_restaurant_19000866",
    "lat": "35.647895",
    "lng": "138.663387",
    "id": "sweets-88"
  }, {
    "name": "ピエール マルコリーニ 名古屋",
    "url": "https://tabelog.com/aichi/A2301/A230101/23004138/",
    "address": "愛知県 名古屋市中村区 名駅 4-7-1 ミッドランドスクエア B1F",
    "code": "hyakumeiten_sweets_east_2020_restaurant_23004138",
    "lat": "35.170009",
    "lng": "136.885186",
    "id": "sweets-89"
  }, {
    "name": "ミルク村 SAPPORO本店",
    "url": "https://tabelog.com/hokkaido/A0101/A010103/1000194/",
    "address": "北海道 札幌市中央区 南四条西 3-7-1 ニュー北星ビル ６Ｆ",
    "code": "hyakumeiten_sweets_east_2020_restaurant_1000194",
    "lat": "43.056079",
    "lng": "141.354039",
    "id": "sweets-90"
  }, {
    "name": "たい焼き なみへい",
    "url": "https://tabelog.com/kanagawa/A1404/A140402/14032944/",
    "address": "神奈川県 鎌倉市 長谷 1-8-10",
    "code": "hyakumeiten_sweets_east_2020_restaurant_14032944",
    "lat": "35.313421",
    "lng": "139.538759",
    "id": "sweets-91"
  }, {
    "name": "ミセスエリザベスマフィン ランドマークプラザ店",
    "url": "https://tabelog.com/kanagawa/A1401/A140103/14002570/",
    "address": "神奈川県 横浜市西区 みなとみらい 2-2-1 ランドマークプラザ 1F",
    "code": "hyakumeiten_sweets_east_2020_restaurant_14002570",
    "lat": "35.45513",
    "lng": "139.631333",
    "id": "sweets-92"
  }, {
    "name": "カプセルモンスター",
    "url": "https://tabelog.com/hokkaido/A0101/A010102/1041432/",
    "address": "北海道 札幌市中央区 南1条西15 シャトールレェーヴ 5F",
    "code": "hyakumeiten_sweets_east_2020_restaurant_1041432",
    "lat": "43.056976",
    "lng": "141.334362",
    "id": "sweets-93"
  }, {
    "name": "パティスリーアプラノス",
    "url": "https://tabelog.com/saitama/A1101/A110102/11027913/",
    "address": "埼玉県 さいたま市南区 沼影 1-1-20",
    "code": "hyakumeiten_sweets_east_2020_restaurant_11027913",
    "lat": "35.842272",
    "lng": "139.639814",
    "id": "sweets-94"
  }, {
    "name": "Bébé",
    "url": "https://tabelog.com/aichi/A2303/A230302/23044273/",
    "address": "愛知県 愛知郡東郷町 清水 1-10-1 グローリア壱番館 1F",
    "code": "hyakumeiten_sweets_east_2020_restaurant_23044273",
    "lat": "35.09215",
    "lng": "137.027812",
    "id": "sweets-95"
  }, {
    "name": "七福",
    "url": "https://tabelog.com/gifu/A2103/A210303/21000992/",
    "address": "岐阜県 中津川市 中津川 3022-18",
    "code": "hyakumeiten_sweets_east_2020_restaurant_21000992",
    "lat": "35.487897",
    "lng": "137.50179",
    "id": "sweets-96"
  }, {
    "name": "川口屋",
    "url": "https://tabelog.com/aichi/A2301/A230103/23027478/",
    "address": "愛知県 名古屋市中区 錦 3-13-12",
    "code": "hyakumeiten_sweets_east_2020_restaurant_23027478",
    "lat": "35.171284",
    "lng": "136.90534",
    "id": "sweets-97"
  }, {
    "name": "パティスリー イケダ",
    "url": "https://tabelog.com/kanagawa/A1401/A140203/14038154/",
    "address": "神奈川県 横浜市都筑区 茅ケ崎中央 46-14",
    "code": "hyakumeiten_sweets_east_2020_restaurant_14038154",
    "lat": "35.546265",
    "lng": "139.573769",
    "id": "sweets-98"
  }, {
    "name": "細井",
    "url": "https://tabelog.com/saitama/A1102/A110204/11022003/",
    "address": "埼玉県 春日部市 上金崎 18",
    "code": "hyakumeiten_sweets_east_2020_restaurant_11022003",
    "lat": "36.000446",
    "lng": "139.795825",
    "id": "sweets-99"
  }, {
    "name": "アテスウェイ",
    "url": "https://tabelog.com/tokyo/A1320/A132001/13005853/",
    "address": "東京都 武蔵野市 吉祥寺東町 3-8-8 カサ吉祥寺２",
    "code": "hyakumeiten_sweets_tokyo_2020_restaurant_13005853",
    "lat": "35.709034",
    "lng": "139.590725",
    "id": "sweets-100"
  }, {
    "name": "イデミスギノ",
    "url": "https://tabelog.com/tokyo/A1302/A130202/13002285/",
    "address": "東京都 中央区 京橋 3-6-17 京橋大栄ビル １Ｆ",
    "code": "hyakumeiten_sweets_tokyo_2020_restaurant_13002285",
    "lat": "35.675184",
    "lng": "139.769921",
    "id": "sweets-101"
  }, {
    "name": "ケンズカフェ東京",
    "url": "https://tabelog.com/tokyo/A1304/A130402/13024643/",
    "address": "東京都 新宿区 新宿 1-23-3 御苑コーポビアネーズ 1F",
    "code": "hyakumeiten_sweets_tokyo_2020_restaurant_13024643",
    "lat": "35.688815",
    "lng": "139.713936",
    "id": "sweets-102"
  }, {
    "name": "パティスリー・パリセヴェイユ",
    "url": "https://tabelog.com/tokyo/A1317/A131703/13005198/",
    "address": "東京都 目黒区 自由が丘 2-14-5 館山ビル 1F",
    "code": "hyakumeiten_sweets_tokyo_2020_restaurant_13005198",
    "lat": "35.607009",
    "lng": "139.666515",
    "id": "sweets-103"
  }, {
    "name": "パティスリー リョーコ",
    "url": "https://tabelog.com/tokyo/A1316/A131603/13137010/",
    "address": "東京都 港区 高輪 3-2-8",
    "code": "hyakumeiten_sweets_tokyo_2020_restaurant_13137010",
    "lat": "35.63499",
    "lng": "139.732781",
    "id": "sweets-104"
  }, {
    "name": "ジェラテリア アクオリーナ",
    "url": "https://tabelog.com/tokyo/A1317/A131701/13141364/",
    "address": "東京都 目黒区 五本木 1-11-10",
    "code": "hyakumeiten_sweets_tokyo_2020_restaurant_13141364",
    "lat": "35.638044",
    "lng": "139.690901",
    "id": "sweets-105"
  }, {
    "name": "PATISSERIE ASAKO IWAYANAGI",
    "url": "https://tabelog.com/tokyo/A1317/A131715/13189509/",
    "address": "東京都 世田谷区 等々力 4-4-5",
    "code": "hyakumeiten_sweets_tokyo_2020_restaurant_13189509",
    "lat": "35.608052",
    "lng": "139.650148",
    "id": "sweets-106"
  }, {
    "name": "アヴランシュ・ゲネー",
    "url": "https://tabelog.com/tokyo/A1310/A131004/13186450/",
    "address": "東京都 文京区 本郷 4-17-6 1F",
    "code": "hyakumeiten_sweets_tokyo_2020_restaurant_13186450",
    "lat": "35.709432",
    "lng": "139.753588",
    "id": "sweets-107"
  }, {
    "name": "エーグルドゥース",
    "url": "https://tabelog.com/tokyo/A1305/A130502/13005641/",
    "address": "東京都 新宿区 下落合 3-22-13",
    "code": "hyakumeiten_sweets_tokyo_2020_restaurant_13005641",
    "lat": "35.722472",
    "lng": "139.700651",
    "id": "sweets-108"
  }, {
    "name": "オーボンヴュータン 尾山台店",
    "url": "https://tabelog.com/tokyo/A1317/A131715/13181654/",
    "address": "東京都 世田谷区 等々力 2-1-3",
    "code": "hyakumeiten_sweets_tokyo_2020_restaurant_13181654",
    "lat": "35.604192",
    "lng": "139.651867",
    "id": "sweets-109"
  }, {
    "name": "レ・カカオ",
    "url": "https://tabelog.com/tokyo/A1316/A131603/13203619/",
    "address": "東京都 品川区 東五反田 2-19-2 第2東都ビル 1F",
    "code": "hyakumeiten_sweets_tokyo_2020_restaurant_13203619",
    "lat": "35.625176",
    "lng": "139.729211",
    "id": "sweets-110"
  }, {
    "name": "パティスリー プレジール",
    "url": "https://tabelog.com/tokyo/A1317/A131706/13045491/",
    "address": "東京都 世田谷区 代沢 4-7-3",
    "code": "hyakumeiten_sweets_tokyo_2020_restaurant_13045491",
    "lat": "35.650745",
    "lng": "139.666004",
    "id": "sweets-111"
  }, {
    "name": "うさぎや",
    "url": "https://tabelog.com/tokyo/A1311/A131101/13003599/",
    "address": "東京都 台東区 上野 1-10-10",
    "code": "hyakumeiten_sweets_tokyo_2020_restaurant_13003599",
    "lat": "35.70622",
    "lng": "139.771849",
    "id": "sweets-112"
  }, {
    "name": "フレデリック カッセル 銀座三越",
    "url": "https://tabelog.com/tokyo/A1301/A130101/13116839/",
    "address": "東京都 中央区 銀座 4-6-16 銀座三越 B2F",
    "code": "hyakumeiten_sweets_tokyo_2020_restaurant_13116839",
    "lat": "35.671286",
    "lng": "139.765738",
    "id": "sweets-113"
  }, {
    "name": "リョウラ",
    "url": "https://tabelog.com/tokyo/A1317/A131707/13188208/",
    "address": "東京都 世田谷区 用賀 4-29-5 グリーンヒルズ用賀ST 1F",
    "code": "hyakumeiten_sweets_tokyo_2020_restaurant_13188208",
    "lat": "35.62894",
    "lng": "139.633041",
    "id": "sweets-114"
  }, {
    "name": "アルノー・ラエール 広尾本店",
    "url": "https://tabelog.com/tokyo/A1307/A130703/13217253/",
    "address": "東京都 渋谷区 広尾 5-19-9",
    "code": "hyakumeiten_sweets_tokyo_2020_restaurant_13217253",
    "lat": "35.648742",
    "lng": "139.720261",
    "id": "sweets-115"
  }, {
    "name": "Toshi Yoroizuka Mid Town",
    "url": "https://tabelog.com/tokyo/A1307/A130701/13037382/",
    "address": "東京都 港区 赤坂 9-7-2 東京ミッドタウン･イースト 1F",
    "code": "hyakumeiten_sweets_tokyo_2020_restaurant_13037382",
    "lat": "35.66598",
    "lng": "139.730875",
    "id": "sweets-116"
  }, {
    "name": "クリオロ 東京本店",
    "url": "https://tabelog.com/tokyo/A1322/A132202/13194959/",
    "address": "東京都 板橋区 向原 3-9-2 サントスビル 1F",
    "code": "hyakumeiten_sweets_tokyo_2020_restaurant_13194959",
    "lat": "35.744507",
    "lng": "139.682285",
    "id": "sweets-117"
  }, {
    "name": "チリムーロ",
    "url": "https://tabelog.com/tokyo/A1303/A130301/13164533/",
    "address": "東京都 渋谷区 猿楽町 1-3",
    "code": "hyakumeiten_sweets_tokyo_2020_restaurant_13164533",
    "lat": "35.653553",
    "lng": "139.705259",
    "id": "sweets-118"
  }, {
    "name": "ツッカベッカライ カヤヌマ",
    "url": "https://tabelog.com/tokyo/A1308/A130802/13002756/",
    "address": "東京都 港区 赤坂 1-4-5 栢沼ビル 1F",
    "code": "hyakumeiten_sweets_tokyo_2020_restaurant_13002756",
    "lat": "35.670301",
    "lng": "139.74392",
    "id": "sweets-119"
  }, {
    "name": "モンサンクレール",
    "url": "https://tabelog.com/tokyo/A1317/A131703/13003221/",
    "address": "東京都 目黒区 自由が丘 2-22-4",
    "code": "hyakumeiten_sweets_tokyo_2020_restaurant_13003221",
    "lat": "35.612705",
    "lng": "139.666467",
    "id": "sweets-120"
  }, {
    "name": "アステリスク",
    "url": "https://tabelog.com/tokyo/A1318/A131811/13140735/",
    "address": "東京都 渋谷区 上原 1-26-16 タマテクノビル 1F",
    "code": "hyakumeiten_sweets_tokyo_2020_restaurant_13140735",
    "lat": "35.668286",
    "lng": "139.681439",
    "id": "sweets-121"
  }, {
    "name": "リベルターブル 赤坂店",
    "url": "https://tabelog.com/tokyo/A1308/A130801/13160987/",
    "address": "東京都 港区 赤坂 2-6-24 1F",
    "code": "hyakumeiten_sweets_tokyo_2020_restaurant_13160987",
    "lat": "35.673109",
    "lng": "139.738559",
    "id": "sweets-122"
  }, {
    "name": "クリオロ 中目黒店",
    "url": "https://tabelog.com/tokyo/A1317/A131701/13077927/",
    "address": "東京都 目黒区 上目黒 1-23-1 中目黒アリーナ103",
    "code": "hyakumeiten_sweets_tokyo_2020_restaurant_13077927",
    "lat": "35.644365",
    "lng": "139.699633",
    "id": "sweets-123"
  }, {
    "name": "ラ・プレシューズ 紀尾井町店",
    "url": "https://tabelog.com/tokyo/A1308/A130801/13198490/",
    "address": "東京都 千代田区 紀尾井町 1-2 東京ガーデンテラス紀尾井町 4F",
    "code": "hyakumeiten_sweets_tokyo_2020_restaurant_13198490",
    "lat": "35.679993",
    "lng": "139.737936",
    "id": "sweets-124"
  }, {
    "name": "群林堂",
    "url": "https://tabelog.com/tokyo/A1323/A132302/13003816/",
    "address": "東京都 文京区 音羽 2-1-2",
    "code": "hyakumeiten_sweets_tokyo_2020_restaurant_13003816",
    "lat": "35.717453",
    "lng": "139.728616",
    "id": "sweets-125"
  }, {
    "name": "すずめや",
    "url": "https://tabelog.com/tokyo/A1305/A130501/13009255/",
    "address": "東京都 豊島区 南池袋 2-18-5",
    "code": "hyakumeiten_sweets_tokyo_2020_restaurant_13009255",
    "lat": "35.726709",
    "lng": "139.713483",
    "id": "sweets-126"
  }, {
    "name": "アトリエコータ 神楽坂店",
    "url": "https://tabelog.com/tokyo/A1309/A130905/13136823/",
    "address": "東京都 新宿区 神楽坂 6-25",
    "code": "hyakumeiten_sweets_tokyo_2020_restaurant_13136823",
    "lat": "35.703597",
    "lng": "139.736363",
    "id": "sweets-127"
  }, {
    "name": "パティスリーサロン・ドゥ・テ アミティエ",
    "url": "https://tabelog.com/tokyo/A1309/A130905/13047005/",
    "address": "東京都 新宿区 築地町 8-10 KDXレジデンス神楽坂 1F",
    "code": "hyakumeiten_sweets_tokyo_2020_restaurant_13047005",
    "lat": "35.706361",
    "lng": "139.735697",
    "id": "sweets-128"
  }, {
    "name": "アディクト オ シュクル",
    "url": "https://tabelog.com/tokyo/A1317/A131702/13171753/",
    "address": "東京都 目黒区 八雲 1-10-6",
    "code": "hyakumeiten_sweets_tokyo_2020_restaurant_13171753",
    "lat": "35.618577",
    "lng": "139.672425",
    "id": "sweets-129"
  }, {
    "name": "エシレ・メゾン デュ ブール",
    "url": "https://tabelog.com/tokyo/A1302/A130201/13096439/",
    "address": "東京都 千代田区 丸の内 2-6-1 丸の内ブリックスクエア 1F",
    "code": "hyakumeiten_sweets_tokyo_2020_restaurant_13096439",
    "lat": "35.678881",
    "lng": "139.76272",
    "id": "sweets-130"
  }, {
    "name": "ア コテ パティスリー",
    "url": "https://tabelog.com/tokyo/A1316/A131602/13051424/",
    "address": "東京都 港区 白金台 2-5-11",
    "code": "hyakumeiten_sweets_tokyo_2020_restaurant_13051424",
    "lat": "35.635959",
    "lng": "139.729259",
    "id": "sweets-131"
  }, {
    "name": "清寿軒",
    "url": "https://tabelog.com/tokyo/A1302/A130204/13213772/",
    "address": "東京都 中央区 日本橋堀留町 1-4-16 ピーコス日本橋ビル1F",
    "code": "hyakumeiten_sweets_tokyo_2020_restaurant_13213772",
    "lat": "35.688043",
    "lng": "139.77941",
    "id": "sweets-132"
  }, {
    "name": "亀十",
    "url": "https://tabelog.com/tokyo/A1311/A131102/13003655/",
    "address": "東京都 台東区 雷門 2-18-11",
    "code": "hyakumeiten_sweets_tokyo_2020_restaurant_13003655",
    "lat": "35.710636",
    "lng": "139.796759",
    "id": "sweets-133"
  }, {
    "name": "西洋菓子 しろたえ",
    "url": "https://tabelog.com/tokyo/A1308/A130801/13002850/",
    "address": "東京都 港区 赤坂 4-1-4",
    "code": "hyakumeiten_sweets_tokyo_2020_restaurant_13002850",
    "lat": "35.676658",
    "lng": "139.735365",
    "id": "sweets-134"
  }, {
    "name": "ひみつ堂",
    "url": "https://tabelog.com/tokyo/A1311/A131106/13126796/",
    "address": "東京都 台東区 谷中 3-11-18",
    "code": "hyakumeiten_sweets_tokyo_2020_restaurant_13126796",
    "lat": "35.727357",
    "lng": "139.766576",
    "id": "sweets-135"
  }, {
    "name": "空也",
    "url": "https://tabelog.com/tokyo/A1301/A130101/13002591/",
    "address": "東京都 中央区 銀座 6-7-19",
    "code": "hyakumeiten_sweets_tokyo_2020_restaurant_13002591",
    "lat": "35.670839",
    "lng": "139.762873",
    "id": "sweets-136"
  }, {
    "name": "パティスリー カーヴァンソン",
    "url": "https://tabelog.com/tokyo/A1309/A130905/13035194/",
    "address": "東京都 新宿区 筑土八幡町 1-2 第３ＮＫビル 1Ｆ",
    "code": "hyakumeiten_sweets_tokyo_2020_restaurant_13035194",
    "lat": "35.703889",
    "lng": "139.741183",
    "id": "sweets-137"
  }, {
    "name": "たいやき わかば",
    "url": "https://tabelog.com/tokyo/A1309/A130902/13000848/",
    "address": "東京都 新宿区 若葉 1-10 小沢ビル １Ｆ",
    "code": "hyakumeiten_sweets_tokyo_2020_restaurant_13000848",
    "lat": "35.685987",
    "lng": "139.726872",
    "id": "sweets-138"
  }, {
    "name": "フルーツパーラーフクナガ",
    "url": "https://tabelog.com/tokyo/A1309/A130903/13006765/",
    "address": "東京都 新宿区 四谷 3-4 fビル 2F",
    "code": "hyakumeiten_sweets_tokyo_2020_restaurant_13006765",
    "lat": "35.68787",
    "lng": "139.72176",
    "id": "sweets-139"
  }, {
    "name": "一幸庵",
    "url": "https://tabelog.com/tokyo/A1323/A132302/13005076/",
    "address": "東京都 文京区 小石川 5-3-15",
    "code": "hyakumeiten_sweets_tokyo_2020_restaurant_13005076",
    "lat": "35.716477",
    "lng": "139.739229",
    "id": "sweets-140"
  }, {
    "name": "浪花家総本店",
    "url": "https://tabelog.com/tokyo/A1307/A130702/13002775/",
    "address": "東京都 港区 麻布十番 1-8-14",
    "code": "hyakumeiten_sweets_tokyo_2020_restaurant_13002775",
    "lat": "35.656162",
    "lng": "139.735172",
    "id": "sweets-141"
  }, {
    "name": "草月",
    "url": "https://tabelog.com/tokyo/A1323/A132304/13003793/",
    "address": "東京都 北区 東十条 2-15-16",
    "code": "hyakumeiten_sweets_tokyo_2020_restaurant_13003793",
    "lat": "35.763343",
    "lng": "139.729082",
    "id": "sweets-142"
  }, {
    "name": "松島屋",
    "url": "https://tabelog.com/tokyo/A1314/A131403/13007137/",
    "address": "東京都 港区 高輪 1-5-25",
    "code": "hyakumeiten_sweets_tokyo_2020_restaurant_13007137",
    "lat": "35.640529",
    "lng": "139.73738",
    "id": "sweets-143"
  }, {
    "name": "パティスリー イル・プルー・シュル・ラ・セーヌ",
    "url": "https://tabelog.com/tokyo/A1303/A130303/13001912/",
    "address": "東京都 渋谷区 猿楽町 17-16 代官山フォーラム ２Ｆ",
    "code": "hyakumeiten_sweets_tokyo_2020_restaurant_13001912",
    "lat": "35.649513",
    "lng": "139.698732",
    "id": "sweets-144"
  }, {
    "name": "紀の善",
    "url": "https://tabelog.com/tokyo/A1309/A130905/13000478/",
    "address": "東京都 新宿区 神楽坂 1-12 紀の善ビル",
    "code": "hyakumeiten_sweets_tokyo_2020_restaurant_13000478",
    "lat": "35.700754",
    "lng": "139.7424",
    "id": "sweets-145"
  }, {
    "name": "うさぎや 本店",
    "url": "https://tabelog.com/tokyo/A1302/A130202/13003250/",
    "address": "東京都 中央区 日本橋 1-2-19 日本橋ファーストビル １Ｆ",
    "code": "hyakumeiten_sweets_tokyo_2020_restaurant_13003250",
    "lat": "35.683471",
    "lng": "139.772788",
    "id": "sweets-146"
  }, {
    "name": "フランス菓子 パティシエ ショコラティエ イナムラショウゾウ",
    "url": "https://tabelog.com/tokyo/A1311/A131105/13047298/",
    "address": "東京都 台東区 谷中 7-19-5",
    "code": "hyakumeiten_sweets_tokyo_2020_restaurant_13047298",
    "lat": "35.727391",
    "lng": "139.769319",
    "id": "sweets-147"
  }, {
    "name": "フルーツパーラーゴトー",
    "url": "https://tabelog.com/tokyo/A1311/A131102/13095672/",
    "address": "東京都 台東区 浅草 2-15-4",
    "code": "hyakumeiten_sweets_tokyo_2020_restaurant_13095672",
    "lat": "35.715751",
    "lng": "139.793837",
    "id": "sweets-148"
  }, {
    "name": "ちもと",
    "url": "https://tabelog.com/tokyo/A1317/A131702/13003218/",
    "address": "東京都 目黒区 八雲 1-4-6",
    "code": "hyakumeiten_sweets_tokyo_2020_restaurant_13003218",
    "lat": "35.618205",
    "lng": "139.674781",
    "id": "sweets-149"
  }, {
    "name": "ロートンヌ 秋津本店",
    "url": "https://tabelog.com/tokyo/A1328/A132806/13005967/",
    "address": "東京都 東村山市 秋津町 5-13-4",
    "code": "hyakumeiten_sweets_tokyo_2020_restaurant_13005967",
    "lat": "35.778196",
    "lng": "139.494421",
    "id": "sweets-150"
  }, {
    "name": "ハリッツ 上原店",
    "url": "https://tabelog.com/tokyo/A1318/A131811/13023466/",
    "address": "東京都 渋谷区 上原 1-34-2",
    "code": "hyakumeiten_sweets_tokyo_2020_restaurant_13023466",
    "lat": "35.669326",
    "lng": "139.682025",
    "id": "sweets-151"
  }, {
    "name": "パティスリー SATSUKI",
    "url": "https://tabelog.com/tokyo/A1308/A130803/13000178/",
    "address": "東京都 千代田区 紀尾井町 4-1 ホテルニューオータニ 東京 ロビィ階",
    "code": "hyakumeiten_sweets_tokyo_2020_restaurant_13000178",
    "lat": "35.680298",
    "lng": "139.734822",
    "id": "sweets-152"
  }, {
    "name": "廚 菓子 くろぎ",
    "url": "https://tabelog.com/tokyo/A1310/A131004/13167993/",
    "address": "東京都 文京区 本郷 7-3-1 東京大学 本郷キャンパス 春日門 Daiwaユビキタス学術研究館 1F",
    "code": "hyakumeiten_sweets_tokyo_2020_restaurant_13167993",
    "lat": "35.708055",
    "lng": "139.762692",
    "id": "sweets-153"
  }, {
    "name": "ホレンディッシェ・カカオシュトゥーベ 新宿伊勢丹店",
    "url": "https://tabelog.com/tokyo/A1304/A130401/13097078/",
    "address": "東京都 新宿区 新宿 3-14-1 伊勢丹新宿店 B1F",
    "code": "hyakumeiten_sweets_tokyo_2020_restaurant_13097078",
    "lat": "35.691574",
    "lng": "139.704647",
    "id": "sweets-154"
  }, {
    "name": "瑞穂",
    "url": "https://tabelog.com/tokyo/A1306/A130601/13001154/",
    "address": "東京都 渋谷区 神宮前 6-8-7",
    "code": "hyakumeiten_sweets_tokyo_2020_restaurant_13001154",
    "lat": "35.667038",
    "lng": "139.705707",
    "id": "sweets-155"
  }, {
    "name": "ショコラティエ パレ ド オール 東京",
    "url": "https://tabelog.com/tokyo/A1302/A130201/13038473/",
    "address": "東京都 千代田区 丸の内 1-5-1 新丸の内ビルディング 1F",
    "code": "hyakumeiten_sweets_tokyo_2020_restaurant_13038473",
    "lat": "35.682621",
    "lng": "139.764244",
    "id": "sweets-156"
  }, {
    "name": "ホットケーキパーラー フルフル 赤坂店",
    "url": "https://tabelog.com/tokyo/A1308/A130801/13155288/",
    "address": "東京都 港区 赤坂 2-17-52 パラッツォ赤坂 1F",
    "code": "hyakumeiten_sweets_tokyo_2020_restaurant_13155288",
    "lat": "35.670351",
    "lng": "139.738818",
    "id": "sweets-157"
  }, {
    "name": "千葉屋",
    "url": "https://tabelog.com/tokyo/A1311/A131102/13008691/",
    "address": "東京都 台東区 浅草 3-9-10",
    "code": "hyakumeiten_sweets_tokyo_2020_restaurant_13008691",
    "lat": "35.716991",
    "lng": "139.794884",
    "id": "sweets-158"
  }, {
    "name": "だるまや餅菓子店",
    "url": "https://tabelog.com/tokyo/A1323/A132304/13008769/",
    "address": "東京都 北区 十条仲原 1-3-6",
    "code": "hyakumeiten_sweets_tokyo_2020_restaurant_13008769",
    "lat": "35.762247",
    "lng": "139.721437",
    "id": "sweets-159"
  }, {
    "name": "うさぎや 中央通り店",
    "url": "https://tabelog.com/tokyo/A1302/A130202/13041161/",
    "address": "東京都 中央区 日本橋 1-3-8 ディアマントビル 1F",
    "code": "hyakumeiten_sweets_tokyo_2020_restaurant_13041161",
    "lat": "35.682968",
    "lng": "139.773719",
    "id": "sweets-160"
  }, {
    "name": "リュードパッシー",
    "url": "https://tabelog.com/tokyo/A1317/A131702/13005155/",
    "address": "東京都 目黒区 鷹番 3-17-6",
    "code": "hyakumeiten_sweets_tokyo_2020_restaurant_13005155",
    "lat": "35.627578",
    "lng": "139.683179",
    "id": "sweets-161"
  }, {
    "name": "柳屋",
    "url": "https://tabelog.com/tokyo/A1302/A130204/13003065/",
    "address": "東京都 中央区 日本橋人形町 2-11-3",
    "code": "hyakumeiten_sweets_tokyo_2020_restaurant_13003065",
    "lat": "35.685341",
    "lng": "139.784048",
    "id": "sweets-162"
  }, {
    "name": "ラデュレ サロン・ド・テ 銀座三越店",
    "url": "https://tabelog.com/tokyo/A1301/A130101/13053865/",
    "address": "東京都 中央区 銀座 4-6-16 銀座三越 2F",
    "code": "hyakumeiten_sweets_tokyo_2020_restaurant_13053865",
    "lat": "35.671343",
    "lng": "139.765437",
    "id": "sweets-163"
  }, {
    "name": "志むら",
    "url": "https://tabelog.com/tokyo/A1305/A130502/13003855/",
    "address": "東京都 豊島区 目白 3-13-3",
    "code": "hyakumeiten_sweets_tokyo_2020_restaurant_13003855",
    "lat": "35.722395",
    "lng": "139.705649",
    "id": "sweets-164"
  }, {
    "name": "和栗や 谷中店",
    "url": "https://tabelog.com/tokyo/A1311/A131106/13130539/",
    "address": "東京都 台東区 谷中 3-9-14",
    "code": "hyakumeiten_sweets_tokyo_2020_restaurant_13130539",
    "lat": "35.727579",
    "lng": "139.765293",
    "id": "sweets-165"
  }, {
    "name": "フルーツカフェ フルータス",
    "url": "https://tabelog.com/tokyo/A1313/A131303/13056677/",
    "address": "東京都 江東区 富岡 1-24-6",
    "code": "hyakumeiten_sweets_tokyo_2020_restaurant_13056677",
    "lat": "35.670407",
    "lng": "139.798912",
    "id": "sweets-166"
  }, {
    "name": "ジェラテリア シンチェリータ",
    "url": "https://tabelog.com/tokyo/A1319/A131905/13108556/",
    "address": "東京都 杉並区 阿佐谷北 1-43-7",
    "code": "hyakumeiten_sweets_tokyo_2020_restaurant_13108556",
    "lat": "35.709349",
    "lng": "139.634823",
    "id": "sweets-167"
  }, {
    "name": "御菓子処 さゝま",
    "url": "https://tabelog.com/tokyo/A1310/A131003/13000627/",
    "address": "東京都 千代田区 神田神保町 1-23",
    "code": "hyakumeiten_sweets_tokyo_2020_restaurant_13000627",
    "lat": "35.695036",
    "lng": "139.760981",
    "id": "sweets-168"
  }, {
    "name": "日本橋 長門",
    "url": "https://tabelog.com/tokyo/A1302/A130202/13011481/",
    "address": "東京都 中央区 日本橋 3-1-3 日本橋長門ビル 1F",
    "code": "hyakumeiten_sweets_tokyo_2020_restaurant_13011481",
    "lat": "35.681049",
    "lng": "139.771615",
    "id": "sweets-169"
  }, {
    "name": "スタイルズケイクス＆カンパニー",
    "url": "https://tabelog.com/tokyo/A1310/A131003/13125138/",
    "address": "東京都 千代田区 神田小川町 3-16-5 第二岩崎ビル 1Ｆ",
    "code": "hyakumeiten_sweets_tokyo_2020_restaurant_13125138",
    "lat": "35.696821",
    "lng": "139.760595",
    "id": "sweets-170"
  }, {
    "name": "パティスリー ジュンウジタ",
    "url": "https://tabelog.com/tokyo/A1317/A131702/13133033/",
    "address": "東京都 目黒区 碑文谷 4-6-6",
    "code": "hyakumeiten_sweets_tokyo_2020_restaurant_13133033",
    "lat": "35.619842",
    "lng": "139.686308",
    "id": "sweets-171"
  }, {
    "name": "ラ･メゾン･デュ･ショコラ 丸の内店",
    "url": "https://tabelog.com/tokyo/A1301/A130102/13000036/",
    "address": "東京都 千代田区 丸の内 3-4-1 新国際ビル 1F",
    "code": "hyakumeiten_sweets_tokyo_2020_restaurant_13000036",
    "lat": "35.676459",
    "lng": "139.762017",
    "id": "sweets-172"
  }, {
    "name": "たいやき ひいらぎ",
    "url": "https://tabelog.com/tokyo/A1303/A130302/13026096/",
    "address": "東京都 渋谷区 恵比寿 1-4-1 恵比寿アーバンハウス 1F",
    "code": "hyakumeiten_sweets_tokyo_2020_restaurant_13026096",
    "lat": "35.647722",
    "lng": "139.711514",
    "id": "sweets-173"
  }, {
    "name": "シュークリー",
    "url": "https://tabelog.com/tokyo/A1302/A130204/13050996/",
    "address": "東京都 中央区 日本橋人形町 1-5-5 セントハイム人形町源 １Ｆ",
    "code": "hyakumeiten_sweets_tokyo_2020_restaurant_13050996",
    "lat": "35.685263",
    "lng": "139.781566",
    "id": "sweets-174"
  }, {
    "name": "浅草浪花家",
    "url": "https://tabelog.com/tokyo/A1311/A131102/13120735/",
    "address": "東京都 台東区 浅草 2-12-4",
    "code": "hyakumeiten_sweets_tokyo_2020_restaurant_13120735",
    "lat": "35.714818",
    "lng": "139.792769",
    "id": "sweets-175"
  }, {
    "name": "レピキュリアン",
    "url": "https://tabelog.com/tokyo/A1320/A132001/13005891/",
    "address": "東京都 武蔵野市 吉祥寺南町 1-9-5 1F",
    "code": "hyakumeiten_sweets_tokyo_2020_restaurant_13005891",
    "lat": "35.701977",
    "lng": "139.578319",
    "id": "sweets-176"
  }, {
    "name": "うさぎや",
    "url": "https://tabelog.com/tokyo/A1319/A131905/13000731/",
    "address": "東京都 杉並区 阿佐谷北 1-3-7",
    "code": "hyakumeiten_sweets_tokyo_2020_restaurant_13000731",
    "lat": "35.705146",
    "lng": "139.637737",
    "id": "sweets-177"
  }, {
    "name": "たちばな",
    "url": "https://tabelog.com/tokyo/A1301/A130103/13022189/",
    "address": "東京都 中央区 銀座 8-7-19 江安ビル １Ｆ",
    "code": "hyakumeiten_sweets_tokyo_2020_restaurant_13022189",
    "lat": "35.668552",
    "lng": "139.760967",
    "id": "sweets-178"
  }, {
    "name": "フィオレンティーナ ペストリーブティック",
    "url": "https://tabelog.com/tokyo/A1307/A130701/13060521/",
    "address": "東京都 港区 六本木 6-10-3 グランド ハイアット 東京 1F ロビーフロア",
    "code": "hyakumeiten_sweets_tokyo_2020_restaurant_13060521",
    "lat": "35.659805",
    "lng": "139.728417",
    "id": "sweets-179"
  }, {
    "name": "ナタ・デ・クリスチアノ",
    "url": "https://tabelog.com/tokyo/A1318/A131810/13153384/",
    "address": "東京都 渋谷区 富ヶ谷 1-14-16-103",
    "code": "hyakumeiten_sweets_tokyo_2020_restaurant_13153384",
    "lat": "35.667182",
    "lng": "139.691246",
    "id": "sweets-180"
  }, {
    "name": "パティスリー レザネフォール 恵比寿本店",
    "url": "https://tabelog.com/tokyo/A1303/A130302/13149501/",
    "address": "東京都 渋谷区 恵比寿西 1-21-3 グレイス代官山 1F",
    "code": "hyakumeiten_sweets_tokyo_2020_restaurant_13149501",
    "lat": "35.646449",
    "lng": "139.70627",
    "id": "sweets-181"
  }, {
    "name": "ラ・ヴィエイユ・フランス 本店",
    "url": "https://tabelog.com/tokyo/A1318/A131809/13043939/",
    "address": "東京都 世田谷区 粕谷 4-15-6 グランデュール千歳烏山 １Ｆ",
    "code": "hyakumeiten_sweets_tokyo_2020_restaurant_13043939",
    "lat": "35.662973",
    "lng": "139.60323",
    "id": "sweets-182"
  }, {
    "name": "アルカション",
    "url": "https://tabelog.com/tokyo/A1328/A132801/13023168/",
    "address": "東京都 練馬区 南大泉 5-34-4",
    "code": "hyakumeiten_sweets_tokyo_2020_restaurant_13023168",
    "lat": "35.74893",
    "lng": "139.569707",
    "id": "sweets-183"
  }, {
    "name": "ロートンヌ 中野店",
    "url": "https://tabelog.com/tokyo/A1321/A132101/13118933/",
    "address": "東京都 中野区 江原町 2-30-1",
    "code": "hyakumeiten_sweets_tokyo_2020_restaurant_13118933",
    "lat": "35.732203",
    "lng": "139.670619",
    "id": "sweets-184"
  }, {
    "name": "パティスリー ラブリコチエ",
    "url": "https://tabelog.com/tokyo/A1319/A131904/13100828/",
    "address": "東京都 中野区 大和町 1-66-3",
    "code": "hyakumeiten_sweets_tokyo_2020_restaurant_13100828",
    "lat": "35.709268",
    "lng": "139.651316",
    "id": "sweets-185"
  }, {
    "name": "マテリエル",
    "url": "https://tabelog.com/tokyo/A1322/A132203/13110008/",
    "address": "東京都 板橋区 大山町 21-6 白樹舘壱番館 1F",
    "code": "hyakumeiten_sweets_tokyo_2020_restaurant_13110008",
    "lat": "35.7483",
    "lng": "139.698742",
    "id": "sweets-186"
  }, {
    "name": "パティスリー・スリール",
    "url": "https://tabelog.com/tokyo/A1317/A131701/13018799/",
    "address": "東京都 目黒区 五本木 2-40-8",
    "code": "hyakumeiten_sweets_tokyo_2020_restaurant_13018799",
    "lat": "35.634666",
    "lng": "139.686619",
    "id": "sweets-187"
  }, {
    "name": "パティスリー タダシ ヤナギ 八雲店",
    "url": "https://tabelog.com/tokyo/A1317/A131702/13019733/",
    "address": "東京都 目黒区 八雲 2-8-11",
    "code": "hyakumeiten_sweets_tokyo_2020_restaurant_13019733",
    "lat": "35.615813",
    "lng": "139.671108",
    "id": "sweets-188"
  }, {
    "name": "ラ・ファミーユ",
    "url": "https://tabelog.com/tokyo/A1305/A130501/13005624/",
    "address": "東京都 豊島区 西池袋 3-4-6 今村ビル 1F",
    "code": "hyakumeiten_sweets_tokyo_2020_restaurant_13005624",
    "lat": "35.729236",
    "lng": "139.705869",
    "id": "sweets-189"
  }, {
    "name": "和kitchen かんな",
    "url": "https://tabelog.com/tokyo/A1317/A131706/13156812/",
    "address": "東京都 世田谷区 下馬 2-43-11 2F",
    "code": "hyakumeiten_sweets_tokyo_2020_restaurant_13156812",
    "lat": "35.643389",
    "lng": "139.679623",
    "id": "sweets-190"
  }, {
    "name": "梅むら",
    "url": "https://tabelog.com/tokyo/A1311/A131102/13008698/",
    "address": "東京都 台東区 浅草 3-22-12",
    "code": "hyakumeiten_sweets_tokyo_2020_restaurant_13008698",
    "lat": "35.716745",
    "lng": "139.79674",
    "id": "sweets-191"
  }, {
    "name": "パティスリー カカオエット・パリ",
    "url": "https://tabelog.com/tokyo/A1317/A131701/13039525/",
    "address": "東京都 目黒区 東山 1-9-6",
    "code": "hyakumeiten_sweets_tokyo_2020_restaurant_13039525",
    "lat": "35.647086",
    "lng": "139.694107",
    "id": "sweets-192"
  }, {
    "name": "パティスリィ ドゥ・ボン・クーフゥ 武蔵小山本店",
    "url": "https://tabelog.com/tokyo/A1317/A131710/13032289/",
    "address": "東京都 品川区 小山 3-11-2",
    "code": "hyakumeiten_sweets_tokyo_2020_restaurant_13032289",
    "lat": "35.619849",
    "lng": "139.70624",
    "id": "sweets-193"
  }, {
    "name": "メゾン・ダーニ",
    "url": "https://tabelog.com/tokyo/A1316/A131602/13183428/",
    "address": "東京都 港区 白金 1-11-15 1F",
    "code": "hyakumeiten_sweets_tokyo_2020_restaurant_13183428",
    "lat": "35.645571",
    "lng": "139.733281",
    "id": "sweets-194"
  }, {
    "name": "パティスリー ユウ ササゲ",
    "url": "https://tabelog.com/tokyo/A1318/A131809/13155662/",
    "address": "東京都 世田谷区 南烏山 6-28-13",
    "code": "hyakumeiten_sweets_tokyo_2020_restaurant_13155662",
    "lat": "35.669859",
    "lng": "139.59892",
    "id": "sweets-195"
  }, {
    "name": "オーボンヴュータン 日本橋高島屋店",
    "url": "https://tabelog.com/tokyo/A1302/A130202/13023670/",
    "address": "東京都 中央区 日本橋 2-4-1 日本橋タカシマヤ B1F",
    "code": "hyakumeiten_sweets_tokyo_2020_restaurant_13023670",
    "lat": "35.680801",
    "lng": "139.773511",
    "id": "sweets-196"
  }, {
    "name": "ラトリエ モトゾー",
    "url": "https://tabelog.com/tokyo/A1317/A131705/13199223/",
    "address": "東京都 目黒区 東山 3-1-4 ニューリバー東山 1Ｆ",
    "code": "hyakumeiten_sweets_tokyo_2020_restaurant_13199223",
    "lat": "35.650766",
    "lng": "139.686249",
    "id": "sweets-197"
  }, {
    "name": "パーラー ローレル",
    "url": "https://tabelog.com/tokyo/A1317/A131715/13003097/",
    "address": "東京都 世田谷区 奥沢 7-24-3",
    "code": "hyakumeiten_sweets_tokyo_2020_restaurant_13003097",
    "lat": "35.606678",
    "lng": "139.658578",
    "id": "sweets-198"
  }, {
    "name": "北斎茶房",
    "url": "https://tabelog.com/tokyo/A1312/A131201/13009563/",
    "address": "東京都 墨田区 亀沢 4-8-5",
    "code": "hyakumeiten_sweets_tokyo_2020_restaurant_13009563",
    "lat": "35.697331",
    "lng": "139.807445",
    "id": "sweets-199"
  }, {
    "name": "嘯月",
    "url": "https://tabelog.com/kyoto/A2601/A260503/26001672/",
    "address": "京都府 京都市北区 紫野上柳町 6",
    "code": "hyakumeiten_sweets_west_2020_restaurant_26001672",
    "lat": "35.044407",
    "lng": "135.752652",
    "id": "sweets-200"
  }, {
    "name": "茶寮 宝泉",
    "url": "https://tabelog.com/kyoto/A2601/A260503/26001872/",
    "address": "京都府 京都市左京区 下鴨西高木町 25",
    "code": "hyakumeiten_sweets_west_2020_restaurant_26001872",
    "lat": "35.043225",
    "lng": "135.774148",
    "id": "sweets-201"
  }, {
    "name": "川端道喜",
    "url": "https://tabelog.com/kyoto/A2601/A260503/26001766/",
    "address": "京都府 京都市左京区 下鴨南野々神町 2-12",
    "code": "hyakumeiten_sweets_west_2020_restaurant_26001766",
    "lat": "35.051273",
    "lng": "135.770356",
    "id": "sweets-202"
  }, {
    "name": "ラヴニュー",
    "url": "https://tabelog.com/hyogo/A2801/A280102/28033447/",
    "address": "兵庫県 神戸市中央区 山本通 3-7-3 ユートピア・トーア1F",
    "code": "hyakumeiten_sweets_west_2020_restaurant_28033447",
    "lat": "34.695936",
    "lng": "135.186779",
    "id": "sweets-203"
  }, {
    "name": "アシッドラシーヌ",
    "url": "https://tabelog.com/osaka/A2701/A270104/27071315/",
    "address": "大阪府 大阪市中央区 内平野町 1-4-6 ヴィヴァーチェ 大手前 1F",
    "code": "hyakumeiten_sweets_west_2020_restaurant_27071315",
    "lat": "34.687153",
    "lng": "135.515398",
    "id": "sweets-204"
  }, {
    "name": "パティスリー タンドレス",
    "url": "https://tabelog.com/kyoto/A2601/A260303/26003706/",
    "address": "京都府 京都市左京区 一乗寺花ノ木町 21-3",
    "code": "hyakumeiten_sweets_west_2020_restaurant_26003706",
    "lat": "35.042898",
    "lng": "135.792939",
    "id": "sweets-205"
  }, {
    "name": "アッサンブラージュ カキモト",
    "url": "https://tabelog.com/kyoto/A2601/A260202/26027283/",
    "address": "京都府 京都市中京区 竹屋町 通寺町西入ル松本町587-5",
    "code": "hyakumeiten_sweets_west_2020_restaurant_26027283",
    "lat": "35.01614",
    "lng": "135.766733",
    "id": "sweets-206"
  }, {
    "name": "パティスリーエス",
    "url": "https://tabelog.com/kyoto/A2601/A260201/26012808/",
    "address": "京都府 京都市下京区 高辻通室町西入繁昌町300-1 カノン室町四条1 階",
    "code": "hyakumeiten_sweets_west_2020_restaurant_26012808",
    "lat": "35.000229",
    "lng": "135.757456",
    "id": "sweets-207"
  }, {
    "name": "レ・グーテ",
    "url": "https://tabelog.com/osaka/A2701/A270102/27052440/",
    "address": "大阪府 大阪市西区 京町堀 1-14-28 UTSUBO+2 1F",
    "code": "hyakumeiten_sweets_west_2020_restaurant_27052440",
    "lat": "34.68622",
    "lng": "135.493655",
    "id": "sweets-208"
  }, {
    "name": "茶菓円山",
    "url": "https://tabelog.com/kyoto/A2601/A260301/26024782/",
    "address": "京都府 京都市東山区 円山町 620-1-2 円山公園内",
    "code": "hyakumeiten_sweets_west_2020_restaurant_26024782",
    "lat": "35.004001",
    "lng": "135.781187",
    "id": "sweets-209"
  }, {
    "name": "出町ふたば",
    "url": "https://tabelog.com/kyoto/A2601/A260302/26001520/",
    "address": "京都府 京都市上京区 出町通今出川上ル青龍町236",
    "code": "hyakumeiten_sweets_west_2020_restaurant_26001520",
    "lat": "35.030101",
    "lng": "135.769645",
    "id": "sweets-210"
  }, {
    "name": "なかたに亭",
    "url": "https://tabelog.com/osaka/A2701/A270205/27000953/",
    "address": "大阪府 大阪市天王寺区 上本町 6-6-27 中川ビル 1F",
    "code": "hyakumeiten_sweets_west_2020_restaurant_27000953",
    "lat": "34.664356",
    "lng": "135.519723",
    "id": "sweets-211"
  }, {
    "name": "グラン・ヴァニーユ",
    "url": "https://tabelog.com/kyoto/A2601/A260202/26017389/",
    "address": "京都府 京都市中京区 間之町二条下ル鍵屋町486",
    "code": "hyakumeiten_sweets_west_2020_restaurant_26017389",
    "lat": "35.012684",
    "lng": "135.761828",
    "id": "sweets-212"
  }, {
    "name": "パティシエ エス コヤマ",
    "url": "https://tabelog.com/hyogo/A2807/A280703/28001965/",
    "address": "兵庫県 三田市 ゆりのき台 5-32-1 三田ウッディタウン",
    "code": "hyakumeiten_sweets_west_2020_restaurant_28001965",
    "lat": "34.917763",
    "lng": "135.18294",
    "id": "sweets-213"
  }, {
    "name": "Patisserie Ravi,e relier",
    "url": "https://tabelog.com/osaka/A2701/A270103/27044987/",
    "address": "大阪府 大阪市北区 山崎町 5-13",
    "code": "hyakumeiten_sweets_west_2020_restaurant_27044987",
    "lat": "34.705754",
    "lng": "135.507669",
    "id": "sweets-214"
  }, {
    "name": "鍵善良房 四条本店",
    "url": "https://tabelog.com/kyoto/A2601/A260301/26001887/",
    "address": "京都府 京都市東山区 祇園町北側 264",
    "code": "hyakumeiten_sweets_west_2020_restaurant_26001887",
    "lat": "35.004082",
    "lng": "135.77475",
    "id": "sweets-215"
  }, {
    "name": "大極殿本舗 六角店",
    "url": "https://tabelog.com/kyoto/A2601/A260202/26004652/",
    "address": "京都府 京都市中京区 六角通高倉東入ル南側堀之上町120",
    "code": "hyakumeiten_sweets_west_2020_restaurant_26004652",
    "lat": "35.007325",
    "lng": "135.763044",
    "id": "sweets-216"
  }, {
    "name": "Poche du Reve",
    "url": "https://tabelog.com/hyogo/A2803/A280302/28012993/",
    "address": "兵庫県 芦屋市 公光町 9-7 モントルービル101",
    "code": "hyakumeiten_sweets_west_2020_restaurant_28012993",
    "lat": "34.728682",
    "lng": "135.304318",
    "id": "sweets-217"
  }, {
    "name": "塩芳軒",
    "url": "https://tabelog.com/kyoto/A2601/A260202/26005963/",
    "address": "京都府 京都市上京区 黒門通中立売上ル飛騨殿町180",
    "code": "hyakumeiten_sweets_west_2020_restaurant_26005963",
    "lat": "35.025261",
    "lng": "135.749779",
    "id": "sweets-218"
  }, {
    "name": "中村軒",
    "url": "https://tabelog.com/kyoto/A2601/A260401/26001883/",
    "address": "京都府 京都市西京区 桂浅原町 61",
    "code": "hyakumeiten_sweets_west_2020_restaurant_26001883",
    "lat": "34.982823",
    "lng": "135.711628",
    "id": "sweets-219"
  }, {
    "name": "ドゥブルベ・ボレロ 守山本店",
    "url": "https://tabelog.com/shiga/A2502/A250203/25000747/",
    "address": "滋賀県 守山市 播磨田町 48-4",
    "code": "hyakumeiten_sweets_west_2020_restaurant_25000747",
    "lat": "35.065787",
    "lng": "135.997895",
    "id": "sweets-220"
  }, {
    "name": "阿闍梨餅本舗 京菓子司 満月 本店",
    "url": "https://tabelog.com/kyoto/A2601/A260302/26003917/",
    "address": "京都府 京都市左京区 鞠小路通今出川上ル",
    "code": "hyakumeiten_sweets_west_2020_restaurant_26003917",
    "lat": "35.030084",
    "lng": "135.778023",
    "id": "sweets-221"
  }, {
    "name": "パティスリー モンプリュ 本店",
    "url": "https://tabelog.com/hyogo/A2801/A280102/28002315/",
    "address": "兵庫県 神戸市中央区 海岸通 3-1-17",
    "code": "hyakumeiten_sweets_west_2020_restaurant_28002315",
    "lat": "34.686266",
    "lng": "135.186791",
    "id": "sweets-222"
  }, {
    "name": "玉製家",
    "url": "https://tabelog.com/osaka/A2701/A270202/27001576/",
    "address": "大阪府 大阪市中央区 千日前 1-4-4",
    "code": "hyakumeiten_sweets_west_2020_restaurant_27001576",
    "lat": "34.667363",
    "lng": "135.5051",
    "id": "sweets-223"
  }, {
    "name": "粟餅所・澤屋",
    "url": "https://tabelog.com/kyoto/A2601/A260501/26001539/",
    "address": "京都府 京都市上京区 北野天満宮前西入紙屋川町838-7",
    "code": "hyakumeiten_sweets_west_2020_restaurant_26001539",
    "lat": "35.027661",
    "lng": "135.735203",
    "id": "sweets-224"
  }, {
    "name": "萬御菓子誂處 樫舎",
    "url": "https://tabelog.com/nara/A2901/A290101/29002296/",
    "address": "奈良県 奈良市 中院町 22-3",
    "code": "hyakumeiten_sweets_west_2020_restaurant_29002296",
    "lat": "34.678572",
    "lng": "135.830564",
    "id": "sweets-225"
  }, {
    "name": "かん袋",
    "url": "https://tabelog.com/osaka/A2705/A270501/27001078/",
    "address": "大阪府 堺市堺区 新在家町東 1-2-1",
    "code": "hyakumeiten_sweets_west_2020_restaurant_27001078",
    "lat": "34.571832",
    "lng": "135.4688",
    "id": "sweets-226"
  }, {
    "name": "ル ミュゼ ドゥ アッシュ 金沢店",
    "url": "https://tabelog.com/ishikawa/A1701/A170101/17001257/",
    "address": "石川県 金沢市 出羽町 2-1 石川県立美術館",
    "code": "hyakumeiten_sweets_west_2020_restaurant_17001257",
    "lat": "36.560408",
    "lng": "136.661516",
    "id": "sweets-227"
  }, {
    "name": "ガトー・ド・ボワ A LA MAISON",
    "url": "https://tabelog.com/nara/A2901/A290101/29000134/",
    "address": "奈良県 奈良市 西大寺南町 1-19-101",
    "code": "hyakumeiten_sweets_west_2020_restaurant_29000134",
    "lat": "34.693565",
    "lng": "135.781541",
    "id": "sweets-228"
  }, {
    "name": "餅匠しづく 新町店",
    "url": "https://tabelog.com/osaka/A2701/A270201/27024632/",
    "address": "大阪府 大阪市西区 新町 1-17-17 新町ハウス 1F",
    "code": "hyakumeiten_sweets_west_2020_restaurant_27024632",
    "lat": "34.677713",
    "lng": "135.494335",
    "id": "sweets-229"
  }, {
    "name": "パティスリー プラン",
    "url": "https://tabelog.com/hyogo/A2803/A280302/28005628/",
    "address": "兵庫県 芦屋市 茶屋之町 3-3 1F",
    "code": "hyakumeiten_sweets_west_2020_restaurant_28005628",
    "lat": "34.731402",
    "lng": "135.307231",
    "id": "sweets-230"
  }, {
    "name": "本家月餅家直正",
    "url": "https://tabelog.com/kyoto/A2601/A260202/26002393/",
    "address": "京都府 京都市中京区 木屋町 通三条上ル上大阪町530",
    "code": "hyakumeiten_sweets_west_2020_restaurant_26002393",
    "lat": "35.009427",
    "lng": "135.77063",
    "id": "sweets-231"
  }, {
    "name": "エシレ・マルシェ オ ブール",
    "url": "https://tabelog.com/osaka/A2701/A270101/27068734/",
    "address": "大阪府 大阪市北区 角田町 8-7 阪急うめだ本店 B2F",
    "code": "hyakumeiten_sweets_west_2020_restaurant_27068734",
    "lat": "34.702819",
    "lng": "135.498532",
    "id": "sweets-232"
  }, {
    "name": "デリチュース  箕面本店",
    "url": "https://tabelog.com/osaka/A2706/A270603/27004930/",
    "address": "大阪府 箕面市 小野原西 6-14-22",
    "code": "hyakumeiten_sweets_west_2020_restaurant_27004930",
    "lat": "34.828344",
    "lng": "135.515584",
    "id": "sweets-233"
  }, {
    "name": "ドゥブルベ・ボレロ 大阪本町店",
    "url": "https://tabelog.com/osaka/A2701/A270102/27075194/",
    "address": "大阪府 大阪市中央区 瓦町 4-7-4 南星瓦町ビル 1F",
    "code": "hyakumeiten_sweets_west_2020_restaurant_27075194",
    "lat": "34.685902",
    "lng": "135.498173",
    "id": "sweets-234"
  }, {
    "name": "ラ・ペッシュ",
    "url": "https://tabelog.com/nara/A2905/A290501/29004292/",
    "address": "奈良県 吉野郡大淀町 新野 190-1",
    "code": "hyakumeiten_sweets_west_2020_restaurant_29004292",
    "lat": "34.388536",
    "lng": "135.817577",
    "id": "sweets-235"
  }, {
    "name": "宝泉 JR新幹線京都駅店",
    "url": "https://tabelog.com/kyoto/A2601/A260101/26006790/",
    "address": "京都府 京都市下京区 東塩小路高倉町 8-3 新幹線 JR京都駅 2F",
    "code": "hyakumeiten_sweets_west_2020_restaurant_26006790",
    "lat": "34.984771",
    "lng": "135.759068",
    "id": "sweets-236"
  }, {
    "name": "ぎおん徳屋",
    "url": "https://tabelog.com/kyoto/A2601/A260301/26002075/",
    "address": "京都府 京都市東山区 祇園町南側 570-127",
    "code": "hyakumeiten_sweets_west_2020_restaurant_26002075",
    "lat": "35.002621",
    "lng": "135.775334",
    "id": "sweets-237"
  }, {
    "name": "エクチュア  からほり「蔵」本店",
    "url": "https://tabelog.com/osaka/A2701/A270204/27000958/",
    "address": "大阪府 大阪市中央区 谷町 6-17-43 練",
    "code": "hyakumeiten_sweets_west_2020_restaurant_27000958",
    "lat": "34.67509",
    "lng": "135.512692",
    "id": "sweets-238"
  }, {
    "name": "ショコラティエ パレ ド オール 大阪",
    "url": "https://tabelog.com/osaka/A2701/A270101/27003190/",
    "address": "大阪府 大阪市北区 梅田 2-2-22 ハービスPLAZA ENT 4F",
    "code": "hyakumeiten_sweets_west_2020_restaurant_27003190",
    "lat": "34.699783",
    "lng": "135.49457",
    "id": "sweets-239"
  }, {
    "name": "ジェラテリア チルコドーロ",
    "url": "https://tabelog.com/osaka/A2701/A270204/27009531/",
    "address": "大阪府 大阪市中央区 谷町 7丁目3-4 新谷町第三ビル114",
    "code": "hyakumeiten_sweets_west_2020_restaurant_27009531",
    "lat": "34.672342",
    "lng": "135.516431",
    "id": "sweets-240"
  }, {
    "name": "茶房いせはん",
    "url": "https://tabelog.com/kyoto/A2601/A260302/26001023/",
    "address": "京都府 京都市上京区 青龍町 242",
    "code": "hyakumeiten_sweets_west_2020_restaurant_26001023",
    "lat": "35.029883",
    "lng": "135.770094",
    "id": "sweets-241"
  }, {
    "name": "緑寿庵清水",
    "url": "https://tabelog.com/kyoto/A2601/A260302/26005325/",
    "address": "京都府 京都市左京区 吉田泉殿町 38番地の2",
    "code": "hyakumeiten_sweets_west_2020_restaurant_26005325",
    "lat": "35.028068",
    "lng": "135.777172",
    "id": "sweets-242"
  }, {
    "name": "パティスリージラフ",
    "url": "https://tabelog.com/toyama/A1601/A160101/16000052/",
    "address": "富山県 富山市 黒瀬北町 1-8-7",
    "code": "hyakumeiten_sweets_west_2020_restaurant_16000052",
    "lat": "36.668689",
    "lng": "137.200474",
    "id": "sweets-243"
  }, {
    "name": "麩嘉 府庁前本店",
    "url": "https://tabelog.com/kyoto/A2601/A260202/26001531/",
    "address": "京都府 京都市上京区 西洞院堪木町上ル東裏辻町413",
    "code": "hyakumeiten_sweets_west_2020_restaurant_26001531",
    "lat": "35.018887",
    "lng": "135.754898",
    "id": "sweets-244"
  }, {
    "name": "ロトス洋菓子店",
    "url": "https://tabelog.com/kyoto/A2601/A260201/26017308/",
    "address": "京都府 京都市下京区 烏丸 通松原上ル因幡堂町699 バインオークサーティーン 1F",
    "code": "hyakumeiten_sweets_west_2020_restaurant_26017308",
    "lat": "34.999496",
    "lng": "135.760302",
    "id": "sweets-245"
  }, {
    "name": "クレープリー・アルション",
    "url": "https://tabelog.com/osaka/A2701/A270202/27003897/",
    "address": "大阪府 大阪市中央区 難波 1-4-18",
    "code": "hyakumeiten_sweets_west_2020_restaurant_27003897",
    "lat": "34.667396",
    "lng": "135.50224",
    "id": "sweets-246"
  }, {
    "name": "ツマガリ 甲陽園本店",
    "url": "https://tabelog.com/hyogo/A2803/A280301/28001357/",
    "address": "兵庫県 西宮市 甲陽園本庄町 6-38",
    "code": "hyakumeiten_sweets_west_2020_restaurant_28001357",
    "lat": "34.761748",
    "lng": "135.330241",
    "id": "sweets-247"
  }, {
    "name": "フランス菓子16区",
    "url": "https://tabelog.com/fukuoka/A4001/A400104/40000550/",
    "address": "福岡県 福岡市中央区 薬院 4-20-10",
    "code": "hyakumeiten_sweets_west_2020_restaurant_40000550",
    "lat": "33.578595",
    "lng": "130.394345",
    "id": "sweets-248"
  }, {
    "name": "マリベル 京都本店",
    "url": "https://tabelog.com/kyoto/A2601/A260202/26019937/",
    "address": "京都府 京都市中京区 柳馬場三条下ル槌屋町83番地",
    "code": "hyakumeiten_sweets_west_2020_restaurant_26019937",
    "lat": "35.008305",
    "lng": "135.76386",
    "id": "sweets-249"
  }, {
    "name": "カファレル 神戸北野本店",
    "url": "https://tabelog.com/hyogo/A2801/A280101/28002143/",
    "address": "兵庫県 神戸市中央区 山本通 3-7-29 神戸トアロードビル 1F",
    "code": "hyakumeiten_sweets_west_2020_restaurant_28002143",
    "lat": "34.696025",
    "lng": "135.186996",
    "id": "sweets-250"
  }, {
    "name": "甘納豆かわむら",
    "url": "https://tabelog.com/ishikawa/A1701/A170101/17000514/",
    "address": "石川県 金沢市 野町 2-24-7",
    "code": "hyakumeiten_sweets_west_2020_restaurant_17000514",
    "lat": "36.556693",
    "lng": "136.647065",
    "id": "sweets-251"
  }, {
    "name": "みつばち",
    "url": "https://tabelog.com/kyoto/A2601/A260302/26002128/",
    "address": "京都府 京都市上京区 河原町今出川下ル梶井町448-60",
    "code": "hyakumeiten_sweets_west_2020_restaurant_26002128",
    "lat": "35.027982",
    "lng": "135.769667",
    "id": "sweets-252"
  }, {
    "name": "ひつじ",
    "url": "https://tabelog.com/kyoto/A2601/A260202/26018786/",
    "address": "京都府 京都市中京区 大炊町 355-1",
    "code": "hyakumeiten_sweets_west_2020_restaurant_26018786",
    "lat": "35.014993",
    "lng": "135.764921",
    "id": "sweets-253"
  }, {
    "name": "二條若狭屋 寺町店",
    "url": "https://tabelog.com/kyoto/A2601/A260201/26022589/",
    "address": "京都府 京都市中京区 寺町通二条下ル榎木町67",
    "code": "hyakumeiten_sweets_west_2020_restaurant_26022589",
    "lat": "35.013536",
    "lng": "135.76741",
    "id": "sweets-254"
  }, {
    "name": "聚洸",
    "url": "https://tabelog.com/kyoto/A2601/A260503/26005468/",
    "address": "京都府 京都市上京区 筋違橋町 548-4",
    "code": "hyakumeiten_sweets_west_2020_restaurant_26005468",
    "lat": "35.036922",
    "lng": "135.748758",
    "id": "sweets-255"
  }, {
    "name": "祇園きなな 本店",
    "url": "https://tabelog.com/kyoto/A2601/A260301/26002500/",
    "address": "京都府 京都市東山区 祇園町南側 570-119",
    "code": "hyakumeiten_sweets_west_2020_restaurant_26002500",
    "lat": "35.002546",
    "lng": "135.774334",
    "id": "sweets-256"
  }, {
    "name": "一文字屋和輔",
    "url": "https://tabelog.com/kyoto/A2601/A260503/26001669/",
    "address": "京都府 京都市北区 紫野今宮町 69",
    "code": "hyakumeiten_sweets_west_2020_restaurant_26001669",
    "lat": "35.045354",
    "lng": "135.742789",
    "id": "sweets-257"
  }, {
    "name": "大阪浪花家",
    "url": "https://tabelog.com/osaka/A2701/A270101/27069919/",
    "address": "大阪府 大阪市北区 中崎 1-9-21 平和ビル 1Ｆ",
    "code": "hyakumeiten_sweets_west_2020_restaurant_27069919",
    "lat": "34.707511",
    "lng": "135.507171",
    "id": "sweets-258"
  }, {
    "name": "PATISSERIE LACROIX",
    "url": "https://tabelog.com/hyogo/A2803/A280306/28031988/",
    "address": "兵庫県 伊丹市 伊丹 2-2-18",
    "code": "hyakumeiten_sweets_west_2020_restaurant_28031988",
    "lat": "34.780943",
    "lng": "135.419342",
    "id": "sweets-259"
  }, {
    "name": "洛叉庵",
    "url": "https://tabelog.com/kyoto/A2601/A260503/26012788/",
    "address": "京都府 京都市北区 紫竹下芝本町 22",
    "code": "hyakumeiten_sweets_west_2020_restaurant_26012788",
    "lat": "35.049515",
    "lng": "135.74967",
    "id": "sweets-260"
  }, {
    "name": "かざりや",
    "url": "https://tabelog.com/kyoto/A2601/A260503/26001670/",
    "address": "京都府 京都市北区 紫野今宮町 96",
    "code": "hyakumeiten_sweets_west_2020_restaurant_26001670",
    "lat": "35.045098",
    "lng": "135.74278",
    "id": "sweets-261"
  }, {
    "name": "サロン・ド・テ・アルション 法善寺本店",
    "url": "https://tabelog.com/osaka/A2701/A270202/27001538/",
    "address": "大阪府 大阪市中央区 難波 1-6-20",
    "code": "hyakumeiten_sweets_west_2020_restaurant_27001538",
    "lat": "34.668075",
    "lng": "135.501911",
    "id": "sweets-262"
  }, {
    "name": "クレープスタンド シャンデレール 梅田店",
    "url": "https://tabelog.com/osaka/A2701/A270101/27053125/",
    "address": "大阪府 大阪市北区 鶴野町 1-9 梅田ゲートタワー １Ｆ",
    "code": "hyakumeiten_sweets_west_2020_restaurant_27053125",
    "lat": "34.706771",
    "lng": "135.501094",
    "id": "sweets-263"
  }, {
    "name": "カフェ ラインベック",
    "url": "https://tabelog.com/kyoto/A2601/A260202/26014941/",
    "address": "京都府 京都市上京区 大宮通中立売上ル石薬師町692",
    "code": "hyakumeiten_sweets_west_2020_restaurant_26014941",
    "lat": "35.027616",
    "lng": "135.748919",
    "id": "sweets-264"
  }, {
    "name": "パティシエ・エイジ・ニッタ",
    "url": "https://tabelog.com/hyogo/A2803/A280301/28002149/",
    "address": "兵庫県 西宮市 北口町 8-15",
    "code": "hyakumeiten_sweets_west_2020_restaurant_28002149",
    "lat": "34.748404",
    "lng": "135.357407",
    "id": "sweets-265"
  }, {
    "name": "村上開新堂",
    "url": "https://tabelog.com/kyoto/A2601/A260201/26004753/",
    "address": "京都府 京都市中京区 常盤木町 62",
    "code": "hyakumeiten_sweets_west_2020_restaurant_26004753",
    "lat": "35.013802",
    "lng": "135.767492",
    "id": "sweets-266"
  }, {
    "name": "こちかぜ",
    "url": "https://tabelog.com/osaka/A2701/A270204/27009604/",
    "address": "大阪府 大阪市天王寺区 空清町 2-22",
    "code": "hyakumeiten_sweets_west_2020_restaurant_27009604",
    "lat": "34.672956",
    "lng": "135.524821",
    "id": "sweets-267"
  }, {
    "name": "今西軒",
    "url": "https://tabelog.com/kyoto/A2601/A260201/26002101/",
    "address": "京都府 京都市下京区 烏丸 五条西入ル一筋目下ル横諏訪町312",
    "code": "hyakumeiten_sweets_west_2020_restaurant_26002101",
    "lat": "34.995432",
    "lng": "135.758906",
    "id": "sweets-268"
  }, {
    "name": "サロン・ド・ロワイヤル 京都店",
    "url": "https://tabelog.com/kyoto/A2601/A260202/26021798/",
    "address": "京都府 京都市中京区 木屋町 通り御池上ル上樵木町502 1F",
    "code": "hyakumeiten_sweets_west_2020_restaurant_26021798",
    "lat": "35.011413",
    "lng": "135.771116",
    "id": "sweets-269"
  }, {
    "name": "マツシタキッチン",
    "url": "https://tabelog.com/osaka/A2701/A270204/27066981/",
    "address": "大阪府 大阪市東成区 東小橋 1-18-32",
    "code": "hyakumeiten_sweets_west_2020_restaurant_27066981",
    "lat": "34.671719",
    "lng": "135.532976",
    "id": "sweets-270"
  }, {
    "name": "サロン・ド・テ・ジャマン",
    "url": "https://tabelog.com/osaka/A2706/A270604/27012523/",
    "address": "大阪府 茨木市 別院町 6-45 オダビル 2Ｆ",
    "code": "hyakumeiten_sweets_west_2020_restaurant_27012523",
    "lat": "34.816537",
    "lng": "135.573364",
    "id": "sweets-271"
  }, {
    "name": "ゼンカフェ",
    "url": "https://tabelog.com/kyoto/A2601/A260301/26021305/",
    "address": "京都府 京都市東山区 祇園町南側 570-210",
    "code": "hyakumeiten_sweets_west_2020_restaurant_26021305",
    "lat": "35.003026",
    "lng": "135.773551",
    "id": "sweets-272"
  }, {
    "name": "レ・プティット・パピヨット",
    "url": "https://tabelog.com/osaka/A2701/A270102/27064714/",
    "address": "大阪府 大阪市西区 京町掘1-12-24 OH MILLS京町堀 1F",
    "code": "hyakumeiten_sweets_west_2020_restaurant_27064714",
    "lat": "34.687232",
    "lng": "135.494294",
    "id": "sweets-273"
  }, {
    "name": "遊形 サロン・ド・テ",
    "url": "https://tabelog.com/kyoto/A2601/A260202/26005378/",
    "address": "京都府 京都市中京区 姉小路通麩屋町東入ル北側",
    "code": "hyakumeiten_sweets_west_2020_restaurant_26005378",
    "lat": "35.009936",
    "lng": "135.765839",
    "id": "sweets-274"
  }, {
    "name": "亀末廣",
    "url": "https://tabelog.com/kyoto/A2601/A260202/26000641/",
    "address": "京都府 京都市中京区 姉小路車屋町東入ル車屋町251",
    "code": "hyakumeiten_sweets_west_2020_restaurant_26000641",
    "lat": "35.009972",
    "lng": "135.760369",
    "id": "sweets-275"
  }, {
    "name": "五感 北浜本館",
    "url": "https://tabelog.com/osaka/A2701/A270102/27003404/",
    "address": "大阪府 大阪市中央区 今橋 2-1-1 新井ビル",
    "code": "hyakumeiten_sweets_west_2020_restaurant_27003404",
    "lat": "34.690749",
    "lng": "135.506394",
    "id": "sweets-276"
  }, {
    "name": "ル・ピノー 北堀江本店",
    "url": "https://tabelog.com/osaka/A2701/A270201/27001030/",
    "address": "大阪府 大阪市西区 北堀江 2-4-12 メゾンドエルキタホリエ 1Ｆ",
    "code": "hyakumeiten_sweets_west_2020_restaurant_27001030",
    "lat": "34.672881",
    "lng": "135.492151",
    "id": "sweets-277"
  }, {
    "name": "ル ミュゼ ドゥ アッシュ 和倉店",
    "url": "https://tabelog.com/ishikawa/A1703/A170302/17000223/",
    "address": "石川県 七尾市 和倉町 ワ65-1 辻口博啓美術館",
    "code": "hyakumeiten_sweets_west_2020_restaurant_17000223",
    "lat": "37.09043",
    "lng": "136.916558",
    "id": "sweets-278"
  }, {
    "name": "パスティチュリア・デリチュース 大阪店",
    "url": "https://tabelog.com/osaka/A2701/A270101/27010561/",
    "address": "大阪府 大阪市北区 梅田 3-1-1 JR大阪駅",
    "code": "hyakumeiten_sweets_west_2020_restaurant_27010561",
    "lat": "34.702485",
    "lng": "135.495951",
    "id": "sweets-279"
  }, {
    "name": "カカオサンパカ 大丸梅田店",
    "url": "https://tabelog.com/osaka/A2701/A270101/27055936/",
    "address": "大阪府 大阪市北区 梅田 3-1-1 大丸梅田店 7F",
    "code": "hyakumeiten_sweets_west_2020_restaurant_27055936",
    "lat": "34.701789",
    "lng": "135.496576",
    "id": "sweets-280"
  }, {
    "name": "ラ・ヴァチュール",
    "url": "https://tabelog.com/kyoto/A2601/A260302/26001070/",
    "address": "京都府 京都市左京区 聖護院円頓美町 47-5",
    "code": "hyakumeiten_sweets_west_2020_restaurant_26001070",
    "lat": "35.016469",
    "lng": "135.780232",
    "id": "sweets-281"
  }, {
    "name": "岩村もみじ屋",
    "url": "https://tabelog.com/hiroshima/A3402/A340202/34001087/",
    "address": "広島県 廿日市市 宮島町 中江町304-1",
    "code": "hyakumeiten_sweets_west_2020_restaurant_34001087",
    "lat": "34.29507",
    "lng": "132.320179",
    "id": "sweets-282"
  }, {
    "name": "シェ・アガタ",
    "url": "https://tabelog.com/kyoto/A2607/A260701/26009042/",
    "address": "京都府 宇治市 莵道 谷下り44-11",
    "code": "hyakumeiten_sweets_west_2020_restaurant_26009042",
    "lat": "34.899157",
    "lng": "135.808538",
    "id": "sweets-283"
  }, {
    "name": "木と根",
    "url": "https://tabelog.com/kyoto/A2601/A260201/26005984/",
    "address": "京都府 京都市下京区 燈籠町 589-1 1F",
    "code": "hyakumeiten_sweets_west_2020_restaurant_26005984",
    "lat": "34.999298",
    "lng": "135.760793",
    "id": "sweets-284"
  }, {
    "name": "甘泉堂",
    "url": "https://tabelog.com/kyoto/A2601/A260301/26001392/",
    "address": "京都府 京都市東山区 祇園町344-6",
    "code": "hyakumeiten_sweets_west_2020_restaurant_26001392",
    "lat": "35.004247",
    "lng": "135.77543",
    "id": "sweets-285"
  }, {
    "name": "かしや",
    "url": "https://tabelog.com/kyoto/A2601/A260301/26024343/",
    "address": "京都府 京都市左京区 吉永町 270-3",
    "code": "hyakumeiten_sweets_west_2020_restaurant_26024343",
    "lat": "35.013774",
    "lng": "135.774889",
    "id": "sweets-286"
  }, {
    "name": "松寿軒",
    "url": "https://tabelog.com/kyoto/A2601/A260301/26009387/",
    "address": "京都府 京都市東山区 松原通大和大路西入弓矢町19-12",
    "code": "hyakumeiten_sweets_west_2020_restaurant_26009387",
    "lat": "34.998684",
    "lng": "135.77142",
    "id": "sweets-287"
  }, {
    "name": "白熊菓琲",
    "url": "https://tabelog.com/kagoshima/A4601/A460101/46000044/",
    "address": "鹿児島県 鹿児島市 千日町 5-8 天文館むじゃきビル 1F",
    "code": "hyakumeiten_sweets_west_2020_restaurant_46000044",
    "lat": "31.589238",
    "lng": "130.555969",
    "id": "sweets-288"
  }, {
    "name": "中谷堂",
    "url": "https://tabelog.com/nara/A2901/A290101/29000222/",
    "address": "奈良県 奈良市 橋本町 29",
    "code": "hyakumeiten_sweets_west_2020_restaurant_29000222",
    "lat": "34.681932",
    "lng": "135.828926",
    "id": "sweets-289"
  }, {
    "name": "ミッシェルバッハ",
    "url": "https://tabelog.com/hyogo/A2803/A280301/28001388/",
    "address": "兵庫県 西宮市 久出ケ谷町 2-28",
    "code": "hyakumeiten_sweets_west_2020_restaurant_28001388",
    "lat": "34.745473",
    "lng": "135.327012",
    "id": "sweets-290"
  }, {
    "name": "カフェ フェイト",
    "url": "https://tabelog.com/osaka/A2701/A270103/27076635/",
    "address": "大阪府 大阪市北区 本庄東 1-6-16 メゾン・コンフォート 1F",
    "code": "hyakumeiten_sweets_west_2020_restaurant_27076635",
    "lat": "34.712237",
    "lng": "135.510216",
    "id": "sweets-291"
  }, {
    "name": "ジャック 大濠店",
    "url": "https://tabelog.com/fukuoka/A4001/A400105/40025283/",
    "address": "福岡県 福岡市中央区 荒戸 3丁目2番1号",
    "code": "hyakumeiten_sweets_west_2020_restaurant_40025283",
    "lat": "33.591063",
    "lng": "130.375125",
    "id": "sweets-292"
  }, {
    "name": "みやけ 旧鴻池邸表屋",
    "url": "https://tabelog.com/nara/A2901/A290102/29004637/",
    "address": "奈良県 奈良市 鳥見町 1-5-1",
    "code": "hyakumeiten_sweets_west_2020_restaurant_29004637",
    "lat": "34.692258",
    "lng": "135.728311",
    "id": "sweets-293"
  }, {
    "name": "夢菓房たから",
    "url": "https://tabelog.com/kagawa/A3701/A370101/37003380/",
    "address": "香川県 高松市 春日町 214",
    "code": "hyakumeiten_sweets_west_2020_restaurant_37003380",
    "lat": "34.318511",
    "lng": "134.091627",
    "id": "sweets-294"
  }, {
    "name": "パティスリー ショコラトリー オーディネール",
    "url": "https://tabelog.com/osaka/A2701/A270201/27076593/",
    "address": "大阪府 大阪市西区 南堀江 2-4-16 ファヴール南堀江 1F",
    "code": "hyakumeiten_sweets_west_2020_restaurant_27076593",
    "lat": "34.671075",
    "lng": "135.491884",
    "id": "sweets-295"
  }, {
    "name": "神馬堂",
    "url": "https://tabelog.com/kyoto/A2601/A260503/26000370/",
    "address": "京都府 京都市北区 上賀茂御薗口町 4",
    "code": "hyakumeiten_sweets_west_2020_restaurant_26000370",
    "lat": "35.057841",
    "lng": "135.751414",
    "id": "sweets-296"
  }, {
    "name": "cocoo cafe",
    "url": "https://tabelog.com/osaka/A2701/A270106/27031667/",
    "address": "大阪府 大阪市西区 靭本町2-2-23 靭交番前ビル402",
    "code": "hyakumeiten_sweets_west_2020_restaurant_27031667",
    "lat": "34.684087",
    "lng": "135.492586",
    "id": "sweets-297"
  }, {
    "name": "アンオー",
    "url": "https://tabelog.com/miyazaki/A4501/A450101/45006780/",
    "address": "宮崎県 宮崎市 江平東 1-7-1",
    "code": "hyakumeiten_sweets_west_2020_restaurant_45006780",
    "lat": "31.927362",
    "lng": "131.428522",
    "id": "sweets-298"
  }, {
    "name": "加茂みたらし茶屋",
    "url": "https://tabelog.com/kyoto/A2601/A260503/26001758/",
    "address": "京都府 京都市左京区 下鴨松ノ木町 53",
    "code": "hyakumeiten_sweets_west_2020_restaurant_26001758",
    "lat": "35.039647",
    "lng": "135.770759",
    "id": "sweets-299"
  }]
}
