{
  "shops": [
    {
      "name": "喜慕里",
      "url": "https://tabelog.com/shizuoka/A2202/A220201/22002540/",
      "address": "静岡県浜松市中央区増楽町563-3",
      "code": "hyakumeiten_gyoza_2024_restaurant_22002540",
      "lat": "34.688531",
      "lng": "137.688955",
      "geocode_source": "geocoding_jp",
      "coordinate_level": "city",
      "normalized_address": "静岡県浜松市中央区増楽町563-3",
      "id": "gyoza-0"
    },
    {
      "name": "湖月",
      "url": "https://tabelog.com/oita/A4402/A440202/44000056/",
      "address": "大分県別府市北浜1-9-4",
      "code": "hyakumeiten_gyoza_2024_restaurant_44000056",
      "lat": "33.27895",
      "lng": "131.504974",
      "geocode_source": "abr",
      "coordinate_level": "residential_block",
      "normalized_address": "大分県別府市北浜1丁目9-4",
      "id": "gyoza-1"
    },
    {
      "name": "餃子酒場 一世一代 本店",
      "url": "https://tabelog.com/aichi/A2301/A230103/23073991/",
      "address": "愛知県名古屋市中区栄4-4-9 西新ビル 1F",
      "code": "hyakumeiten_gyoza_2024_restaurant_23073991",
      "lat": "35.168278",
      "lng": "136.91228",
      "geocode_source": "abr",
      "coordinate_level": "residential_block",
      "normalized_address": "愛知県名古屋市中区栄四丁目4-9 西新ビル 1F",
      "id": "gyoza-2"
    },
    {
      "name": "正嗣 宮島本店",
      "url": "https://tabelog.com/tochigi/A0901/A090101/9000046/",
      "address": "栃木県宇都宮市馬場通り4-3-1",
      "code": "hyakumeiten_gyoza_2024_restaurant_9000046",
      "lat": "36.561639097",
      "lng": "139.887741008",
      "geocode_source": "abr",
      "coordinate_level": "residential_detail",
      "normalized_address": "栃木県宇都宮市馬場通り4丁目3-1",
      "id": "gyoza-3"
    },
    {
      "name": "宝雲亭",
      "url": "https://tabelog.com/fukuoka/A4004/A400401/40005085/",
      "address": "福岡県北九州市小倉北区鍛冶町1-5-19",
      "code": "hyakumeiten_gyoza_2024_restaurant_40005085",
      "lat": "33.883255",
      "lng": "130.882985",
      "geocode_source": "geocoding_jp",
      "coordinate_level": "city",
      "normalized_address": "福岡県北九州市小倉北区鍛冶町一丁目5-19",
      "id": "gyoza-4"
    },
    {
      "name": "來々軒",
      "url": "https://tabelog.com/tokyo/A1313/A131303/13098822/",
      "address": "東京都江東区東陽3-21-4 ライオンズマンション 1F",
      "code": "hyakumeiten_gyoza_2024_restaurant_13098822",
      "lat": "35.669137",
      "lng": "139.811466",
      "geocode_source": "geocoding_jp",
      "coordinate_level": "city",
      "normalized_address": "東京都江東区東陽3-21-4 ライオンズマンション 1F",
      "id": "gyoza-5"
    },
    {
      "name": "餃子といえば芭莉龍",
      "url": "https://tabelog.com/tochigi/A0901/A090101/9019556/",
      "address": "栃木県宇都宮市川向町1-23 宇都宮駅ビルパセオ 1F",
      "code": "hyakumeiten_gyoza_2024_restaurant_9019556",
      "lat": "36.560677",
      "lng": "139.89813",
      "geocode_source": "abr",
      "coordinate_level": "residential_block",
      "normalized_address": "栃木県宇都宮市川向町1-23 宇都宮駅ビルパセオ 1F",
      "id": "gyoza-6"
    },
    {
      "name": "ぎょうざの美鈴",
      "url": "https://tabelog.com/mie/A2403/A240301/24000014/",
      "address": "三重県伊勢市宮町1-2-17",
      "code": "hyakumeiten_gyoza_2024_restaurant_24000014",
      "lat": "34.494243",
      "lng": "136.698484",
      "geocode_source": "geocoding_jp",
      "coordinate_level": "city",
      "normalized_address": "三重県伊勢市宮町1丁目2-17",
      "id": "gyoza-7"
    },
    {
      "name": "宇都宮みんみん 本店",
      "url": "https://tabelog.com/tochigi/A0901/A090101/9000045/",
      "address": "栃木県宇都宮市馬場通り4-2-3",
      "code": "hyakumeiten_gyoza_2024_restaurant_9000045",
      "lat": "36.561665547",
      "lng": "139.887326425",
      "geocode_source": "abr",
      "coordinate_level": "residential_detail",
      "normalized_address": "栃木県宇都宮市馬場通り4丁目2-3",
      "id": "gyoza-8"
    },
    {
      "name": "ぎょうざ 歩兵 祇園本店",
      "url": "https://tabelog.com/kyoto/A2601/A260301/26018951/",
      "address": "京都府京都市東山区清本町373-3",
      "code": "hyakumeiten_gyoza_2024_restaurant_26018951",
      "lat": "35.005237",
      "lng": "135.774523",
      "geocode_source": "geocoding_jp",
      "coordinate_level": "prefecture",
      "normalized_address": "京都府京都市東山区清本町373-3",
      "id": "gyoza-9"
    },
    {
      "name": "神餃子",
      "url": "https://tabelog.com/hyogo/A2801/A280101/28053734/",
      "address": "兵庫県神戸市中央区中山手通1-17-6 北野フェニックス 三角マーケット M101",
      "code": "hyakumeiten_gyoza_2024_restaurant_28053734",
      "lat": "34.695307",
      "lng": "135.192042",
      "geocode_source": "geocoding_jp",
      "coordinate_level": "prefecture",
      "normalized_address": "兵庫県神戸市中央区中山手通1-17-6 北野フェニックス 三角マーケット M101",
      "id": "gyoza-10"
    },
    {
      "name": "餃子坊 豚八戒",
      "url": "https://tabelog.com/tokyo/A1319/A131905/13090377/",
      "address": "東京都杉並区阿佐谷南3-37-5",
      "code": "hyakumeiten_gyoza_2024_restaurant_13090377",
      "lat": "35.704434",
      "lng": "139.635802",
      "geocode_source": "abr",
      "coordinate_level": "residential_block",
      "normalized_address": "東京都杉並区阿佐谷南3丁目37-5",
      "id": "gyoza-11"
    },
    {
      "name": "ぎょうざ専門店 赤萬 三宮店",
      "url": "https://tabelog.com/hyogo/A2801/A280101/28004179/",
      "address": "兵庫県神戸市中央区北長狭通2-2-1",
      "code": "hyakumeiten_gyoza_2024_restaurant_28004179",
      "lat": "34.692047",
      "lng": "135.190897",
      "geocode_source": "geocoding_jp",
      "coordinate_level": "prefecture",
      "normalized_address": "兵庫県神戸市中央区北長狭通2-2-1",
      "id": "gyoza-12"
    },
    {
      "name": "雲龍亭 銅座店",
      "url": "https://tabelog.com/nagasaki/A4201/A420101/42008941/",
      "address": "長崎県長崎市銅座町13-11",
      "code": "hyakumeiten_gyoza_2024_restaurant_42008941",
      "lat": "32.74252676",
      "lng": "129.8777316",
      "geocode_source": "abr",
      "coordinate_level": "residential_detail",
      "normalized_address": "長崎県長崎市銅座町13-11",
      "id": "gyoza-13"
    },
    {
      "name": "立山 梅田店",
      "url": "https://tabelog.com/osaka/A2701/A270101/27084060/",
      "address": "大阪府大阪市北区大淀南1-4-19",
      "code": "hyakumeiten_gyoza_2024_restaurant_27084060",
      "lat": "34.703813",
      "lng": "135.489837",
      "geocode_source": "geocoding_jp",
      "coordinate_level": "city",
      "normalized_address": "大阪府大阪市北区大淀南1丁目4-19",
      "id": "gyoza-14"
    },
    {
      "name": "北新地ぎょうざ家 本店",
      "url": "https://tabelog.com/osaka/A2701/A270101/27094628/",
      "address": "大阪府大阪市北区曽根崎新地1-5-7 森ビル 1F",
      "code": "hyakumeiten_gyoza_2024_restaurant_27094628",
      "lat": "34.697735",
      "lng": "135.49726",
      "geocode_source": "geocoding_jp",
      "coordinate_level": "city",
      "normalized_address": "大阪府大阪市北区曽根崎新地1-5-7 森ビル 1F",
      "id": "gyoza-15"
    },
    {
      "name": "ぎょうざ専門店 赤萬 元町店",
      "url": "https://tabelog.com/hyogo/A2801/A280102/28002361/",
      "address": "兵庫県神戸市中央区元町通1-11-10",
      "code": "hyakumeiten_gyoza_2024_restaurant_28002361",
      "lat": "34.689751",
      "lng": "135.188864",
      "geocode_source": "geocoding_jp",
      "coordinate_level": "prefecture",
      "normalized_address": "兵庫県神戸市中央区元町通1-11-10",
      "id": "gyoza-16"
    },
    {
      "name": "いまどき安兵衛",
      "url": "https://tabelog.com/kochi/A3901/A390101/39000134/",
      "address": "高知県高知市はりまや町2-7-6",
      "code": "hyakumeiten_gyoza_2024_restaurant_39000134",
      "lat": "33.561984",
      "lng": "133.544177",
      "geocode_source": "geocoding_jp",
      "coordinate_level": "city",
      "normalized_address": "高知県高知市はりまや町2-7-6",
      "id": "gyoza-17"
    },
    {
      "name": "博多祇園鉄なべ",
      "url": "https://tabelog.com/fukuoka/A4001/A400101/40000836/",
      "address": "福岡県福岡市博多区祇園町2-20",
      "code": "hyakumeiten_gyoza_2024_restaurant_40000836",
      "lat": "33.592626",
      "lng": "130.414231",
      "geocode_source": "geocoding_jp",
      "coordinate_level": "city",
      "normalized_address": "福岡県福岡市博多区祇園町2-20",
      "id": "gyoza-18"
    },
    {
      "name": "屋台安兵衛",
      "url": "https://tabelog.com/kochi/A3901/A390101/39000019/",
      "address": "高知県高知市廿代町4-19",
      "code": "hyakumeiten_gyoza_2024_restaurant_39000019",
      "lat": "33.563238",
      "lng": "133.540959",
      "geocode_source": "geocoding_jp",
      "coordinate_level": "city",
      "normalized_address": "高知県高知市廿代町4-19",
      "id": "gyoza-19"
    },
    {
      "name": "おけ以",
      "url": "https://tabelog.com/tokyo/A1309/A130905/13000410/",
      "address": "東京都千代田区富士見2-12-16",
      "code": "hyakumeiten_gyoza_2024_restaurant_13000410",
      "lat": "35.698522",
      "lng": "139.744584",
      "geocode_source": "abr",
      "coordinate_level": "residential_block",
      "normalized_address": "東京都千代田区富士見二丁目12-16",
      "id": "gyoza-20"
    },
    {
      "name": "餃子のだんちゃん　三国亭 八幡筋店",
      "url": "https://tabelog.com/osaka/A2701/A270201/27050894/",
      "address": "大阪府大阪市中央区東心斎橋2-1-15 八千代会館1F",
      "code": "hyakumeiten_gyoza_2024_restaurant_27050894",
      "lat": "34.671158",
      "lng": "135.505391",
      "geocode_source": "geocoding_jp",
      "coordinate_level": "city",
      "normalized_address": "大阪府大阪市中央区東心斎橋2丁目1-15 八千代会館1F",
      "id": "gyoza-21"
    },
    {
      "name": "東京餃子楼 三軒茶屋店",
      "url": "https://tabelog.com/tokyo/A1317/A131706/13004530/",
      "address": "東京都世田谷区太子堂4-4-2 ラウスパレス三軒茶屋",
      "code": "hyakumeiten_gyoza_2024_restaurant_13004530",
      "lat": "35.643367",
      "lng": "139.667684",
      "geocode_source": "abr",
      "coordinate_level": "residential_block",
      "normalized_address": "東京都世田谷区太子堂4丁目4-2 ラウスパレス 三軒茶屋",
      "id": "gyoza-22"
    },
    {
      "name": "ぎょうざ 娘娘",
      "url": "https://tabelog.com/fukuoka/A4008/A400801/40017925/",
      "address": "福岡県久留米市六ツ門町10-34",
      "code": "hyakumeiten_gyoza_2024_restaurant_40017925",
      "lat": "33.31299",
      "lng": "130.514129",
      "geocode_source": "geocoding_jp",
      "coordinate_level": "city",
      "normalized_address": "福岡県久留米市六ツ門町10-34",
      "id": "gyoza-23"
    },
    {
      "name": "清ちゃん",
      "url": "https://tabelog.com/hiroshima/A3401/A340110/34004387/",
      "address": "広島県広島市中区銀山町13-11",
      "code": "hyakumeiten_gyoza_2024_restaurant_34004387",
      "lat": "34.390761",
      "lng": "132.466473",
      "geocode_source": "geocoding_jp",
      "coordinate_level": "city",
      "normalized_address": "広島県広島市中区銀山町13-11",
      "id": "gyoza-24"
    },
    {
      "name": "餃子とスパークリング バブルス",
      "url": "https://tabelog.com/aichi/A2301/A230102/23068000/",
      "address": "愛知県名古屋市中区栄2-1-12 ダイアパレス伏見 1F",
      "code": "hyakumeiten_gyoza_2024_restaurant_23068000",
      "lat": "35.167659",
      "lng": "136.898139",
      "geocode_source": "abr",
      "coordinate_level": "residential_block",
      "normalized_address": "愛知県名古屋市中区栄二丁目1-12 ダイアパレス伏見 1F",
      "id": "gyoza-25"
    },
    {
      "name": "横堀餃子",
      "url": "https://tabelog.com/saitama/A1102/A110205/11039302/",
      "address": "埼玉県三郷市三郷1-6-9",
      "code": "hyakumeiten_gyoza_2024_restaurant_11039302",
      "lat": "35.842648",
      "lng": "139.885478",
      "geocode_source": "geocoding_jp",
      "coordinate_level": "city",
      "normalized_address": "埼玉県三郷市三郷1丁目6-9",
      "id": "gyoza-26"
    },
    {
      "name": "餃子の王さま",
      "url": "https://tabelog.com/tokyo/A1311/A131102/13016814/",
      "address": "東京都台東区浅草1-30-8",
      "code": "hyakumeiten_gyoza_2024_restaurant_13016814",
      "lat": "35.711985",
      "lng": "139.796517",
      "geocode_source": "abr",
      "coordinate_level": "residential_block",
      "normalized_address": "東京都台東区浅草1丁目30-8",
      "id": "gyoza-27"
    },
    {
      "name": "餃天堂 シンボルロード店",
      "url": "https://tabelog.com/tochigi/A0901/A090101/9020423/",
      "address": "栃木県宇都宮市池上町1-11",
      "code": "hyakumeiten_gyoza_2024_restaurant_9020423",
      "lat": "36.561062189",
      "lng": "139.883136097",
      "geocode_source": "abr",
      "coordinate_level": "residential_detail",
      "normalized_address": "栃木県宇都宮市池上町1-11",
      "id": "gyoza-28"
    },
    {
      "name": "亜細亜割烹 蓮月",
      "url": "https://tabelog.com/tokyo/A1307/A130701/13182912/",
      "address": "東京都港区南青山1-23-7 Grange南青山 101",
      "code": "hyakumeiten_gyoza_2024_restaurant_13182912",
      "lat": "35.666604",
      "lng": "139.724997",
      "geocode_source": "abr",
      "coordinate_level": "residential_block",
      "normalized_address": "東京都港区南青山1丁目23-7 Grange南青山 101",
      "id": "gyoza-29"
    },
    {
      "name": "宝雲亭 本店 とり福",
      "url": "https://tabelog.com/nagasaki/A4201/A420101/42011927/",
      "address": "長崎県長崎市銅座町8-9",
      "code": "hyakumeiten_gyoza_2024_restaurant_42011927",
      "lat": "32.74212017",
      "lng": "129.8777751",
      "geocode_source": "abr",
      "coordinate_level": "residential_detail",
      "normalized_address": "長崎県長崎市銅座町8-9",
      "id": "gyoza-30"
    },
    {
      "name": "横浜とんとん",
      "url": "https://tabelog.com/kanagawa/A1401/A140301/14003956/",
      "address": "神奈川県横浜市保土ケ谷区星川1-15-27",
      "code": "hyakumeiten_gyoza_2024_restaurant_14003956",
      "lat": "35.455236",
      "lng": "139.592751",
      "geocode_source": "geocoding_jp",
      "coordinate_level": "city",
      "normalized_address": "神奈川県横浜市保土ケ谷区星川一丁目15-27",
      "id": "gyoza-31"
    },
    {
      "name": "丸正餃子店 第2阪奈店",
      "url": "https://tabelog.com/osaka/A2707/A270704/27013042/",
      "address": "大阪府大東市扇町5-2",
      "code": "hyakumeiten_gyoza_2024_restaurant_27013042",
      "lat": "34.703252",
      "lng": "135.618917",
      "geocode_source": "geocoding_jp",
      "coordinate_level": "city",
      "normalized_address": "大阪府大東市扇町5-2",
      "id": "gyoza-32"
    },
    {
      "name": "旭軒 駅前本店",
      "url": "https://tabelog.com/fukuoka/A4001/A400101/40000204/",
      "address": "福岡県福岡市博多区博多駅前2-15-22",
      "code": "hyakumeiten_gyoza_2024_restaurant_40000204",
      "lat": "33.590558",
      "lng": "130.416612",
      "geocode_source": "geocoding_jp",
      "coordinate_level": "city",
      "normalized_address": "福岡県福岡市博多区博多駅前2-15-22",
      "id": "gyoza-33"
    },
    {
      "name": "餃子マニア 品川本店",
      "url": "https://tabelog.com/tokyo/A1314/A131403/13247755/",
      "address": "東京都港区高輪4-11-16 京急第11ビル 2F",
      "code": "hyakumeiten_gyoza_2024_restaurant_13247755",
      "lat": "35.626937",
      "lng": "139.736077",
      "geocode_source": "abr",
      "coordinate_level": "residential_block",
      "normalized_address": "東京都港区高輪4丁目11-16 京急第11ビル 2F",
      "id": "gyoza-34"
    },
    {
      "name": "大阪王 伊丹店",
      "url": "https://tabelog.com/hyogo/A2803/A280306/28003444/",
      "address": "兵庫県伊丹市中央1丁目9-16",
      "code": "hyakumeiten_gyoza_2024_restaurant_28003444",
      "lat": "34.779645",
      "lng": "135.41552",
      "geocode_source": "geocoding_jp",
      "coordinate_level": "prefecture",
      "normalized_address": "兵庫県伊丹市中央1丁目9-16",
      "id": "gyoza-35"
    },
    {
      "name": "えびすの安兵衛",
      "url": "https://tabelog.com/tokyo/A1303/A130302/13117106/",
      "address": "東京都渋谷区恵比寿4-9-15 荻原ビル5 1F",
      "code": "hyakumeiten_gyoza_2024_restaurant_13117106",
      "lat": "35.645864",
      "lng": "139.713693",
      "geocode_source": "abr",
      "coordinate_level": "residential_block",
      "normalized_address": "東京都渋谷区恵比寿4丁目9-15 荻原ビル5 1F",
      "id": "gyoza-36"
    },
    {
      "name": "生餃子製造トコロ てんしんのきもち",
      "url": "https://tabelog.com/osaka/A2701/A270401/27121713/",
      "address": "大阪府大阪市大正区三軒家西1-2-11",
      "code": "hyakumeiten_gyoza_2024_restaurant_27121713",
      "lat": "34.66641",
      "lng": "135.478744",
      "geocode_source": "geocoding_jp",
      "coordinate_level": "city",
      "normalized_address": "大阪府大阪市大正区三軒家西1丁目2-11",
      "id": "gyoza-37"
    },
    {
      "name": "王香",
      "url": "https://tabelog.com/fukuoka/A4007/A400702/40006702/",
      "address": "福岡県飯塚市内住2778-3",
      "code": "hyakumeiten_gyoza_2024_restaurant_40006702",
      "lat": "33.595725906",
      "lng": "130.582017371",
      "geocode_source": "abr",
      "coordinate_level": "parcel",
      "normalized_address": "福岡県飯塚市内住2778-3",
      "id": "gyoza-38"
    },
    {
      "name": "餃子のラスベガス",
      "url": "https://tabelog.com/fukuoka/A4001/A400104/40049220/",
      "address": "福岡県福岡市中央区大名1-2-15 GF SQUARE大名 1F",
      "code": "hyakumeiten_gyoza_2024_restaurant_40049220",
      "lat": "33.58551",
      "lng": "130.394053",
      "geocode_source": "geocoding_jp",
      "coordinate_level": "city",
      "normalized_address": "福岡県福岡市中央区大名1丁目2-15 GF SQUARE大名 1F",
      "id": "gyoza-39"
    },
    {
      "name": "小白",
      "url": "https://tabelog.com/shizuoka/A2202/A220201/22002680/",
      "address": "静岡県浜松市中央区古川町269-2",
      "code": "hyakumeiten_gyoza_2024_restaurant_22002680",
      "lat": "34.689787",
      "lng": "137.775484",
      "geocode_source": "geocoding_jp",
      "coordinate_level": "city",
      "normalized_address": "静岡県浜松市中央区古川町269-2",
      "id": "gyoza-40"
    },
    {
      "name": "宝雲亭",
      "url": "https://tabelog.com/fukuoka/A4001/A400102/40000125/",
      "address": "福岡県福岡市博多区中洲2-4-20",
      "code": "hyakumeiten_gyoza_2024_restaurant_40000125",
      "lat": "33.591647",
      "lng": "130.407861",
      "geocode_source": "geocoding_jp",
      "coordinate_level": "city",
      "normalized_address": "福岡県福岡市博多区中洲2-4-20",
      "id": "gyoza-41"
    },
    {
      "name": "ぎょうざ処 高辻 亮昌 本店",
      "url": "https://tabelog.com/kyoto/A2601/A260201/26017170/",
      "address": "京都府京都市下京区堀之内町263 １Ｆ",
      "code": "hyakumeiten_gyoza_2024_restaurant_26017170",
      "lat": "35.000271",
      "lng": "135.755427",
      "geocode_source": "geocoding_jp",
      "coordinate_level": "prefecture",
      "normalized_address": "京都府京都市下京区堀之内町263 1F",
      "id": "gyoza-42"
    },
    {
      "name": "按田餃子 代々木上原店",
      "url": "https://tabelog.com/tokyo/A1318/A131811/13140146/",
      "address": "東京都渋谷区西原3-21-2 1F",
      "code": "hyakumeiten_gyoza_2024_restaurant_13140146",
      "lat": "35.670639",
      "lng": "139.681786",
      "geocode_source": "abr",
      "coordinate_level": "residential_block",
      "normalized_address": "東京都渋谷区西原3丁目21-2 1F",
      "id": "gyoza-43"
    },
    {
      "name": "ミスター・ギョーザ",
      "url": "https://tabelog.com/kyoto/A2601/A260604/26000028/",
      "address": "京都府京都市南区唐橋高田町42",
      "code": "hyakumeiten_gyoza_2024_restaurant_26000028",
      "lat": "34.979619",
      "lng": "135.741605",
      "geocode_source": "geocoding_jp",
      "coordinate_level": "prefecture",
      "normalized_address": "京都府京都市南区唐橋高田町42",
      "id": "gyoza-44"
    },
    {
      "name": "いづみ",
      "url": "https://tabelog.com/fukuoka/A4004/A400404/40000349/",
      "address": "福岡県北九州市八幡西区黒崎3-5-10",
      "code": "hyakumeiten_gyoza_2024_restaurant_40000349",
      "lat": "33.865068",
      "lng": "130.764278",
      "geocode_source": "geocoding_jp",
      "coordinate_level": "city",
      "normalized_address": "福岡県北九州市八幡西区黒崎三丁目5-10",
      "id": "gyoza-45"
    },
    {
      "name": "天一",
      "url": "https://tabelog.com/aichi/A2301/A230113/23008880/",
      "address": "愛知県名古屋市西区天塚町1丁目73-2 レインボー天塚1Ｆ",
      "code": "hyakumeiten_gyoza_2024_restaurant_23008880",
      "lat": "35.200744",
      "lng": "136.895903",
      "geocode_source": "geocoding_jp",
      "coordinate_level": "city",
      "normalized_address": "愛知県名古屋市西区天塚町一丁目73-2 レインボー天塚1F",
      "id": "gyoza-46"
    },
    {
      "name": "丸正餃子店 本店",
      "url": "https://tabelog.com/osaka/A2707/A270704/27003163/",
      "address": "大阪府大東市三住町1-35",
      "code": "hyakumeiten_gyoza_2024_restaurant_27003163",
      "lat": "34.710338",
      "lng": "135.622611",
      "geocode_source": "geocoding_jp",
      "coordinate_level": "city",
      "normalized_address": "大阪府大東市三住町1-35",
      "id": "gyoza-47"
    },
    {
      "name": "ぎょうざ大学",
      "url": "https://tabelog.com/hyogo/A2801/A280102/28001632/",
      "address": "兵庫県神戸市中央区元町通2-3-5",
      "code": "hyakumeiten_gyoza_2024_restaurant_28001632",
      "lat": "34.688097",
      "lng": "135.187274",
      "geocode_source": "geocoding_jp",
      "coordinate_level": "prefecture",
      "normalized_address": "兵庫県神戸市中央区元町通2-3-5",
      "id": "gyoza-48"
    },
    {
      "name": "百老亭 今池店",
      "url": "https://tabelog.com/aichi/A2301/A230106/23029601/",
      "address": "愛知県名古屋市千種区今池1-13-12",
      "code": "hyakumeiten_gyoza_2024_restaurant_23029601",
      "lat": "35.168296",
      "lng": "136.935913",
      "geocode_source": "abr",
      "coordinate_level": "residential_block",
      "normalized_address": "愛知県名古屋市千種区今池一丁目13-12",
      "id": "gyoza-49"
    },
    {
      "name": "餃子のハルピン",
      "url": "https://tabelog.com/tokyo/A1320/A132002/13005875/",
      "address": "東京都三鷹市下連雀3-31-8",
      "code": "hyakumeiten_gyoza_2024_restaurant_13005875",
      "lat": "35.69801",
      "lng": "139.560832",
      "geocode_source": "abr",
      "coordinate_level": "residential_block",
      "normalized_address": "東京都三鷹市下連雀3丁目31-8",
      "id": "gyoza-50"
    },
    {
      "name": "岐州",
      "url": "https://tabelog.com/gifu/A2101/A210101/21001121/",
      "address": "岐阜県岐阜市住田町1-31 マツノビル １Ｆ",
      "code": "hyakumeiten_gyoza_2024_restaurant_21001121",
      "lat": "35.411605",
      "lng": "136.757952",
      "geocode_source": "geocoding_jp",
      "coordinate_level": "city",
      "normalized_address": "岐阜県岐阜市住田町1丁目31 マツノビル 1F",
      "id": "gyoza-51"
    },
    {
      "name": "餃子専門店 祥雲",
      "url": "https://tabelog.com/hyogo/A2801/A280101/28006275/",
      "address": "兵庫県神戸市中央区加納町4-8-19 北上ホテル１Ｆ",
      "code": "hyakumeiten_gyoza_2024_restaurant_28006275",
      "lat": "34.696389",
      "lng": "135.192778",
      "geocode_source": "geocoding_jp",
      "coordinate_level": "prefecture",
      "normalized_address": "兵庫県神戸市中央区加納町4-8-19 北上ホテル1F",
      "id": "gyoza-52"
    },
    {
      "name": "五十番",
      "url": "https://tabelog.com/fukuoka/A4008/A400801/40007271/",
      "address": "福岡県久留米市東町34-42",
      "code": "hyakumeiten_gyoza_2024_restaurant_40007271",
      "lat": "33.312916",
      "lng": "130.519071",
      "geocode_source": "geocoding_jp",
      "coordinate_level": "city",
      "normalized_address": "福岡県久留米市東町34-42",
      "id": "gyoza-53"
    },
    {
      "name": "餃子の店 もも",
      "url": "https://tabelog.com/osaka/A2701/A270203/27008027/",
      "address": "大阪府大阪市阿倍野区阪南町1-46-8",
      "code": "hyakumeiten_gyoza_2024_restaurant_27008027",
      "lat": "34.634063",
      "lng": "135.516375",
      "geocode_source": "geocoding_jp",
      "coordinate_level": "city",
      "normalized_address": "大阪府大阪市阿倍野区阪南町1丁目46-8",
      "id": "gyoza-54"
    },
    {
      "name": "きよ",
      "url": "https://tabelog.com/shizuoka/A2202/A220201/22000103/",
      "address": "静岡県浜松市中央区鴨江1-33-5",
      "code": "hyakumeiten_gyoza_2024_restaurant_22000103",
      "lat": "34.702599",
      "lng": "137.719501",
      "geocode_source": "geocoding_jp",
      "coordinate_level": "city",
      "normalized_address": "静岡県浜松市中央区鴨江1丁目33-5",
      "id": "gyoza-55"
    },
    {
      "name": "新ちゃん",
      "url": "https://tabelog.com/hyogo/A2803/A280304/28027880/",
      "address": "兵庫県尼崎市東桜木町96",
      "code": "hyakumeiten_gyoza_2024_restaurant_28027880",
      "lat": "34.717078",
      "lng": "135.412888",
      "geocode_source": "geocoding_jp",
      "coordinate_level": "prefecture",
      "normalized_address": "兵庫県尼崎市東桜木町96",
      "id": "gyoza-56"
    },
    {
      "name": "東亭",
      "url": "https://tabelog.com/tokyo/A1305/A130501/13008958/",
      "address": "東京都豊島区東池袋2-50-13",
      "code": "hyakumeiten_gyoza_2024_restaurant_13008958",
      "lat": "35.732572",
      "lng": "139.719701",
      "geocode_source": "abr",
      "coordinate_level": "residential_block",
      "normalized_address": "東京都豊島区東池袋2丁目50-13",
      "id": "gyoza-57"
    },
    {
      "name": "雲龍亭 本店",
      "url": "https://tabelog.com/nagasaki/A4201/A420101/42000060/",
      "address": "長崎県長崎市本石灰町2-15",
      "code": "hyakumeiten_gyoza_2024_restaurant_42000060",
      "lat": "32.74261947",
      "lng": "129.8797258",
      "geocode_source": "abr",
      "coordinate_level": "residential_detail",
      "normalized_address": "長崎県長崎市本石灰町2-15",
      "id": "gyoza-58"
    },
    {
      "name": "您好",
      "url": "https://tabelog.com/tokyo/A1318/A131807/13001812/",
      "address": "東京都渋谷区西原2-27-4 升本酒店 ２Ｆ",
      "code": "hyakumeiten_gyoza_2024_restaurant_13001812",
      "lat": "35.675024",
      "lng": "139.678328",
      "geocode_source": "abr",
      "coordinate_level": "residential_block",
      "normalized_address": "東京都渋谷区西原2丁目27-4 升本酒店 2F",
      "id": "gyoza-59"
    },
    {
      "name": "香蘭",
      "url": "https://tabelog.com/tochigi/A0901/A090101/9010705/",
      "address": "栃木県宇都宮市本町1-24",
      "code": "hyakumeiten_gyoza_2024_restaurant_9010705",
      "lat": "36.562645256",
      "lng": "139.882322208",
      "geocode_source": "abr",
      "coordinate_level": "residential_detail",
      "normalized_address": "栃木県宇都宮市本町1-24",
      "id": "gyoza-60"
    },
    {
      "name": "モトイギョーザ",
      "url": "https://tabelog.com/kyoto/A2601/A260201/26035067/",
      "address": "京都府京都市中京区柳馬場錦小路下ル瀬戸屋町470-2",
      "code": "hyakumeiten_gyoza_2024_restaurant_26035067",
      "lat": "35.004719",
      "lng": "135.763891",
      "geocode_source": "geocoding_jp",
      "coordinate_level": "prefecture",
      "normalized_address": "京都府京都市中京区柳馬場錦小路下ル瀬戸屋町470-2",
      "id": "gyoza-61"
    },
    {
      "name": "野方餃子",
      "url": "https://tabelog.com/tokyo/A1321/A132104/13154377/",
      "address": "東京都中野区野方6-18-8 杉山ビル 1Ｆ",
      "code": "hyakumeiten_gyoza_2024_restaurant_13154377",
      "lat": "35.722818",
      "lng": "139.652361",
      "geocode_source": "abr",
      "coordinate_level": "residential_block",
      "normalized_address": "東京都中野区野方6丁目18-8 杉山ビル 1F",
      "id": "gyoza-62"
    },
    {
      "name": "香蘭 宇都宮駅西口店",
      "url": "https://tabelog.com/tochigi/A0901/A090101/9020129/",
      "address": "栃木県宇都宮市駅前通り1-5-9",
      "code": "hyakumeiten_gyoza_2024_restaurant_9020129",
      "lat": "36.559427869",
      "lng": "139.896977622",
      "geocode_source": "abr",
      "coordinate_level": "residential_detail",
      "normalized_address": "栃木県宇都宮市駅前通り1丁目5-9",
      "id": "gyoza-63"
    },
    {
      "name": "餃子 すぐるや",
      "url": "https://tabelog.com/hokkaido/A0101/A010103/1006201/",
      "address": "北海道札幌市中央区南6条西3丁目 ニュー公楽１階",
      "code": "hyakumeiten_gyoza_2024_restaurant_1006201",
      "lat": "43.055543",
      "lng": "141.349614",
      "geocode_source": "geocoding_jp",
      "coordinate_level": "prefecture",
      "normalized_address": "北海道札幌市中央区南6条西3 ニュー公楽1階",
      "id": "gyoza-64"
    },
    {
      "name": "たつみ",
      "url": "https://tabelog.com/aichi/A2301/A230104/23053109/",
      "address": "愛知県名古屋市中区新栄2-8-13 シャトー秋月 1F",
      "code": "hyakumeiten_gyoza_2024_restaurant_23053109",
      "lat": "35.168598",
      "lng": "136.922866",
      "geocode_source": "abr",
      "coordinate_level": "residential_block",
      "normalized_address": "愛知県名古屋市中区新栄二丁目8-13 シャトー秋月 1F",
      "id": "gyoza-65"
    },
    {
      "name": "ひとくち餃子てん屋",
      "url": "https://tabelog.com/fukuoka/A4008/A400801/40009190/",
      "address": "福岡県久留米市六ツ門町22-36",
      "code": "hyakumeiten_gyoza_2024_restaurant_40009190",
      "lat": "33.313642",
      "lng": "130.51488",
      "geocode_source": "geocoding_jp",
      "coordinate_level": "city",
      "normalized_address": "福岡県久留米市六ツ門町22-36",
      "id": "gyoza-66"
    },
    {
      "name": "北新地 ふか",
      "url": "https://tabelog.com/osaka/A2701/A270101/27135796/",
      "address": "大阪府大阪市北区堂島浜1-3-22 ビル 堂島タウン B1F",
      "code": "hyakumeiten_gyoza_2024_restaurant_27135796",
      "lat": "34.696633",
      "lng": "135.498001",
      "geocode_source": "geocoding_jp",
      "coordinate_level": "city",
      "normalized_address": "大阪府大阪市北区堂島浜1丁目3-22 ビル 堂島タウン B1F",
      "id": "gyoza-67"
    },
    {
      "name": "龍門",
      "url": "https://tabelog.com/tokyo/A1315/A131504/13017770/",
      "address": "東京都大田区西糀谷3-35-3",
      "code": "hyakumeiten_gyoza_2024_restaurant_13017770",
      "lat": "35.553296",
      "lng": "139.739139",
      "geocode_source": "abr",
      "coordinate_level": "residential_block",
      "normalized_address": "東京都大田区西糀谷三丁目35-3",
      "id": "gyoza-68"
    },
    {
      "name": "萬里",
      "url": "https://tabelog.com/kanagawa/A1401/A140102/14006776/",
      "address": "神奈川県横浜市中区野毛町2-71",
      "code": "hyakumeiten_gyoza_2024_restaurant_14006776",
      "lat": "35.448501",
      "lng": "139.630256",
      "geocode_source": "geocoding_jp",
      "coordinate_level": "city",
      "normalized_address": "神奈川県横浜市中区野毛町2丁目71",
      "id": "gyoza-69"
    },
    {
      "name": "PAIRON 飯田橋本店",
      "url": "https://tabelog.com/tokyo/A1309/A130905/13127427/",
      "address": "東京都新宿区新小川町8-32",
      "code": "hyakumeiten_gyoza_2024_restaurant_13127427",
      "lat": "35.705843",
      "lng": "139.741498",
      "geocode_source": "geocoding_jp",
      "coordinate_level": "city",
      "normalized_address": "東京都新宿区新小川町8-32",
      "id": "gyoza-70"
    },
    {
      "name": "ひろめで安兵衛",
      "url": "https://tabelog.com/kochi/A3901/A390101/39000464/",
      "address": "高知県高知市帯屋町2-3-1 ひろめ市場",
      "code": "hyakumeiten_gyoza_2024_restaurant_39000464",
      "lat": "33.560116",
      "lng": "133.535937",
      "geocode_source": "geocoding_jp",
      "coordinate_level": "city",
      "normalized_address": "高知県高知市帯屋町2-3-1 ひろめ市場",
      "id": "gyoza-71"
    },
    {
      "name": "餃子屋 満園 三宮店（1号店）",
      "url": "https://tabelog.com/hyogo/A2801/A280102/28023397/",
      "address": "兵庫県神戸市中央区三宮町2-11-1 センタープラザ西館 1F",
      "code": "hyakumeiten_gyoza_2024_restaurant_28023397",
      "lat": "34.691288",
      "lng": "135.192216",
      "geocode_source": "geocoding_jp",
      "coordinate_level": "prefecture",
      "normalized_address": "兵庫県神戸市中央区三宮町2-11-1 センタープラザ西館 1F",
      "id": "gyoza-72"
    },
    {
      "name": "福みつ",
      "url": "https://tabelog.com/shizuoka/A2202/A220201/22001373/",
      "address": "静岡県浜松市中央区佐藤1-25-8",
      "code": "hyakumeiten_gyoza_2024_restaurant_22001373",
      "lat": "34.713329",
      "lng": "137.745415",
      "geocode_source": "geocoding_jp",
      "coordinate_level": "city",
      "normalized_address": "静岡県浜松市中央区佐藤1丁目25-8",
      "id": "gyoza-73"
    },
    {
      "name": "亀戸餃子 本店",
      "url": "https://tabelog.com/tokyo/A1312/A131202/13003078/",
      "address": "東京都江東区亀戸5-3-4",
      "code": "hyakumeiten_gyoza_2024_restaurant_13003078",
      "lat": "35.698668",
      "lng": "139.82624",
      "geocode_source": "geocoding_jp",
      "coordinate_level": "city",
      "normalized_address": "東京都江東区亀戸5-3-4",
      "id": "gyoza-74"
    },
    {
      "name": "夜来香",
      "url": "https://tabelog.com/iwate/A0302/A030201/3004285/",
      "address": "岩手県花巻市双葉町3-3",
      "code": "hyakumeiten_gyoza_2024_restaurant_3004285",
      "lat": "39.38507",
      "lng": "141.116094",
      "geocode_source": "geocoding_jp",
      "coordinate_level": "city",
      "normalized_address": "岩手県花巻市双葉町3-3",
      "id": "gyoza-75"
    },
    {
      "name": "黒兵衛",
      "url": "https://tabelog.com/miyazaki/A4505/A450501/45001424/",
      "address": "宮崎県延岡市新町2-3",
      "code": "hyakumeiten_gyoza_2024_restaurant_45001424",
      "lat": "32.580618",
      "lng": "131.669604",
      "geocode_source": "geocoding_jp",
      "coordinate_level": "prefecture",
      "normalized_address": "宮崎県延岡市新町2-3",
      "id": "gyoza-76"
    },
    {
      "name": "幸楽",
      "url": "https://tabelog.com/tochigi/A0901/A090101/9001322/",
      "address": "栃木県宇都宮市宝木町2-864-4",
      "code": "hyakumeiten_gyoza_2024_restaurant_9001322",
      "lat": "36.580586873",
      "lng": "139.841991513",
      "geocode_source": "abr",
      "coordinate_level": "parcel",
      "normalized_address": "栃木県宇都宮市宝木町2丁目864-4",
      "id": "gyoza-77"
    },
    {
      "name": "香凛",
      "url": "https://tabelog.com/oita/A4402/A440202/44008481/",
      "address": "大分県別府市元町10-1",
      "code": "hyakumeiten_gyoza_2024_restaurant_44008481",
      "lat": "33.277856",
      "lng": "131.505237",
      "geocode_source": "abr",
      "coordinate_level": "residential_block",
      "normalized_address": "大分県別府市元町10-1",
      "id": "gyoza-78"
    },
    {
      "name": "むつぎく",
      "url": "https://tabelog.com/shizuoka/A2202/A220201/22021065/",
      "address": "静岡県浜松市中央区砂山町356-5",
      "code": "hyakumeiten_gyoza_2024_restaurant_22021065",
      "lat": "34.701893",
      "lng": "137.734944",
      "geocode_source": "geocoding_jp",
      "coordinate_level": "city",
      "normalized_address": "静岡県浜松市中央区砂山町356-5",
      "id": "gyoza-79"
    },
    {
      "name": "亀戸ぎょうざ 両国支店",
      "url": "https://tabelog.com/tokyo/A1312/A131201/13039735/",
      "address": "東京都墨田区両国4-34-10",
      "code": "hyakumeiten_gyoza_2024_restaurant_13039735",
      "lat": "35.695024",
      "lng": "139.797305",
      "geocode_source": "geocoding_jp",
      "coordinate_level": "city",
      "normalized_address": "東京都墨田区両国4-34-10",
      "id": "gyoza-80"
    },
    {
      "name": "キリン",
      "url": "https://tabelog.com/hokkaido/A0101/A010103/1047534/",
      "address": "北海道札幌市中央区南3条西6 狸小路市場",
      "code": "hyakumeiten_gyoza_2024_restaurant_1047534",
      "lat": "43.056403",
      "lng": "141.349361",
      "geocode_source": "geocoding_jp",
      "coordinate_level": "prefecture",
      "normalized_address": "北海道札幌市中央区南3条西6 狸小路市場",
      "id": "gyoza-81"
    },
    {
      "name": "手作り餃子の店 吉春",
      "url": "https://tabelog.com/tokyo/A1326/A132601/13254805/",
      "address": "東京都調布市国領町8-1-14",
      "code": "hyakumeiten_gyoza_2024_restaurant_13254805",
      "lat": "35.646543",
      "lng": "139.561915",
      "geocode_source": "geocoding_jp",
      "coordinate_level": "city",
      "normalized_address": "東京都調布市国領町8丁目1-14",
      "id": "gyoza-82"
    },
    {
      "name": "ぎょうざ登",
      "url": "https://tabelog.com/fukushima/A0703/A070303/7007858/",
      "address": "福島県西白河郡西郷村道南西42",
      "code": "hyakumeiten_gyoza_2024_restaurant_7007858",
      "lat": "37.123863",
      "lng": "140.184466",
      "geocode_source": "geocoding_jp",
      "coordinate_level": "city",
      "normalized_address": "福島県西白河郡西郷村道南西42",
      "id": "gyoza-83"
    },
    {
      "name": "ぎょうざの店 ひょうたん 三宮店",
      "url": "https://tabelog.com/hyogo/A2801/A280101/28000495/",
      "address": "兵庫県神戸市中央区北長狭通1-31-37",
      "code": "hyakumeiten_gyoza_2024_restaurant_28000495",
      "lat": "34.692249",
      "lng": "135.191835",
      "geocode_source": "geocoding_jp",
      "coordinate_level": "prefecture",
      "normalized_address": "兵庫県神戸市中央区北長狭通1-31-37",
      "id": "gyoza-84"
    },
    {
      "name": "餃子のゆうた",
      "url": "https://tabelog.com/osaka/A2707/A270702/27077583/",
      "address": "大阪府寝屋川市田井西町5-1",
      "code": "hyakumeiten_gyoza_2024_restaurant_27077583",
      "lat": "34.777687",
      "lng": "135.624542",
      "geocode_source": "geocoding_jp",
      "coordinate_level": "city",
      "normalized_address": "大阪府寝屋川市田井西町5-1",
      "id": "gyoza-85"
    },
    {
      "name": "泉門天 祇園本店",
      "url": "https://tabelog.com/kyoto/A2601/A260301/26001868/",
      "address": "京都府京都市東山区花見小路新橋下ル 竹会館 1F",
      "code": "hyakumeiten_gyoza_2024_restaurant_26001868",
      "lat": "35.005359",
      "lng": "135.775345",
      "geocode_source": "geocoding_jp",
      "coordinate_level": "prefecture",
      "normalized_address": "京都府京都市東山区花見小路新橋下ル 竹会館 1F",
      "id": "gyoza-86"
    },
    {
      "name": "ぎょうざ屋",
      "url": "https://tabelog.com/kagawa/A3701/A370101/37000870/",
      "address": "香川県高松市古馬場町3-1 真鍋ビル １Ｆ",
      "code": "hyakumeiten_gyoza_2024_restaurant_37000870",
      "lat": "34.342934",
      "lng": "134.052768",
      "geocode_source": "geocoding_jp",
      "coordinate_level": "prefecture",
      "normalized_address": "香川県高松市古馬場町3-1 真鍋ビル 1F",
      "id": "gyoza-87"
    },
    {
      "name": "永楽",
      "url": "https://tabelog.com/tokyo/A1312/A131204/13052293/",
      "address": "東京都江戸川区北小岩5-16-2",
      "code": "hyakumeiten_gyoza_2024_restaurant_13052293",
      "lat": "35.74044",
      "lng": "139.889517",
      "geocode_source": "abr",
      "coordinate_level": "residential_block",
      "normalized_address": "東京都江戸川区北小岩五丁目16-2",
      "id": "gyoza-88"
    },
    {
      "name": "英洋軒 姫路駅前店",
      "url": "https://tabelog.com/hyogo/A2805/A280501/28037232/",
      "address": "兵庫県姫路市駅前町301",
      "code": "hyakumeiten_gyoza_2024_restaurant_28037232",
      "lat": "34.828822",
      "lng": "134.692398",
      "geocode_source": "geocoding_jp",
      "coordinate_level": "prefecture",
      "normalized_address": "兵庫県姫路市駅前町301",
      "id": "gyoza-89"
    },
    {
      "name": "餃子 おそ松 六本松",
      "url": "https://tabelog.com/fukuoka/A4001/A400105/40057000/",
      "address": "福岡県福岡市中央区六本松4-5-22",
      "code": "hyakumeiten_gyoza_2024_restaurant_40057000",
      "lat": "33.574126",
      "lng": "130.378249",
      "geocode_source": "geocoding_jp",
      "coordinate_level": "city",
      "normalized_address": "福岡県福岡市中央区六本松4丁目5-22",
      "id": "gyoza-90"
    },
    {
      "name": "中央亭",
      "url": "https://tabelog.com/shizuoka/A2205/A220501/22039475/",
      "address": "静岡県沼津市添地町46",
      "code": "hyakumeiten_gyoza_2024_restaurant_22039475",
      "lat": "35.10191",
      "lng": "138.856036",
      "geocode_source": "geocoding_jp",
      "coordinate_level": "city",
      "normalized_address": "静岡県沼津市添地町46",
      "id": "gyoza-91"
    },
    {
      "name": "ぎょうざ専門店唐や 錦店",
      "url": "https://tabelog.com/aichi/A2301/A230103/23015455/",
      "address": "愛知県名古屋市中区錦3-12-5",
      "code": "hyakumeiten_gyoza_2024_restaurant_23015455",
      "lat": "35.171029",
      "lng": "136.903729",
      "geocode_source": "abr",
      "coordinate_level": "residential_block",
      "normalized_address": "愛知県名古屋市中区錦三丁目12-5",
      "id": "gyoza-92"
    },
    {
      "name": "悟空",
      "url": "https://tabelog.com/tochigi/A0901/A090101/9014744/",
      "address": "栃木県宇都宮市馬場通り4-2-4 日野屋ビル 1F",
      "code": "hyakumeiten_gyoza_2024_restaurant_9014744",
      "lat": "36.561664697",
      "lng": "139.887514656",
      "geocode_source": "abr",
      "coordinate_level": "residential_detail",
      "normalized_address": "栃木県宇都宮市馬場通り4丁目2-4 日野屋ビル 1F",
      "id": "gyoza-93"
    },
    {
      "name": "馬上荘",
      "url": "https://tabelog.com/fukuoka/A4001/A400203/40000268/",
      "address": "福岡県福岡市早良区西新1-7-6",
      "code": "hyakumeiten_gyoza_2024_restaurant_40000268",
      "lat": "33.583688",
      "lng": "130.362985",
      "geocode_source": "geocoding_jp",
      "coordinate_level": "city",
      "normalized_address": "福岡県福岡市早良区西新1丁目7-6",
      "id": "gyoza-94"
    },
    {
      "name": "餃子館",
      "url": "https://tabelog.com/tokyo/A1318/A131809/13108385/",
      "address": "東京都世田谷区上北沢4-29-19",
      "code": "hyakumeiten_gyoza_2024_restaurant_13108385",
      "lat": "35.670585",
      "lng": "139.619521",
      "geocode_source": "abr",
      "coordinate_level": "residential_block",
      "normalized_address": "東京都世田谷区上北沢4丁目29-19",
      "id": "gyoza-95"
    },
    {
      "name": "亀戸ぎょうざ 錦糸町店",
      "url": "https://tabelog.com/tokyo/A1312/A131201/13041091/",
      "address": "東京都墨田区江東橋3-9-1",
      "code": "hyakumeiten_gyoza_2024_restaurant_13041091",
      "lat": "35.694726",
      "lng": "139.813227",
      "geocode_source": "geocoding_jp",
      "coordinate_level": "city",
      "normalized_address": "東京都墨田区江東橋3-9-1",
      "id": "gyoza-96"
    },
    {
      "name": "鎮海楼",
      "url": "https://tabelog.com/tokyo/A1316/A131601/13020138/",
      "address": "東京都品川区上大崎2-15-6 市川ビル 1F",
      "code": "hyakumeiten_gyoza_2024_restaurant_13020138",
      "lat": "35.634388",
      "lng": "139.7166",
      "geocode_source": "abr",
      "coordinate_level": "residential_block",
      "normalized_address": "東京都品川区上大崎2丁目15-6 市川ビル 1F",
      "id": "gyoza-97"
    },
    {
      "name": "天平 北新地本店",
      "url": "https://tabelog.com/osaka/A2701/A270101/27000184/",
      "address": "大阪府大阪市北区曽根崎新地1-8-12",
      "code": "hyakumeiten_gyoza_2024_restaurant_27000184",
      "lat": "34.697522",
      "lng": "135.500042",
      "geocode_source": "geocoding_jp",
      "coordinate_level": "city",
      "normalized_address": "大阪府大阪市北区曽根崎新地1-8-12",
      "id": "gyoza-98"
    },
    {
      "name": "水餃子の店哈尓濱",
      "url": "https://tabelog.com/osaka/A2706/A270604/27001153/",
      "address": "大阪府茨木市西駅前町8-5",
      "code": "hyakumeiten_gyoza_2024_restaurant_27001153",
      "lat": "34.814798",
      "lng": "135.561027",
      "geocode_source": "geocoding_jp",
      "coordinate_level": "city",
      "normalized_address": "大阪府茨木市西駅前町8-5",
      "id": "gyoza-99"
    }
  ]
}
